%time,field.header.seq,field.header.stamp,field.pose.position.x,field.pose.position.y,field.pose.position.z,field.pose.orientation.x,field.pose.orientation.y,field.pose.orientation.z,field.pose.orientation.w
1609059060109753943,8715,1609059060109753943,-0.00134320282905,-0.000690968632131,-3.40812027133e-06,0.0,0.0,0.0,1.0
1609059060163541890,8716,1609059060163541890,-0.00138718603406,-0.000445198819364,-2.13433009577e-06,0.0,0.0,0.0,1.0
1609059060208969927,8717,1609059060208969927,-0.00116331009808,-0.000485680366374,-0.000102443790194,0.0,0.0,0.0,1.0
1609059060260316945,8718,1609059060260316945,-0.0010939803544,-0.000626658170852,-0.000185926138045,0.0,0.0,0.0,1.0
1609059060309920884,8719,1609059060309920884,-0.00123951522067,-0.000658601003138,-7.04242281344e-05,0.0,0.0,0.0,1.0
1609059060361595965,8720,1609059060361595965,-0.00130211029496,-0.00058870137731,-0.000107621583012,0.0,0.0,0.0,1.0
1609059060412225104,8721,1609059060412225104,-0.00131213250371,-0.000682091782849,-0.000244622781423,0.0,0.0,0.0,1.0
1609059060460730887,8722,1609059060460730887,-0.00120071372705,-0.000591825319017,-0.000228436151907,0.0,0.0,0.0,1.0
1609059060511834002,8723,1609059060511834002,-0.0013577674764,-0.000626726697934,-0.000104475764473,0.0,0.0,0.0,1.0
1609059060561337090,8724,1609059060561337090,-0.00130735100873,-0.000560949044136,-5.75188451393e-05,0.0,0.0,0.0,1.0
1609059060609370089,8725,1609059060609370089,-0.0012947031613,-0.000577353529383,-9.80460482793e-05,0.0,0.0,0.0,1.0
1609059060661104060,8726,1609059060661104060,-0.00132009270682,-0.000555171494284,-0.000253603351489,0.0,0.0,0.0,1.0
1609059060710655070,8727,1609059060710655070,-0.00133850976058,-0.000526961269291,-0.000187718697575,0.0,0.0,0.0,1.0
1609059060761712885,8728,1609059060761712885,-0.00121303662125,-0.000645775758638,0.000139537427046,0.0,0.0,0.0,1.0
1609059060810151911,8729,1609059060810151911,-0.00110283236186,-0.000550995509393,-5.55397220019e-05,0.0,0.0,0.0,1.0
1609059060859999037,8730,1609059060859999037,-0.00133465925495,-0.000513600743709,-0.000170880271767,0.0,0.0,0.0,1.0
1609059060911767102,8731,1609059060911767102,-0.00156443731711,-0.000683075108483,4.20842491842e-05,0.0,0.0,0.0,1.0
1609059060960688925,8732,1609059060960688925,-0.00144329982969,-0.000601443265857,3.34396640476e-05,0.0,0.0,0.0,1.0
1609059061008704997,8733,1609059061008704997,-0.00132941689852,-0.0005073564109,-0.000166943911648,0.0,0.0,0.0,1.0
1609059061060191966,8734,1609059061060191966,-0.00143349814194,-0.000687839939019,-0.000115095092109,0.0,0.0,0.0,1.0
1609059061110757924,8735,1609059061110757924,-0.00132050741955,-0.000602329872816,-0.000108265907091,0.0,0.0,0.0,1.0
1609059061162473059,8736,1609059061162473059,-0.00130577147949,-0.000572281358597,-7.73373511684e-05,0.0,0.0,0.0,1.0
1609059061212312079,8737,1609059061212312079,-0.00109185864437,-0.000606238578129,-0.000155891543745,0.0,0.0,0.0,1.0
1609059061260828114,8738,1609059061260828114,-0.00124686646315,-0.000643322906441,-3.77391677517e-05,0.0,0.0,0.0,1.0
1609059061309517956,8739,1609059061309517956,-0.0012898268119,-0.000592082112544,9.27975728899e-05,0.0,0.0,0.0,1.0
1609059061363396025,8740,1609059061363396025,-0.00145018857735,-0.000660672393185,-5.28401888573e-05,0.0,0.0,0.0,1.0
1609059061410379982,8741,1609059061410379982,-0.00148566483645,-0.000611468056015,-0.000153919034908,0.0,0.0,0.0,1.0
1609059061459668017,8742,1609059061459668017,-0.00143338858102,-0.000678922956414,-0.000101045944223,0.0,0.0,0.0,1.0
1609059061510033942,8743,1609059061510033942,-0.00135536921198,-0.000738031392302,-6.43180896454e-05,0.0,0.0,0.0,1.0
1609059061559636927,8744,1609059061559636927,-0.00132179910093,-0.000531497364758,5.80523699156e-06,0.0,0.0,0.0,1.0
1609059061610246993,8745,1609059061610246993,-0.00129612802223,-0.000578335049195,-9.79783080695e-05,0.0,0.0,0.0,1.0
1609059061664760924,8746,1609059061664760924,-0.00119742879581,-0.000406652681434,6.2161275725e-05,0.0,0.0,0.0,1.0
1609059061709381915,8747,1609059061709381915,-0.00123403932925,-0.00063618345143,-4.1045822357e-05,0.0,0.0,0.0,1.0
1609059061760784007,8748,1609059061760784007,-0.00134626930178,-0.000508315807629,7.06133257609e-05,0.0,0.0,0.0,1.0
1609059061810316897,8749,1609059061810316897,-0.00132377520321,-0.000555077772376,-2.94205051325e-05,0.0,0.0,0.0,1.0
1609059061859828091,8750,1609059061859828091,-0.00129951498488,-0.000567835177225,-7.7418013408e-05,0.0,0.0,0.0,1.0
1609059061911971903,8751,1609059061911971903,-0.00140006750765,-0.000663409631031,-0.000114456977613,0.0,0.0,0.0,1.0
1609059061960199929,8752,1609059061960199929,-0.00128759425628,-0.00057895465482,-0.000108713384446,0.0,0.0,0.0,1.0
1609059062011067009,8753,1609059062011067009,-0.00121023034843,-0.000693146269125,-0.000158795906742,0.0,0.0,0.0,1.0
1609059062059465981,8754,1609059062059465981,-0.00135948523128,-0.000738087491467,-5.97045273025e-05,0.0,0.0,0.0,1.0
1609059062109428025,8755,1609059062109428025,-0.00106054101106,-0.000607644229078,-0.000193907000089,0.0,0.0,0.0,1.0
1609059062162278033,8756,1609059062162278033,-0.00131801139141,-0.000492892332204,-0.000156983112795,0.0,0.0,0.0,1.0
1609059062211675025,8757,1609059062211675025,-0.0012087884453,-0.000512781916289,-9.3563907722e-05,0.0,0.0,0.0,1.0
1609059062259235955,8758,1609059062259235955,-0.00122017180648,-0.000488177332212,-4.14465047101e-05,0.0,0.0,0.0,1.0
1609059062310269928,8759,1609059062310269928,-0.00116031080509,-0.000456509109725,-5.9499872247e-05,0.0,0.0,0.0,1.0
1609059062359449959,8760,1609059062359449959,-0.00124762484122,-0.000487086623306,-8.34651080694e-06,0.0,0.0,0.0,1.0
1609059062412459946,8761,1609059062412459946,-0.00105895756531,-0.000608094198803,-0.000196431381134,0.0,0.0,0.0,1.0
1609059062459810114,8762,1609059062459810114,-0.00137041887631,-0.000479208304661,-7.53533268316e-05,0.0,0.0,0.0,1.0
1609059062510324097,8763,1609059062510324097,-0.00114623333449,-0.00049095007396,8.94962317552e-05,0.0,0.0,0.0,1.0
1609059062561608887,8764,1609059062561608887,-0.00135447165023,-0.000505432930755,8.45676154064e-05,0.0,0.0,0.0,1.0
1609059062611192084,8765,1609059062611192084,-0.00109212373304,-0.000324482465036,-0.000147362271512,0.0,0.0,0.0,1.0
1609059062659429884,8766,1609059062659429884,-0.000938978964314,-0.000467285273416,-0.000109680332294,0.0,0.0,0.0,1.0
1609059062711290932,8767,1609059062711290932,-0.000822131344535,-0.000201802388052,-4.0992820697e-05,0.0,0.0,0.0,1.0
1609059062759840107,8768,1609059062759840107,-0.000471429703232,-0.000201444842435,-1.44895931697e-06,0.0,0.0,0.0,1.0
1609059062808787919,8769,1609059062808787919,-0.000746989362352,-0.000166116531407,-7.01164169037e-05,0.0,0.0,0.0,1.0
1609059062862607098,8770,1609059062862607098,-0.000492086228391,-0.000257464668326,-6.68992654091e-05,0.0,0.0,0.0,1.0
1609059062909631110,8771,1609059062909631110,-0.000668305094045,-0.000232853566711,-4.62733700459e-05,0.0,0.0,0.0,1.0
1609059062961690999,8772,1609059062961690999,-0.000954081388997,-0.000129159205191,0.000225240032876,0.0,0.0,0.0,1.0
1609059063011700964,8773,1609059063011700964,-0.000746552432609,-0.000192669336581,0.000107003222812,0.0,0.0,0.0,1.0
1609059063060078955,8774,1609059063060078955,-0.00102754754655,-0.000430629908529,4.97791931338e-05,0.0,0.0,0.0,1.0
1609059063111758090,8775,1609059063111758090,-0.000806753088479,-0.000289999802032,2.10642620857e-05,0.0,0.0,0.0,1.0
1609059063166828013,8776,1609059063166828013,-0.00125392134591,-0.000645102450356,-3.25074359964e-05,0.0,0.0,0.0,1.0
1609059063208820916,8777,1609059063208820916,-0.00071801771578,-0.000671802322572,-2.77544886451e-05,0.0,0.0,0.0,1.0
1609059063259769059,8778,1609059063259769059,-0.00119771676639,-0.000188280294132,0.000189792118654,0.0,0.0,0.0,1.0
1609059063309748030,8779,1609059063309748030,-0.00181496225414,-0.000632256265682,0.000189280435183,0.0,0.0,0.0,1.0
1609059063361337996,8780,1609059063361337996,-0.000880083473252,-0.00041189179543,-8.89157637047e-05,0.0,0.0,0.0,1.0
1609059063411953068,8781,1609059063411953068,-0.00179519666732,-0.000293588296859,0.000265389648096,0.0,0.0,0.0,1.0
1609059063458989954,8782,1609059063458989954,-0.00276408811326,-0.000963672738184,0.000527116432888,0.0,0.0,0.0,1.0
1609059063511727906,8783,1609059063511727906,-0.000726785445803,-0.00058353414596,-0.000317075655179,0.0,0.0,0.0,1.0
1609059063561069108,8784,1609059063561069108,0.000135509389768,0.000245213986627,-0.000204664158211,0.0,0.0,0.0,1.0
1609059063609712935,8785,1609059063609712935,-0.00212690382741,-0.000331824829956,0.000363783264493,0.0,0.0,0.0,1.0
1609059063661177016,8786,1609059063661177016,-0.00186384615276,-0.000753234649604,5.28261948425e-05,0.0,0.0,0.0,1.0
1609059063710335112,8787,1609059063710335112,-0.000710984810929,-0.000561188181958,-7.97830343195e-05,0.0,0.0,0.0,1.0
1609059063761062956,8788,1609059063761062956,-0.00170938497557,-0.000596046771101,0.000126208819065,0.0,0.0,0.0,1.0
1609059063810330010,8789,1609059063810330010,-0.00245868122223,-0.00101426255612,9.77273407052e-05,0.0,0.0,0.0,1.0
1609059063858721114,8790,1609059063858721114,-0.00191427236274,-0.000927710323293,5.29259269335e-05,0.0,0.0,0.0,1.0
1609059063912254906,8791,1609059063912254906,-0.00188239067956,-0.000674736279823,-2.1033465611e-05,0.0,0.0,0.0,1.0
1609059063962037898,8792,1609059063962037898,-0.00270760455837,-0.00100100728339,0.000403227035363,0.0,0.0,0.0,1.0
1609059064013912058,8793,1609059064013912058,-0.0023608319418,-0.000929031656437,0.000121405294713,0.0,0.0,0.0,1.0
1609059064062143899,8794,1609059064062143899,-0.00213770702331,-0.000943278108618,6.36451619087e-05,0.0,0.0,0.0,1.0
1609059064109524107,8795,1609059064109524107,-0.00260954613917,-0.00106333446926,0.000192105480778,0.0,0.0,0.0,1.0
1609059064163374997,8796,1609059064163374997,-0.00263138928329,-0.00106482108547,0.000214701133885,0.0,0.0,0.0,1.0
1609059064211239911,8797,1609059064211239911,-0.00282892331824,-0.00104225904624,0.000256444478136,0.0,0.0,0.0,1.0
1609059064259748078,8798,1609059064259748078,-0.00406043864833,-0.00160144255721,0.00055498215653,0.0,0.0,0.0,1.0
1609059064311684943,8799,1609059064311684943,-0.00530191924976,-0.00220084918051,0.000581241642632,0.0,0.0,0.0,1.0
1609059064363276101,8800,1609059064363276101,-0.00652893865769,-0.0027087238163,0.000736575793152,0.0,0.0,0.0,1.0
1609059064409565068,8801,1609059064409565068,-0.00941598150183,-0.00375644446955,0.000832141185263,0.0,0.0,0.0,1.0
1609059064460125065,8802,1609059064460125065,-0.0104192033506,-0.00435495098828,0.000807767449214,0.0,0.0,0.0,1.0
1609059064510911084,8803,1609059064510911084,-0.0112432930571,-0.00464891059668,0.000842899782704,0.0,0.0,0.0,1.0
1609059064560648060,8804,1609059064560648060,-0.0120232976997,-0.0049773302494,0.000992754315742,0.0,0.0,0.0,1.0
1609059064611008025,8805,1609059064611008025,-0.0123783494835,-0.0052896800381,0.000902208643758,0.0,0.0,0.0,1.0
1609059064662107087,8806,1609059064662107087,-0.0127146099138,-0.00542708023379,0.000848406553029,0.0,0.0,0.0,1.0
1609059064716770030,8807,1609059064716770030,-0.0128640295723,-0.00577829272388,0.00112057177819,0.0,0.0,0.0,1.0
1609059064768049098,8808,1609059064768049098,-0.0122946431911,-0.00559235124657,0.0012048453104,0.0,0.0,0.0,1.0
1609059064815341092,8809,1609059064815341092,-0.0132133840024,-0.0061726277203,0.0013329421229,0.0,0.0,0.0,1.0
1609059064867985106,8810,1609059064867985106,-0.0129492169574,-0.00588883538546,0.00126212228193,0.0,0.0,0.0,1.0
1609059064916385985,8811,1609059064916385985,-0.0127531028972,-0.00581457862452,0.00137578258808,0.0,0.0,0.0,1.0
1609059064968033886,8812,1609059064968033886,-0.0129302968582,-0.00630634608117,0.00167616508106,0.0,0.0,0.0,1.0
1609059065010255909,8813,1609059065010255909,-0.0126630579912,-0.0064953421276,0.00150994075263,0.0,0.0,0.0,1.0
1609059065061044074,8814,1609059065061044074,-0.0124086816412,-0.0068188934408,0.00180412111292,0.0,0.0,0.0,1.0
1609059065109263039,8815,1609059065109263039,-0.0120028530711,-0.00707296004005,0.00247529614469,0.0,0.0,0.0,1.0
1609059065162959910,8816,1609059065162959910,-0.0114092038895,-0.00721576916729,0.00442779429517,0.0,0.0,0.0,1.0
1609059065211469031,8817,1609059065211469031,-0.0108003934065,-0.00784087684854,0.0121938614764,0.0,0.0,0.0,1.0
1609059065261025048,8818,1609059065261025048,-0.00960108775467,-0.00876295881206,0.0188142212529,0.0,0.0,0.0,1.0
1609059065311282969,8819,1609059065311282969,-0.00630654776295,-0.0121312984492,0.0237665335384,0.0,0.0,0.0,1.0
1609059065360677100,8820,1609059065360677100,-0.00609924077706,-0.0112048802904,0.0401923671167,0.0,0.0,0.0,1.0
1609059065412217951,8821,1609059065412217951,-0.00455229409168,-0.012756500375,0.0531284530402,0.0,0.0,0.0,1.0
1609059065460887051,8822,1609059065460887051,-0.0010685239772,-0.0159947929615,0.0821070414232,0.0,0.0,0.0,1.0
1609059065510054923,8823,1609059065510054923,0.000772203978418,-0.0179394984576,0.0987343670434,0.0,0.0,0.0,1.0
1609059065560787058,8824,1609059065560787058,0.00263280282408,-0.0195512283565,0.116545044631,0.0,0.0,0.0,1.0
1609059065611212111,8825,1609059065611212111,0.00399704511084,-0.0213813161328,0.136359375004,0.0,0.0,0.0,1.0
1609059065661968089,8826,1609059065661968089,0.00520374788958,-0.0231008056736,0.157212851753,0.0,0.0,0.0,1.0
1609059065711843110,8827,1609059065711843110,0.00700709540726,-0.027872102465,0.19864794362,0.0,0.0,0.0,1.0
1609059065762305117,8828,1609059065762305117,0.00720963388612,-0.0298617659941,0.220283196457,0.0,0.0,0.0,1.0
1609059065809562064,8829,1609059065809562064,0.00714147032326,-0.0321199706322,0.243152962162,0.0,0.0,0.0,1.0
1609059065860966063,8830,1609059065860966063,0.00667861256933,-0.0344471019294,0.267726894738,0.0,0.0,0.0,1.0
1609059065910872078,8831,1609059065910872078,0.00597848860113,-0.0368648610092,0.291343680428,0.0,0.0,0.0,1.0
1609059065961218930,8832,1609059065961218930,0.00318221438982,-0.0419467345777,0.339657006013,0.0,0.0,0.0,1.0
1609059066012298918,8833,1609059066012298918,0.0011512127062,-0.0441262632149,0.365066846939,0.0,0.0,0.0,1.0
1609059066067318059,8834,1609059066067318059,-0.00102340750862,-0.0459037260419,0.389985946671,0.0,0.0,0.0,1.0
1609059066116757966,8835,1609059066116757966,-0.00359639937275,-0.0480273668691,0.41371876403,0.0,0.0,0.0,1.0
1609059066169602967,8836,1609059066169602967,-0.00823083551139,-0.0521229984963,0.460688705217,0.0,0.0,0.0,1.0
1609059066215828991,8837,1609059066215828991,-0.011230120164,-0.0543133221243,0.484671149122,0.0,0.0,0.0,1.0
1609059066267691947,8838,1609059066267691947,-0.0142042828948,-0.0564665201086,0.5078133453,0.0,0.0,0.0,1.0
1609059066314173079,8839,1609059066314173079,-0.0177592004879,-0.0584046550847,0.529542232358,0.0,0.0,0.0,1.0
1609059066368594027,8840,1609059066368594027,-0.0209634387726,-0.060741816757,0.550903463103,0.0,0.0,0.0,1.0
1609059066417888976,8841,1609059066417888976,-0.0294177054795,-0.06505052499,0.593557698832,0.0,0.0,0.0,1.0
1609059066466152049,8842,1609059066466152049,-0.033580631339,-0.0666391828555,0.612835472199,0.0,0.0,0.0,1.0
1609059066515782929,8843,1609059066515782929,-0.0380412761991,-0.069264636264,0.633043943937,0.0,0.0,0.0,1.0
1609059066569561101,8844,1609059066569561101,-0.0422822448057,-0.0716152260488,0.651879980528,0.0,0.0,0.0,1.0
1609059066618276930,8845,1609059066618276930,-0.0461326168036,-0.0736057651079,0.67154417887,0.0,0.0,0.0,1.0
1609059066666853047,8846,1609059066666853047,-0.055381079913,-0.0774935514169,0.709757555724,0.0,0.0,0.0,1.0
1609059066714965916,8847,1609059066714965916,-0.0612737138968,-0.0799293537886,0.728461557047,0.0,0.0,0.0,1.0
1609059066768891907,8848,1609059066768891907,-0.0654975988704,-0.0814643546692,0.745540818489,0.0,0.0,0.0,1.0
1609059066815790034,8849,1609059066815790034,-0.0705339730283,-0.0835021994206,0.764600377457,0.0,0.0,0.0,1.0
1609059066871042109,8850,1609059066871042109,-0.079056724639,-0.08743218998,0.801615543667,0.0,0.0,0.0,1.0
1609059066917111969,8851,1609059066917111969,-0.0838870689385,-0.0902657231939,0.820763096159,0.0,0.0,0.0,1.0
1609059066967727042,8852,1609059066967727042,-0.0885559412178,-0.0918200167879,0.840037618493,0.0,0.0,0.0,1.0
1609059067016174889,8853,1609059067016174889,-0.0928325779613,-0.094179958355,0.860034231744,0.0,0.0,0.0,1.0
1609059067070432997,8854,1609059067070432997,-0.0973670767885,-0.0956183226597,0.880070112444,0.0,0.0,0.0,1.0
1609059067117092944,8855,1609059067117092944,-0.106662701156,-0.0988394699823,0.924043362543,0.0,0.0,0.0,1.0
1609059067167837000,8856,1609059067167837000,-0.110588884967,-0.100430693498,0.947295368657,0.0,0.0,0.0,1.0
1609059067216130114,8857,1609059067216130114,-0.115457044071,-0.101957368314,0.970681200994,0.0,0.0,0.0,1.0
1609059067265441037,8858,1609059067265441037,-0.118850655832,-0.103289506338,0.993086717806,0.0,0.0,0.0,1.0
1609059067316021061,8859,1609059067316021061,-0.123050118202,-0.103991634307,1.0166413975,0.0,0.0,0.0,1.0
1609059067369942046,8860,1609059067369942046,-0.130753808661,-0.106356399268,1.06414676407,0.0,0.0,0.0,1.0
1609059067417642928,8861,1609059067417642928,-0.135515636132,-0.107271103789,1.08719950854,0.0,0.0,0.0,1.0
1609059067468091107,8862,1609059067468091107,-0.137939040684,-0.107268473128,1.1105825877,0.0,0.0,0.0,1.0
1609059067516147948,8863,1609059067516147948,-0.141173287524,-0.107072461403,1.1371806136,0.0,0.0,0.0,1.0
1609059067569914914,8864,1609059067569914914,-0.149225137259,-0.107599531409,1.1927528363,0.0,0.0,0.0,1.0
1609059067617086030,8865,1609059067617086030,-0.152665930799,-0.107770074297,1.22120351828,0.0,0.0,0.0,1.0
1609059067667717076,8866,1609059067667717076,-0.155932456331,-0.107868601847,1.24867084084,0.0,0.0,0.0,1.0
1609059067715962983,8867,1609059067715962983,-0.159449340995,-0.107445200134,1.27785250727,0.0,0.0,0.0,1.0
1609059067767742968,8868,1609059067767742968,-0.162656154688,-0.106878517516,1.30740975483,0.0,0.0,0.0,1.0
1609059067818132020,8869,1609059067818132020,-0.165640917789,-0.106172724062,1.33603839164,0.0,0.0,0.0,1.0
1609059067868094063,8870,1609059067868094063,-0.168732188148,-0.105431252822,1.36490785834,0.0,0.0,0.0,1.0
1609059067916330910,8871,1609059067916330910,-0.173886440371,-0.104495414683,1.41748570228,0.0,0.0,0.0,1.0
1609059068010885096,8872,1609059068010885096,-0.179293319147,-0.102493275163,1.4730942759,0.0,0.0,0.0,1.0
1609059068120441056,8873,1609059068120441056,-0.186274539046,-0.0983114792712,1.5610240454,0.0,0.0,0.0,1.0
1609059068168758011,8874,1609059068168758011,-0.187939566347,-0.0971538196285,1.58965407248,0.0,0.0,0.0,1.0
1609059068215323067,8875,1609059068215323067,-0.190344146331,-0.0956232377092,1.6201632583,0.0,0.0,0.0,1.0
1609059068264998055,8876,1609059068264998055,-0.19363261168,-0.0936057267596,1.65127528947,0.0,0.0,0.0,1.0
1609059068316964961,8877,1609059068316964961,-0.195180286914,-0.0912997563691,1.67928890124,0.0,0.0,0.0,1.0
1609059068369728900,8878,1609059068369728900,-0.197248165018,-0.0895128565974,1.70805998727,0.0,0.0,0.0,1.0
1609059068416693068,8879,1609059068416693068,-0.201666355252,-0.0851335437529,1.76681268841,0.0,0.0,0.0,1.0
1609059068467240906,8880,1609059068467240906,-0.20339097467,-0.083061956095,1.79482999134,0.0,0.0,0.0,1.0
1609059068510151959,8881,1609059068510151959,-0.205617580494,-0.0806024536459,1.82157752151,0.0,0.0,0.0,1.0
1609059068563139058,8882,1609059068563139058,-0.20712992847,-0.0780255610596,1.84765249148,0.0,0.0,0.0,1.0
1609059068613398886,8883,1609059068613398886,-0.211030081588,-0.0714946186926,1.9020647044,0.0,0.0,0.0,1.0
1609059068659636117,8884,1609059068659636117,-0.21298314285,-0.0681342124809,1.92757184635,0.0,0.0,0.0,1.0
1609059068710106946,8885,1609059068710106946,-0.21508934724,-0.0647467500632,1.95409659168,0.0,0.0,0.0,1.0
1609059068762185908,8886,1609059068762185908,-0.216956706551,-0.0614287329669,1.97998545787,0.0,0.0,0.0,1.0
1609059068810608006,8887,1609059068810608006,-0.21893419218,-0.0575745142985,2.00653614452,0.0,0.0,0.0,1.0
1609059068862106896,8888,1609059068862106896,-0.223322905125,-0.0492561881475,2.05997441003,0.0,0.0,0.0,1.0
1609059068911436892,8889,1609059068911436892,-0.22548652632,-0.0451948348037,2.08556571267,0.0,0.0,0.0,1.0
1609059068960553027,8890,1609059068960553027,-0.227274323761,-0.0413113538417,2.11013677432,0.0,0.0,0.0,1.0
1609059069012225009,8891,1609059069012225009,-0.229179754659,-0.0368340759963,2.13671573757,0.0,0.0,0.0,1.0
1609059069061744071,8892,1609059069061744071,-0.231264256511,-0.0320546209424,2.16240453628,0.0,0.0,0.0,1.0
1609059069109280921,8893,1609059069109280921,-0.23469528741,-0.0229641550525,2.21306639672,0.0,0.0,0.0,1.0
1609059069163124896,8894,1609059069163124896,-0.236580045724,-0.0178096475279,2.24029348755,0.0,0.0,0.0,1.0
1609059069210131026,8895,1609059069210131026,-0.238144325362,-0.012928564458,2.26688966607,0.0,0.0,0.0,1.0
1609059069259759045,8896,1609059069259759045,-0.239831943865,-0.00875226883602,2.29364405718,0.0,0.0,0.0,1.0
1609059069327539063,8897,1609059069327539063,-0.243805946077,0.00141138416836,2.34944111671,0.0,0.0,0.0,1.0
1609059069376619912,8898,1609059069376619912,-0.245241545401,0.0066478736368,2.37895659234,0.0,0.0,0.0,1.0
1609059069421757079,8899,1609059069421757079,-0.246034584518,0.0115050382336,2.40596422079,0.0,0.0,0.0,1.0
1609059069471012927,8900,1609059069471012927,-0.247279204681,0.016975741428,2.43451620881,0.0,0.0,0.0,1.0
1609059069515227891,8901,1609059069515227891,-0.248679386743,0.0221425988592,2.4637707479,0.0,0.0,0.0,1.0
1609059069567556000,8902,1609059069567556000,-0.251571605909,0.0329032483208,2.52261801443,0.0,0.0,0.0,1.0
1609059069616932965,8903,1609059069616932965,-0.252409939725,0.0380235840978,2.55119416514,0.0,0.0,0.0,1.0
1609059069666148043,8904,1609059069666148043,-0.252468509892,0.0438058675628,2.58025561989,0.0,0.0,0.0,1.0
1609059069716575957,8905,1609059069716575957,-0.25373728166,0.0487093129171,2.6078580907,0.0,0.0,0.0,1.0
1609059069768562890,8906,1609059069768562890,-0.254975644565,0.0549536455712,2.63748785744,0.0,0.0,0.0,1.0
1609059069817957974,8907,1609059069817957974,-0.256269526233,0.0667840684437,2.69609397381,0.0,0.0,0.0,1.0
1609059069869685984,8908,1609059069869685984,-0.256701281748,0.0727258269992,2.72625821581,0.0,0.0,0.0,1.0
1609059069916819907,8909,1609059069916819907,-0.256557971881,0.0783998218772,2.75390695601,0.0,0.0,0.0,1.0
1609059069967784024,8910,1609059069967784024,-0.257303522718,0.0846851339356,2.78374449144,0.0,0.0,0.0,1.0
1609059070014896966,8911,1609059070014896966,-0.257612531807,0.090926061389,2.81321079962,0.0,0.0,0.0,1.0
1609059070068646050,8912,1609059070068646050,-0.258395123475,0.104705403253,2.87606979862,0.0,0.0,0.0,1.0
1609059070115722037,8913,1609059070115722037,-0.258954984392,0.1117688364,2.90662649489,0.0,0.0,0.0,1.0
1609059070166584111,8914,1609059070166584111,-0.258974395191,0.118376931855,2.93587551809,0.0,0.0,0.0,1.0
1609059070217449999,8915,1609059070217449999,-0.259046110498,0.125067274169,2.96645169871,0.0,0.0,0.0,1.0
1609059070269989110,8916,1609059070269989110,-0.258907303559,0.132201437005,2.99713942944,0.0,0.0,0.0,1.0
1609059070317109919,8917,1609059070317109919,-0.258782376027,0.146182531012,3.05681241748,0.0,0.0,0.0,1.0
1609059070367441988,8918,1609059070367441988,-0.258972871908,0.153607024839,3.08690548116,0.0,0.0,0.0,1.0
1609059070416131115,8919,1609059070416131115,-0.259038879541,0.159785967981,3.11445422695,0.0,0.0,0.0,1.0
1609059070467907048,8920,1609059070467907048,-0.25953024418,0.166411251521,3.14458125757,0.0,0.0,0.0,1.0
1609059070516784049,8921,1609059070516784049,-0.259319796601,0.173523553199,3.17289746643,0.0,0.0,0.0,1.0
1609059070567602969,8922,1609059070567602969,-0.259226574068,0.188064745389,3.23211480041,0.0,0.0,0.0,1.0
1609059070618299103,8923,1609059070618299103,-0.259086771205,0.195086560725,3.26185436676,0.0,0.0,0.0,1.0
1609059070667094088,8924,1609059070667094088,-0.259114600016,0.202053303549,3.29231820574,0.0,0.0,0.0,1.0
1609059070717692948,8925,1609059070717692948,-0.259659366919,0.209450277047,3.32418245156,0.0,0.0,0.0,1.0
1609059070769349909,8926,1609059070769349909,-0.259128355086,0.216340318043,3.35409377873,0.0,0.0,0.0,1.0
1609059070815215922,8927,1609059070815215922,-0.259187860494,0.229641770693,3.41104711772,0.0,0.0,0.0,1.0
1609059070865973092,8928,1609059070865973092,-0.260152811948,0.235819986199,3.44082114884,0.0,0.0,0.0,1.0
1609059070916034079,8929,1609059070916034079,-0.259746078809,0.243137733024,3.46962360287,0.0,0.0,0.0,1.0
1609059070968614913,8930,1609059070968614913,-0.260444106016,0.249504952361,3.49764369869,0.0,0.0,0.0,1.0
1609059071017885066,8931,1609059071017885066,-0.26157538645,0.256836691177,3.52696036198,0.0,0.0,0.0,1.0
1609059071067873097,8932,1609059071067873097,-0.262433224813,0.263552563956,3.55577189032,0.0,0.0,0.0,1.0
1609059071117575026,8933,1609059071117575026,-0.264011626934,0.278018324198,3.61251518473,0.0,0.0,0.0,1.0
1609059071167825079,8934,1609059071167825079,-0.265794318569,0.284018530195,3.63897945227,0.0,0.0,0.0,1.0
1609059071215099907,8935,1609059071215099907,-0.266874153058,0.291936664935,3.66702643221,0.0,0.0,0.0,1.0
1609059071268796063,8936,1609059071268796063,-0.268999275762,0.298976004714,3.69379194512,0.0,0.0,0.0,1.0
1609059071317314959,8937,1609059071317314959,-0.270323450857,0.306411216486,3.7207861361,0.0,0.0,0.0,1.0
1609059071367692090,8938,1609059071367692090,-0.274460588811,0.320246928848,3.77284031791,0.0,0.0,0.0,1.0
1609059071416322089,8939,1609059071416322089,-0.276517834141,0.327458942297,3.79871850481,0.0,0.0,0.0,1.0
1609059071468150950,8940,1609059071468150950,-0.27916499157,0.334785546459,3.8246712741,0.0,0.0,0.0,1.0
1609059071518735028,8941,1609059071518735028,-0.2813562075,0.342814871327,3.8517309801,0.0,0.0,0.0,1.0
1609059071570228911,8942,1609059071570228911,-0.287249814638,0.359160649627,3.90586473929,0.0,0.0,0.0,1.0
1609059071617461062,8943,1609059071617461062,-0.290515879092,0.366420934421,3.93062814634,0.0,0.0,0.0,1.0
1609059071666026927,8944,1609059071666026927,-0.293485144633,0.373354392133,3.95375699661,0.0,0.0,0.0,1.0
1609059071716457940,8945,1609059071716457940,-0.296705078105,0.380483944166,3.97633457494,0.0,0.0,0.0,1.0
1609059071770456887,8946,1609059071770456887,-0.300269947511,0.38814984948,3.99893914695,0.0,0.0,0.0,1.0
1609059071817504979,8947,1609059071817504979,-0.307447974651,0.402734641117,4.04027028074,0.0,0.0,0.0,1.0
1609059071865861035,8948,1609059071865861035,-0.311106530678,0.41033174069,4.06188211417,0.0,0.0,0.0,1.0
1609059071916035986,8949,1609059071916035986,-0.315230043645,0.416617586679,4.0814654989,0.0,0.0,0.0,1.0
1609059071967456913,8950,1609059071967456913,-0.318935738283,0.423717398507,4.1018924492,0.0,0.0,0.0,1.0
1609059072018355942,8951,1609059072018355942,-0.32270925103,0.430539380918,4.12158902312,0.0,0.0,0.0,1.0
1609059072069907046,8952,1609059072069907046,-0.331329200482,0.444225432832,4.16029121922,0.0,0.0,0.0,1.0
1609059072109938956,8953,1609059072109938956,-0.335762074864,0.45121977664,4.17921986348,0.0,0.0,0.0,1.0
1609059072161506987,8954,1609059072161506987,-0.339517694187,0.457828402675,4.19772316046,0.0,0.0,0.0,1.0
1609059072209986067,8955,1609059072209986067,-0.343195188519,0.463996346705,4.21490963925,0.0,0.0,0.0,1.0
1609059072261726952,8956,1609059072261726952,-0.347017860669,0.470405518125,4.23229962144,0.0,0.0,0.0,1.0
1609059072312769032,8957,1609059072312769032,-0.356431681126,0.482908523111,4.26752150448,0.0,0.0,0.0,1.0
1609059072361063099,8958,1609059072361063099,-0.360872616751,0.488134391816,4.28340195724,0.0,0.0,0.0,1.0
1609059072416118002,8959,1609059072416118002,-0.365189842778,0.493328021387,4.29819103497,0.0,0.0,0.0,1.0
1609059072470073081,8960,1609059072470073081,-0.369080050253,0.498804130919,4.31180912264,0.0,0.0,0.0,1.0
1609059072517272091,8961,1609059072517272091,-0.373752707902,0.503686512286,4.32423825888,0.0,0.0,0.0,1.0
1609059072569024897,8962,1609059072569024897,-0.382003930133,0.514603440777,4.34422745527,0.0,0.0,0.0,1.0
1609059072615374899,8963,1609059072615374899,-0.386401665868,0.518714809606,4.35145240339,0.0,0.0,0.0,1.0
1609059072667621947,8964,1609059072667621947,-0.390208028485,0.522657444219,4.35767853197,0.0,0.0,0.0,1.0
1609059072710878945,8965,1609059072710878945,-0.394201976598,0.526230433009,4.36282742969,0.0,0.0,0.0,1.0
1609059072760371066,8966,1609059072760371066,-0.397982191025,0.529606613904,4.36750345823,0.0,0.0,0.0,1.0
1609059072812902070,8967,1609059072812902070,-0.406282810521,0.535200218504,4.37521521082,0.0,0.0,0.0,1.0
1609059072859819031,8968,1609059072859819031,-0.409775461186,0.536894160388,4.37779013819,0.0,0.0,0.0,1.0
1609059072910427905,8969,1609059072910427905,-0.413335137126,0.538147407897,4.37979803176,0.0,0.0,0.0,1.0
1609059072963751889,8970,1609059072963751889,-0.416880634649,0.538396822102,4.38131670485,0.0,0.0,0.0,1.0
1609059073017895079,8971,1609059073017895079,-0.420348102759,0.538041991075,4.3822571223,0.0,0.0,0.0,1.0
1609059073070453024,8972,1609059073070453024,-0.426734808669,0.534674701086,4.38121610497,0.0,0.0,0.0,1.0
1609059073117556906,8973,1609059073117556906,-0.429314160352,0.531979701483,4.37882084667,0.0,0.0,0.0,1.0
1609059073167174912,8974,1609059073167174912,-0.431337782571,0.529114130469,4.3763295728,0.0,0.0,0.0,1.0
1609059073216889954,8975,1609059073216889954,-0.433664917911,0.524076764273,4.37216681483,0.0,0.0,0.0,1.0
1609059073270126915,8976,1609059073270126915,-0.435563643874,0.518732399527,4.36695489969,0.0,0.0,0.0,1.0
1609059073317355013,8977,1609059073317355013,-0.438598754747,0.50451680076,4.35398089004,0.0,0.0,0.0,1.0
1609059073367082930,8978,1609059073367082930,-0.439485014578,0.49611226652,4.34684496358,0.0,0.0,0.0,1.0
1609059073416545010,8979,1609059073416545010,-0.440065968339,0.486194157545,4.33881402482,0.0,0.0,0.0,1.0
1609059073466463900,8980,1609059073466463900,-0.440763582533,0.474722790258,4.33075102906,0.0,0.0,0.0,1.0
1609059073524079896,8981,1609059073524079896,-0.439811920937,0.451631669072,4.31437984104,0.0,0.0,0.0,1.0
1609059073573546029,8982,1609059073573546029,-0.438909028491,0.438651810028,4.30600771309,0.0,0.0,0.0,1.0
1609059073616668082,8983,1609059073616668082,-0.438020389247,0.424312217369,4.29701538866,0.0,0.0,0.0,1.0
1609059073666958905,8984,1609059073666958905,-0.436333750352,0.409151889191,4.28900503274,0.0,0.0,0.0,1.0
1609059073717454052,8985,1609059073717454052,-0.435085429845,0.394315107382,4.28153758375,0.0,0.0,0.0,1.0
1609059073768034077,8986,1609059073768034077,-0.432888142919,0.377447767085,4.27419980988,0.0,0.0,0.0,1.0
1609059073817700959,8987,1609059073817700959,-0.42794825123,0.340287003918,4.26015734456,0.0,0.0,0.0,1.0
1609059073866376019,8988,1609059073866376019,-0.424662879334,0.322358666059,4.25343349431,0.0,0.0,0.0,1.0
1609059073916148997,8989,1609059073916148997,-0.420906514621,0.301823327701,4.24663654725,0.0,0.0,0.0,1.0
1609059073968489028,8990,1609059073968489028,-0.417268211083,0.281539883928,4.23973334955,0.0,0.0,0.0,1.0
1609059074019003010,8991,1609059074019003010,-0.413435180044,0.259010399522,4.23170665896,0.0,0.0,0.0,1.0
1609059074067310906,8992,1609059074067310906,-0.402913878609,0.21279441239,4.21503990015,0.0,0.0,0.0,1.0
1609059074115952111,8993,1609059074115952111,-0.397850927687,0.189447836173,4.20794821441,0.0,0.0,0.0,1.0
1609059074167887068,8994,1609059074167887068,-0.392463030364,0.16564804811,4.20025963702,0.0,0.0,0.0,1.0
1609059074218221045,8995,1609059074218221045,-0.386056729456,0.14072252255,4.19228716278,0.0,0.0,0.0,1.0
1609059074268307066,8996,1609059074268307066,-0.373311783232,0.0914754327324,4.17780017064,0.0,0.0,0.0,1.0
1609059074316896058,8997,1609059074316896058,-0.366595250013,0.065055525423,4.16991229251,0.0,0.0,0.0,1.0
1609059074368596888,8998,1609059074368596888,-0.358235031409,0.0377747532544,4.16329672456,0.0,0.0,0.0,1.0
1609059074414980984,8999,1609059074414980984,-0.350008717633,0.0100221314808,4.15620080707,0.0,0.0,0.0,1.0
1609059074468585110,9000,1609059074468585110,-0.342139873451,-0.0179027608155,4.14987676061,0.0,0.0,0.0,1.0
1609059074517112113,9001,1609059074517112113,-0.324632662138,-0.0745610698131,4.13874183782,0.0,0.0,0.0,1.0
1609059074567902899,9002,1609059074567902899,-0.31486260866,-0.104436706737,4.13383929405,0.0,0.0,0.0,1.0
1609059074617395974,9003,1609059074617395974,-0.305693785932,-0.135075029421,4.12856900217,0.0,0.0,0.0,1.0
1609059074666299916,9004,1609059074666299916,-0.295673475756,-0.165002921151,4.12405803006,0.0,0.0,0.0,1.0
1609059074717320061,9005,1609059074717320061,-0.285023603568,-0.195648661904,4.11905500077,0.0,0.0,0.0,1.0
1609059074768941021,9006,1609059074768941021,-0.263111137391,-0.259294013285,4.11131943963,0.0,0.0,0.0,1.0
1609059074816080905,9007,1609059074816080905,-0.25118685574,-0.29268067863,4.10677773002,0.0,0.0,0.0,1.0
1609059074865896082,9008,1609059074865896082,-0.23918996832,-0.32393556345,4.10325382853,0.0,0.0,0.0,1.0
1609059074916363097,9009,1609059074916363097,-0.227314932219,-0.356426645032,4.09958878494,0.0,0.0,0.0,1.0
1609059074969153023,9010,1609059074969153023,-0.215465501439,-0.390053176825,4.09557287624,0.0,0.0,0.0,1.0
1609059075016754962,9011,1609059075016754962,-0.187148823857,-0.458953420841,4.08985393902,0.0,0.0,0.0,1.0
1609059075065842009,9012,1609059075065842009,-0.173962731477,-0.491379215766,4.08827412462,0.0,0.0,0.0,1.0
1609059075116443015,9013,1609059075116443015,-0.160160356471,-0.526353975436,4.0863074144,0.0,0.0,0.0,1.0
1609059075189783907,9014,1609059075189783907,-0.129890757707,-0.598469883422,4.08328032907,0.0,0.0,0.0,1.0
1609059075228220082,9015,1609059075228220082,-0.114244968293,-0.635944492945,4.08250669202,0.0,0.0,0.0,1.0
1609059075288513995,9016,1609059075288513995,-0.0984668553714,-0.673192684123,4.08256385308,0.0,0.0,0.0,1.0
1609059075331782914,9017,1609059075331782914,-0.0836572554212,-0.70699508777,4.08212918448,0.0,0.0,0.0,1.0
1609059075376953936,9018,1609059075376953936,-0.0676784662483,-0.743055900076,4.08243589271,0.0,0.0,0.0,1.0
1609059075419669962,9019,1609059075419669962,-0.0519833437588,-0.780019266728,4.08271750239,0.0,0.0,0.0,1.0
1609059075474346972,9020,1609059075474346972,-0.034543188278,-0.817894348341,4.08424905483,0.0,0.0,0.0,1.0
1609059075517462111,9021,1609059075517462111,-0.0173729560587,-0.8550344505,4.08552395011,0.0,0.0,0.0,1.0
1609059075569312907,9022,1609059075569312907,0.0152163911402,-0.925012893014,4.08861439204,0.0,0.0,0.0,1.0
1609059075616376019,9023,1609059075616376019,0.0338103791237,-0.963469709176,4.09164499659,0.0,0.0,0.0,1.0
1609059075665988064,9024,1609059075665988064,0.0522836163374,-1.00085473246,4.09379017645,0.0,0.0,0.0,1.0
1609059075716669894,9025,1609059075716669894,0.0695212298526,-1.03720473646,4.0961048928,0.0,0.0,0.0,1.0
1609059075771211958,9026,1609059075771211958,0.106411128395,-1.11298930931,4.1023029558,0.0,0.0,0.0,1.0
1609059075817437029,9027,1609059075817437029,0.126593152369,-1.1511085332,4.10668395554,0.0,0.0,0.0,1.0
1609059075867482043,9028,1609059075867482043,0.146660242854,-1.190274576,4.11050078787,0.0,0.0,0.0,1.0
1609059075919227934,9029,1609059075919227934,0.164514813202,-1.22641571703,4.11346909183,0.0,0.0,0.0,1.0
1609059075971153117,9030,1609059075971153117,0.184921293128,-1.26440381583,4.11755267441,0.0,0.0,0.0,1.0
1609059076019085980,9031,1609059076019085980,0.225043639931,-1.34098013051,4.12425625766,0.0,0.0,0.0,1.0
1609059076066461897,9032,1609059076066461897,0.246603313642,-1.38066791354,4.12810875217,0.0,0.0,0.0,1.0
1609059076116012908,9033,1609059076116012908,0.266677715958,-1.41718286079,4.13166053115,0.0,0.0,0.0,1.0
1609059076168902016,9034,1609059076168902016,0.287822934184,-1.45592966109,4.13508754004,0.0,0.0,0.0,1.0
1609059076217901087,9035,1609059076217901087,0.307991738649,-1.49413412745,4.13731665057,0.0,0.0,0.0,1.0
1609059076269497967,9036,1609059076269497967,0.353740555146,-1.57583340916,4.14148169023,0.0,0.0,0.0,1.0
1609059076318544007,9037,1609059076318544007,0.374120261336,-1.61301810622,4.14334051199,0.0,0.0,0.0,1.0
1609059076368068076,9038,1609059076368068076,0.396744881574,-1.65244818662,4.14465400698,0.0,0.0,0.0,1.0
1609059076419040061,9039,1609059076419040061,0.418918218306,-1.69108309475,4.14556449642,0.0,0.0,0.0,1.0
1609059076468491889,9040,1609059076468491889,0.465314788536,-1.77056685595,4.14803554684,0.0,0.0,0.0,1.0
1609059076516919947,9041,1609059076516919947,0.488553193292,-1.8097858563,4.14921122009,0.0,0.0,0.0,1.0
1609059076567703105,9042,1609059076567703105,0.512550921822,-1.85058737394,4.15042632953,0.0,0.0,0.0,1.0
1609059076618275977,9043,1609059076618275977,0.538931456121,-1.89382453492,4.1518592132,0.0,0.0,0.0,1.0
1609059076666931010,9044,1609059076666931010,0.566503007856,-1.93851712691,4.15269008198,0.0,0.0,0.0,1.0
1609059076721026993,9045,1609059076721026993,0.59238949046,-1.98111845706,4.15324206683,0.0,0.0,0.0,1.0
1609059076769621945,9046,1609059076769621945,0.619133292576,-2.02454377048,4.15307164045,0.0,0.0,0.0,1.0
1609059076818741894,9047,1609059076818741894,0.670213954682,-2.10544905446,4.15237518729,0.0,0.0,0.0,1.0
1609059076866040087,9048,1609059076866040087,0.696668248529,-2.14676289539,4.15260805478,0.0,0.0,0.0,1.0
1609059076916731930,9049,1609059076916731930,0.721641455294,-2.187347085,4.15250618637,0.0,0.0,0.0,1.0
1609059076969474888,9050,1609059076969474888,0.750206604697,-2.22964072143,4.15332681735,0.0,0.0,0.0,1.0
1609059077018080092,9051,1609059077018080092,0.803939841783,-2.31029847794,4.15397026409,0.0,0.0,0.0,1.0
1609059077067730999,9052,1609059077067730999,0.83146379424,-2.35011014662,4.15437383232,0.0,0.0,0.0,1.0
1609059077116330958,9053,1609059077116330958,0.860866088578,-2.39126755626,4.15497219483,0.0,0.0,0.0,1.0
1609059077167975045,9054,1609059077167975045,0.891077403286,-2.43280239658,4.15474957919,0.0,0.0,0.0,1.0
1609059077218499995,9055,1609059077218499995,0.919794283561,-2.47089862707,4.15497956187,0.0,0.0,0.0,1.0
1609059077270471907,9056,1609059077270471907,0.980994792545,-2.55062784904,4.156306055,0.0,0.0,0.0,1.0
1609059077316743947,9057,1609059077316743947,1.01124081531,-2.58775554513,4.15729825599,0.0,0.0,0.0,1.0
1609059077369517899,9058,1609059077369517899,1.04393857202,-2.62702195861,4.15822793717,0.0,0.0,0.0,1.0
1609059077414402104,9059,1609059077414402104,1.07620272835,-2.66473572755,4.15862781383,0.0,0.0,0.0,1.0
1609059077461818076,9060,1609059077461818076,1.1080975471,-2.70114482954,4.15999312905,0.0,0.0,0.0,1.0
1609059077517849064,9061,1609059077517849064,1.1739016961,-2.77266514807,4.16161864943,0.0,0.0,0.0,1.0
1609059077569496966,9062,1609059077569496966,1.20838099548,-2.80831133993,4.16288490484,0.0,0.0,0.0,1.0
1609059077617991066,9063,1609059077617991066,1.24291741756,-2.84417139596,4.16574137604,0.0,0.0,0.0,1.0
1609059077669850922,9064,1609059077669850922,1.27660804272,-2.87614992758,4.16689322874,0.0,0.0,0.0,1.0
1609059077717721081,9065,1609059077717721081,1.31136566332,-2.90954293882,4.16927065602,0.0,0.0,0.0,1.0
1609059077768880940,9066,1609059077768880940,1.34873051377,-2.94369004205,4.17092497031,0.0,0.0,0.0,1.0
1609059077816141940,9067,1609059077816141940,1.4211398502,-3.00718031231,4.17537909172,0.0,0.0,0.0,1.0
1609059077866480923,9068,1609059077866480923,1.456304296,-3.03666640797,4.17773808406,0.0,0.0,0.0,1.0
1609059077916685915,9069,1609059077916685915,1.49238436787,-3.06711272437,4.18009707345,0.0,0.0,0.0,1.0
1609059077977814055,9070,1609059077977814055,1.56670184399,-3.12659901133,4.18628940827,0.0,0.0,0.0,1.0
1609059078022013045,9071,1609059078022013045,1.6048857497,-3.1562604997,4.18980096182,0.0,0.0,0.0,1.0
1609059078066360093,9072,1609059078066360093,1.63951051587,-3.18382076571,4.19283864468,0.0,0.0,0.0,1.0
1609059078116761065,9073,1609059078116761065,1.67593293046,-3.21193267404,4.19693053325,0.0,0.0,0.0,1.0
1609059078167226887,9074,1609059078167226887,1.7136899334,-3.23914383498,4.20087716272,0.0,0.0,0.0,1.0
1609059078217564917,9075,1609059078217564917,1.75105843977,-3.26715126213,4.20492045637,0.0,0.0,0.0,1.0
1609059078267525054,9076,1609059078267525054,1.82265411944,-3.31924647876,4.212100969,0.0,0.0,0.0,1.0
1609059078317283965,9077,1609059078317283965,1.85907993273,-3.3451245551,4.21719322385,0.0,0.0,0.0,1.0
1609059078365949965,9078,1609059078365949965,1.89474617059,-3.37045457273,4.22160586468,0.0,0.0,0.0,1.0
1609059078416461087,9079,1609059078416461087,1.93051167125,-3.39655891501,4.22648388821,0.0,0.0,0.0,1.0
1609059078470234013,9080,1609059078470234013,1.96712339641,-3.42230471052,4.23239655874,0.0,0.0,0.0,1.0
1609059078519013024,9081,1609059078519013024,2.0356364051,-3.47065774747,4.24449404685,0.0,0.0,0.0,1.0
1609059078568147994,9082,1609059078568147994,2.06887857271,-3.49545027924,4.25081859299,0.0,0.0,0.0,1.0
1609059078616807080,9083,1609059078616807080,2.10483870683,-3.52012462455,4.25718753406,0.0,0.0,0.0,1.0
1609059078666001893,9084,1609059078666001893,2.14062087277,-3.54467816593,4.26404465908,0.0,0.0,0.0,1.0
1609059078717990971,9085,1609059078717990971,2.17348268184,-3.56725848333,4.2695314502,0.0,0.0,0.0,1.0
1609059078770005084,9086,1609059078770005084,2.24215423164,-3.61689533456,4.28330238262,0.0,0.0,0.0,1.0
1609059078816263056,9087,1609059078816263056,2.2762010213,-3.63917878112,4.28954327037,0.0,0.0,0.0,1.0
1609059078867183066,9088,1609059078867183066,2.31104235287,-3.66413725646,4.29554465899,0.0,0.0,0.0,1.0
1609059078920879937,9089,1609059078920879937,2.34558501991,-3.68889428019,4.3018430302,0.0,0.0,0.0,1.0
1609059078969642973,9090,1609059078969642973,2.37822536958,-3.71209511924,4.30835554333,0.0,0.0,0.0,1.0
1609059079018118001,9091,1609059079018118001,2.44644156844,-3.7591532972,4.32102094961,0.0,0.0,0.0,1.0
1609059079067025996,9092,1609059079067025996,2.48079953987,-3.78448603487,4.3285807955,0.0,0.0,0.0,1.0
1609059079116449929,9093,1609059079116449929,2.51373021833,-3.80654014951,4.33490556063,0.0,0.0,0.0,1.0
1609059079168818093,9094,1609059079168818093,2.5489811998,-3.83081924417,4.34225561525,0.0,0.0,0.0,1.0
1609059079217136956,9095,1609059079217136956,2.58292932726,-3.85536383631,4.34864977673,0.0,0.0,0.0,1.0
1609059079270860053,9096,1609059079270860053,2.65580939141,-3.90691395575,4.36225198902,0.0,0.0,0.0,1.0
1609059079314879990,9097,1609059079314879990,2.68954638894,-3.92948959888,4.36790231316,0.0,0.0,0.0,1.0
1609059079367846108,9098,1609059079367846108,2.72402454016,-3.95454282037,4.37399160662,0.0,0.0,0.0,1.0
1609059079416695929,9099,1609059079416695929,2.75910145993,-3.97924433468,4.3792170379,0.0,0.0,0.0,1.0
1609059079469632960,9100,1609059079469632960,2.7961882273,-4.00431819223,4.3848351547,0.0,0.0,0.0,1.0
1609059079516964055,9101,1609059079516964055,2.86799611651,-4.05391389271,4.39535562697,0.0,0.0,0.0,1.0
1609059079569825030,9102,1609059079569825030,2.90315035646,-4.07884806528,4.40065518594,0.0,0.0,0.0,1.0
1609059079616504050,9103,1609059079616504050,2.94143896199,-4.10467588509,4.40638983146,0.0,0.0,0.0,1.0
1609059079669420100,9104,1609059079669420100,2.97730272775,-4.1274922477,4.41074599095,0.0,0.0,0.0,1.0
1609059079717331028,9105,1609059079717331028,3.05006181421,-4.17838852713,4.42040154753,0.0,0.0,0.0,1.0
1609059079768488980,9106,1609059079768488980,3.08874323488,-4.20455753009,4.42586705828,0.0,0.0,0.0,1.0
1609059079816804982,9107,1609059079816804982,3.12756062535,-4.23080319441,4.43153965325,0.0,0.0,0.0,1.0
1609059079866257048,9108,1609059079866257048,3.16337096938,-4.25601148066,4.43593841449,0.0,0.0,0.0,1.0
1609059079917379952,9109,1609059079917379952,3.20109964981,-4.28176222103,4.44032178939,0.0,0.0,0.0,1.0
1609059079970057107,9110,1609059079970057107,3.2402765976,-4.30836714973,4.4464420297,0.0,0.0,0.0,1.0
1609059080018549061,9111,1609059080018549061,3.31556458633,-4.35955925838,4.45712636922,0.0,0.0,0.0,1.0
1609059080068875886,9112,1609059080068875886,3.35159809103,-4.38468537975,4.46251384616,0.0,0.0,0.0,1.0
1609059080116258956,9113,1609059080116258956,3.3896727392,-4.41010772305,4.46842566361,0.0,0.0,0.0,1.0
1609059080171377993,9114,1609059080171377993,3.42931654598,-4.43502420785,4.47352250563,0.0,0.0,0.0,1.0
1609059080218262053,9115,1609059080218262053,3.46703693145,-4.46220371956,4.47993849164,0.0,0.0,0.0,1.0
1609059080268652058,9116,1609059080268652058,3.54466733408,-4.51523206002,4.49223370635,0.0,0.0,0.0,1.0
1609059080360086060,9117,1609059080360086060,3.61586366046,-4.56342150903,4.50362919526,0.0,0.0,0.0,1.0
1609059080430606938,9118,1609059080430606938,3.6932488064,-4.61559632877,4.51633841476,0.0,0.0,0.0,1.0
1609059080475931025,9119,1609059080475931025,3.73222608192,-4.64117656488,4.52305444343,0.0,0.0,0.0,1.0
1609059080519910908,9120,1609059080519910908,3.76771423403,-4.66572487672,4.52881632091,0.0,0.0,0.0,1.0
1609059080569636918,9121,1609059080569636918,3.80370074987,-4.69080590577,4.53567168489,0.0,0.0,0.0,1.0
1609059080618089057,9122,1609059080618089057,3.8410901896,-4.71430515008,4.54171056314,0.0,0.0,0.0,1.0
1609059080668099976,9123,1609059080668099976,3.87950496577,-4.73959158932,4.54882550101,0.0,0.0,0.0,1.0
1609059080718525982,9124,1609059080718525982,3.95101840269,-4.78749699351,4.55991893341,0.0,0.0,0.0,1.0
1609059080768746949,9125,1609059080768746949,3.98833941616,-4.81105789497,4.56582502144,0.0,0.0,0.0,1.0
1609059080817067004,9126,1609059080817067004,4.02705672047,-4.8355589266,4.57194566742,0.0,0.0,0.0,1.0
1609059080868639088,9127,1609059080868639088,4.06396370722,-4.86041686718,4.5775543334,0.0,0.0,0.0,1.0
1609059080917792893,9128,1609059080917792893,4.09913814227,-4.88314967183,4.58243637961,0.0,0.0,0.0,1.0
1609059080971730090,9129,1609059080971730090,4.17316814458,-4.92864968213,4.59319023505,0.0,0.0,0.0,1.0
1609059081016623116,9130,1609059081016623116,4.21019705176,-4.9523759099,4.59841479006,0.0,0.0,0.0,1.0
1609059081067319012,9131,1609059081067319012,4.24716678369,-4.97661450436,4.60236121435,0.0,0.0,0.0,1.0
1609059081115620947,9132,1609059081115620947,4.283975983,-4.99873435795,4.60626391201,0.0,0.0,0.0,1.0
1609059081170327998,9133,1609059081170327998,4.32212968782,-5.02170519219,4.60966820289,0.0,0.0,0.0,1.0
1609059081217363930,9134,1609059081217363930,4.35735655152,-5.0442252181,4.61296752254,0.0,0.0,0.0,1.0
1609059081266884900,9135,1609059081266884900,4.42938863453,-5.08977381183,4.61899087096,0.0,0.0,0.0,1.0
1609059081317246056,9136,1609059081317246056,4.46697624381,-5.11218554621,4.62139358879,0.0,0.0,0.0,1.0
1609059081365789032,9137,1609059081365789032,4.5014684422,-5.13391745522,4.62381322281,0.0,0.0,0.0,1.0
1609059081418348885,9138,1609059081418348885,4.53608491768,-5.15632740936,4.62562995843,0.0,0.0,0.0,1.0
1609059081468402958,9139,1609059081468402958,4.60927882748,-5.20045327351,4.62938683236,0.0,0.0,0.0,1.0
1609059081516723967,9140,1609059081516723967,4.64476902564,-5.22329701031,4.63162915384,0.0,0.0,0.0,1.0
1609059081568040944,9141,1609059081568040944,4.67779000984,-5.24515089057,4.63319255939,0.0,0.0,0.0,1.0
1609059081617348052,9142,1609059081617348052,4.71308965023,-5.26707462426,4.63524218518,0.0,0.0,0.0,1.0
1609059081665617085,9143,1609059081665617085,4.74873869363,-5.28861626626,4.63688461387,0.0,0.0,0.0,1.0
1609059081718294001,9144,1609059081718294001,4.78316392745,-5.31084082795,4.63881894257,0.0,0.0,0.0,1.0
1609059081768739081,9145,1609059081768739081,4.85078692419,-5.35340109098,4.64288231115,0.0,0.0,0.0,1.0
1609059081817664004,9146,1609059081817664004,4.88146430827,-5.37080422824,4.64470463782,0.0,0.0,0.0,1.0
1609059081866976119,9147,1609059081866976119,4.91109458931,-5.3891220885,4.64618727478,0.0,0.0,0.0,1.0
1609059081918331957,9148,1609059081918331957,4.94228276265,-5.4096983844,4.64821609426,0.0,0.0,0.0,1.0
1609059081969750977,9149,1609059081969750977,4.97490290968,-5.43102087144,4.65125429847,0.0,0.0,0.0,1.0
1609059082018203116,9150,1609059082018203116,5.03259075487,-5.46907807001,4.655403947,0.0,0.0,0.0,1.0
1609059082064581013,9151,1609059082064581013,5.06025497509,-5.48844480747,4.65771957911,0.0,0.0,0.0,1.0
1609059082115995980,9152,1609059082115995980,5.0879505593,-5.50626272766,4.65970303747,0.0,0.0,0.0,1.0
1609059082169031954,9153,1609059082169031954,5.1154348803,-5.52511473374,4.66293725627,0.0,0.0,0.0,1.0
1609059082218813038,9154,1609059082218813038,5.16327159898,-5.55971467834,4.66736709502,0.0,0.0,0.0,1.0
1609059082267135001,9155,1609059082267135001,5.18571949459,-5.57547839229,4.66888400115,0.0,0.0,0.0,1.0
1609059082316624976,9156,1609059082316624976,5.20936612031,-5.59274721203,4.67035101463,0.0,0.0,0.0,1.0
1609059082367923117,9157,1609059082367923117,5.2305424553,-5.61045472801,4.67206906898,0.0,0.0,0.0,1.0
1609059082418407059,9158,1609059082418407059,5.24996051562,-5.62666202886,4.67311333589,0.0,0.0,0.0,1.0
1609059082469879008,9159,1609059082469879008,5.2896335019,-5.66131163432,4.6752472382,0.0,0.0,0.0,1.0
1609059082516277886,9160,1609059082516277886,5.30667711515,-5.67916324481,4.67689144414,0.0,0.0,0.0,1.0
1609059082567796088,9161,1609059082567796088,5.32263513929,-5.6953442766,4.67853100612,0.0,0.0,0.0,1.0
1609059082619743920,9162,1609059082619743920,5.33908320694,-5.7135151159,4.68031988164,0.0,0.0,0.0,1.0
1609059082668397046,9163,1609059082668397046,5.35395821064,-5.73069757479,4.68194069179,0.0,0.0,0.0,1.0
1609059082716573096,9164,1609059082716573096,5.38166605734,-5.76705337255,4.68524396076,0.0,0.0,0.0,1.0
1609059082766013957,9165,1609059082766013957,5.39458976339,-5.7856914557,4.68728587259,0.0,0.0,0.0,1.0
1609059082817572928,9166,1609059082817572928,5.4076136228,-5.80499108126,4.68899726495,0.0,0.0,0.0,1.0
1609059082867982007,9167,1609059082867982007,5.42026080947,-5.82615486469,4.69068626848,0.0,0.0,0.0,1.0
1609059082916385031,9168,1609059082916385031,5.44427813304,-5.86826836762,4.69430083642,0.0,0.0,0.0,1.0
1609059082967505074,9169,1609059082967505074,5.45515535092,-5.88928986986,4.69620459954,0.0,0.0,0.0,1.0
1609059083061335898,9170,1609059083061335898,5.47804481018,-5.93616198534,4.7002961618,0.0,0.0,0.0,1.0
1609059083122437096,9171,1609059083122437096,5.49972308548,-5.98444046729,4.70589698565,0.0,0.0,0.0,1.0
1609059083173791028,9172,1609059083173791028,5.51067653192,-6.00977896623,4.70903941344,0.0,0.0,0.0,1.0
1609059083215719080,9173,1609059083215719080,5.52205358926,-6.03691152396,4.71275104991,0.0,0.0,0.0,1.0
1609059083266367054,9174,1609059083266367054,5.53339906614,-6.06488345685,4.71667080551,0.0,0.0,0.0,1.0
1609059083315276957,9175,1609059083315276957,5.54421448315,-6.09121551949,4.72035184119,0.0,0.0,0.0,1.0
1609059083368987895,9176,1609059083368987895,5.55543535492,-6.11946221526,4.7248741449,0.0,0.0,0.0,1.0
1609059083417917109,9177,1609059083417917109,5.57893490229,-6.17842083881,4.73515375789,0.0,0.0,0.0,1.0
1609059083466210938,9178,1609059083466210938,5.5904606373,-6.20707604674,4.74025731335,0.0,0.0,0.0,1.0
1609059083517197943,9179,1609059083517197943,5.60233756254,-6.2379904604,4.74568133719,0.0,0.0,0.0,1.0
1609059083568787909,9180,1609059083568787909,5.61494081291,-6.26897049523,4.75177347599,0.0,0.0,0.0,1.0
1609059083618125058,9181,1609059083618125058,5.62785252863,-6.30166466331,4.7573468775,0.0,0.0,0.0,1.0
1609059083667900897,9182,1609059083667900897,5.65395202377,-6.3669671217,4.76972325778,0.0,0.0,0.0,1.0
1609059083716282940,9183,1609059083716282940,5.66761742115,-6.40055805654,4.77591229572,0.0,0.0,0.0,1.0
1609059083767359114,9184,1609059083767359114,5.67996095599,-6.43227844848,4.78223375131,0.0,0.0,0.0,1.0
1609059083818173981,9185,1609059083818173981,5.69432995499,-6.46735825487,4.78898842497,0.0,0.0,0.0,1.0
1609059083869707919,9186,1609059083869707919,5.72002531968,-6.53359287845,4.80217676123,0.0,0.0,0.0,1.0
1609059083916075087,9187,1609059083916075087,5.73248682952,-6.56626518199,4.80771656711,0.0,0.0,0.0,1.0
1609059083967810011,9188,1609059083967810011,5.74633483729,-6.60206447959,4.81457830714,0.0,0.0,0.0,1.0
1609059084017171002,9189,1609059084017171002,5.75995208218,-6.63740004972,4.82069027227,0.0,0.0,0.0,1.0
1609059084073340989,9190,1609059084073340989,5.77272989848,-6.66974292351,4.82624282608,0.0,0.0,0.0,1.0
1609059084118115044,9191,1609059084118115044,5.79836270665,-6.73785342581,4.83742430469,0.0,0.0,0.0,1.0
1609059084168403960,9192,1609059084168403960,5.81182212467,-6.77293223945,4.8437521482,0.0,0.0,0.0,1.0
1609059084220942116,9193,1609059084220942116,5.82576214051,-6.80648906779,4.85074411357,0.0,0.0,0.0,1.0
1609059084272481061,9194,1609059084272481061,5.83808801639,-6.83953471501,4.85659712233,0.0,0.0,0.0,1.0
1609059084316696024,9195,1609059084316696024,5.8505427019,-6.87349663206,4.86258907637,0.0,0.0,0.0,1.0
1609059084368438101,9196,1609059084368438101,5.87692990741,-6.9414582048,4.876030802,0.0,0.0,0.0,1.0
1609059084416184044,9197,1609059084416184044,5.88942616301,-6.97557183705,4.88266119253,0.0,0.0,0.0,1.0
1609059084467671967,9198,1609059084467671967,5.90132953863,-7.00916041448,4.8892736781,0.0,0.0,0.0,1.0
1609059084516105986,9199,1609059084516105986,5.91265646111,-7.04021651605,4.89537252478,0.0,0.0,0.0,1.0
1609059084569000102,9200,1609059084569000102,5.9251654669,-7.07168830631,4.90215210009,0.0,0.0,0.0,1.0
1609059084619682885,9201,1609059084619682885,5.94721592407,-7.13604514036,4.91450273285,0.0,0.0,0.0,1.0
1609059084671232081,9202,1609059084671232081,5.95882062367,-7.16758838302,4.92131828335,0.0,0.0,0.0,1.0
1609059084716415978,9203,1609059084716415978,5.96932232896,-7.19670931198,4.92712948399,0.0,0.0,0.0,1.0
1609059084768411017,9204,1609059084768411017,5.97991741249,-7.22746595778,4.93371758179,0.0,0.0,0.0,1.0
1609059084818215943,9205,1609059084818215943,5.989523393,-7.25714422833,4.93963492801,0.0,0.0,0.0,1.0
1609059084868995047,9206,1609059084868995047,6.01166696112,-7.3184237593,4.9517463849,0.0,0.0,0.0,1.0
1609059084915700055,9207,1609059084915700055,6.02059616768,-7.3470723484,4.95636837417,0.0,0.0,0.0,1.0
1609059084969579077,9208,1609059084969579077,6.02992633428,-7.37597566042,4.96124813009,0.0,0.0,0.0,1.0
1609059085018617011,9209,1609059085018617011,6.03934301609,-7.40415683359,4.96589368672,0.0,0.0,0.0,1.0
1609059085071440077,9210,1609059085071440077,6.05651952601,-7.45963227632,4.97496943223,0.0,0.0,0.0,1.0
1609059085117373086,9211,1609059085117373086,6.0645332743,-7.48757658753,4.97960735479,0.0,0.0,0.0,1.0
1609059085167862034,9212,1609059085167862034,6.07258512207,-7.51466346401,4.98362124688,0.0,0.0,0.0,1.0
1609059085217100001,9213,1609059085217100001,6.08077262862,-7.54322248491,4.988197179,0.0,0.0,0.0,1.0
1609059085265709973,9214,1609059085265709973,6.08792979688,-7.5709731801,4.99303638963,0.0,0.0,0.0,1.0
1609059085317901946,9215,1609059085317901946,6.09424079418,-7.59743690102,4.99782713211,0.0,0.0,0.0,1.0
1609059085369828082,9216,1609059085369828082,6.10618879371,-7.64488957821,5.00735445852,0.0,0.0,0.0,1.0
1609059085418023921,9217,1609059085418023921,6.11085307365,-7.66761016809,5.0121301445,0.0,0.0,0.0,1.0
1609059085466779089,9218,1609059085466779089,6.11490249323,-7.69044112798,5.01676023097,0.0,0.0,0.0,1.0
1609059085516245938,9219,1609059085516245938,6.11892131941,-7.71345327201,5.02180183853,0.0,0.0,0.0,1.0
1609059085567726946,9220,1609059085567726946,6.12275508661,-7.73560412789,5.02668837162,0.0,0.0,0.0,1.0
1609059085618557072,9221,1609059085618557072,6.12482873146,-7.75752886815,5.03148777819,0.0,0.0,0.0,1.0
1609059085669631100,9222,1609059085669631100,6.12743308089,-7.79968437088,5.04072860745,0.0,0.0,0.0,1.0
1609059085716379023,9223,1609059085716379023,6.12731820448,-7.81776492335,5.04451326124,0.0,0.0,0.0,1.0
1609059085768776989,9224,1609059085768776989,6.12616377788,-7.83618332572,5.04804445671,0.0,0.0,0.0,1.0
1609059085817860938,9225,1609059085817860938,6.12379432757,-7.8541045525,5.05132443407,0.0,0.0,0.0,1.0
1609059085871902085,9226,1609059085871902085,6.12174490701,-7.87179300514,5.05485355331,0.0,0.0,0.0,1.0
1609059085917029954,9227,1609059085917029954,6.11484658583,-7.90262825145,5.06094075594,0.0,0.0,0.0,1.0
1609059085968752957,9228,1609059085968752957,6.1094632358,-7.91810851363,5.06386683416,0.0,0.0,0.0,1.0
1609059086017941094,9229,1609059086017941094,6.10419096926,-7.93290089509,5.0675649497,0.0,0.0,0.0,1.0
1609059086067595101,9230,1609059086067595101,6.09797402114,-7.94665919036,5.07091670525,0.0,0.0,0.0,1.0
1609059086117419100,9231,1609059086117419100,6.09133943736,-7.95940285673,5.07395991132,0.0,0.0,0.0,1.0
1609059086169619895,9232,1609059086169619895,6.07519032903,-7.98523926809,5.0805622581,0.0,0.0,0.0,1.0
1609059086217645026,9233,1609059086217645026,6.06571121778,-7.99765501078,5.08363400353,0.0,0.0,0.0,1.0
1609059086268679953,9234,1609059086268679953,6.05487420967,-8.01003728457,5.08632829078,0.0,0.0,0.0,1.0
1609059086317082024,9235,1609059086317082024,6.04355285582,-8.02190871441,5.08864886798,0.0,0.0,0.0,1.0
1609059086369002915,9236,1609059086369002915,6.03229906002,-8.03270081254,5.09066275089,0.0,0.0,0.0,1.0
1609059086418572045,9237,1609059086418572045,6.00816309184,-8.05287003198,5.09357641282,0.0,0.0,0.0,1.0
1609059086467091895,9238,1609059086467091895,5.99445032677,-8.06323311102,5.09450205878,0.0,0.0,0.0,1.0
1609059086517063952,9239,1609059086517063952,5.9815625451,-8.07252408459,5.09491152049,0.0,0.0,0.0,1.0
1609059086567462063,9240,1609059086567462063,5.96786442831,-8.08122424018,5.09500488262,0.0,0.0,0.0,1.0
1609059086619220114,9241,1609059086619220114,5.95243387068,-8.09027400506,5.09476977621,0.0,0.0,0.0,1.0
1609059086669823027,9242,1609059086669823027,5.91914303249,-8.10881018566,5.09315071063,0.0,0.0,0.0,1.0
1609059086715984917,9243,1609059086715984917,5.90317976246,-8.1166498553,5.09179574042,0.0,0.0,0.0,1.0
1609059086769796944,9244,1609059086769796944,5.88567668351,-8.12568578977,5.09053745296,0.0,0.0,0.0,1.0
1609059086816947079,9245,1609059086816947079,5.86690723085,-8.13482948532,5.08904570616,0.0,0.0,0.0,1.0
1609059086869649029,9246,1609059086869649029,5.84673770528,-8.14361837039,5.08755358552,0.0,0.0,0.0,1.0
1609059086916999913,9247,1609059086916999913,5.80694336559,-8.15989972541,5.08370164349,0.0,0.0,0.0,1.0
1609059086967816926,9248,1609059086967816926,5.78691902766,-8.16772935384,5.08213865793,0.0,0.0,0.0,1.0
1609059087018298960,9249,1609059087018298960,5.76734373451,-8.17506840203,5.08043432896,0.0,0.0,0.0,1.0
1609059087066870070,9250,1609059087066870070,5.74657996932,-8.18261816659,5.0786969107,0.0,0.0,0.0,1.0
1609059087117486096,9251,1609059087117486096,5.72317259943,-8.19068304612,5.07746468404,0.0,0.0,0.0,1.0
1609059087171777106,9252,1609059087171777106,5.69889170959,-8.2001881461,5.07523020086,0.0,0.0,0.0,1.0
1609059087218242980,9253,1609059087218242980,5.65691603513,-8.21394020178,5.07204874476,0.0,0.0,0.0,1.0
1609059087271082020,9254,1609059087271082020,5.63413875246,-8.22163721377,5.07018916189,0.0,0.0,0.0,1.0
1609059087317186928,9255,1609059087317186928,5.6093190514,-8.23062678393,5.06760322443,0.0,0.0,0.0,1.0
1609059087369835949,9256,1609059087369835949,5.58672434947,-8.23732812515,5.06521517035,0.0,0.0,0.0,1.0
1609059087417502976,9257,1609059087417502976,5.5441220346,-8.24987088192,5.06066434851,0.0,0.0,0.0,1.0
1609059087467916108,9258,1609059087467916108,5.52187969261,-8.25621234548,5.05898907489,0.0,0.0,0.0,1.0
1609059087517026997,9259,1609059087517026997,5.50086366405,-8.26185780029,5.0574567831,0.0,0.0,0.0,1.0
1609059087567565060,9260,1609059087567565060,5.48060226751,-8.26583139893,5.05660537422,0.0,0.0,0.0,1.0
1609059087617906905,9261,1609059087617906905,5.46008425055,-8.27115111699,5.05572817921,0.0,0.0,0.0,1.0
1609059087671727992,9262,1609059087671727992,5.41955770621,-8.28017882026,5.0535847294,0.0,0.0,0.0,1.0
1609059087716825104,9263,1609059087716825104,5.40239576888,-8.28238176132,5.05177561634,0.0,0.0,0.0,1.0
1609059087768638945,9264,1609059087768638945,5.38342139119,-8.28442471338,5.05016525938,0.0,0.0,0.0,1.0
1609059087817071057,9265,1609059087817071057,5.36567636352,-8.28760515374,5.0486493304,0.0,0.0,0.0,1.0
1609059087875577069,9266,1609059087875577069,5.3321749102,-8.29104031382,5.04418336341,0.0,0.0,0.0,1.0
1609059087921955920,9267,1609059087921955920,5.31419473315,-8.29251265035,5.04171961483,0.0,0.0,0.0,1.0
1609059087969131089,9268,1609059087969131089,5.2966837211,-8.2934855505,5.03906353476,0.0,0.0,0.0,1.0
1609059088016614056,9269,1609059088016614056,5.28045933704,-8.29384142829,5.03763270833,0.0,0.0,0.0,1.0
1609059088066923953,9270,1609059088066923953,5.2639379361,-8.29400032859,5.03643624366,0.0,0.0,0.0,1.0
1609059088117482043,9271,1609059088117482043,5.24748040569,-8.29418864465,5.03689622286,0.0,0.0,0.0,1.0
