%time,field.header.seq,field.header.stamp,field.pose.position.x,field.pose.position.y,field.pose.position.z,field.pose.orientation.x,field.pose.orientation.y,field.pose.orientation.z,field.pose.orientation.w
1609043646758335887,602,1609043646758335887,-0.000181057474759,0.000517133686499,-3.23029953293e-05,0.0,0.0,0.0,0.0
1609043646801652966,603,1609043646801652966,-0.000357116159648,0.000446996365541,-0.000182485422251,0.0,0.0,0.0,0.0
1609043646854064045,604,1609043646854064045,-0.00011570396088,0.000344035351183,-3.19430165003e-05,0.0,0.0,0.0,0.0
1609043646905717907,605,1609043646905717907,-0.000241624900085,0.000357486051174,-3.36045612848e-06,0.0,0.0,0.0,0.0
1609043646953619061,606,1609043646953619061,-0.000162170961378,0.000218987041494,-1.12177862643e-05,0.0,0.0,0.0,0.0
1609043647003537951,607,1609043647003537951,-0.000139272630353,0.000371813183307,3.11575056067e-05,0.0,0.0,0.0,0.0
1609043647053917943,608,1609043647053917943,-0.000278980403635,0.000296497319363,-0.000194628576084,0.0,0.0,0.0,0.0
1609043647104069052,609,1609043647104069052,-0.00035626901478,0.000437014789787,4.07956809596e-05,0.0,0.0,0.0,0.0
1609043647153682051,610,1609043647153682051,2.08375918724e-05,0.000294555095557,-0.000102516531971,0.0,0.0,0.0,0.0
1609043647204000054,611,1609043647204000054,-8.7396026565e-05,0.000402837438688,-5.45885864369e-05,0.0,0.0,0.0,0.0
1609043647253322897,612,1609043647253322897,-7.7006141975e-05,0.000467323232405,-3.81614642144e-05,0.0,0.0,0.0,0.0
1609043647304187117,613,1609043647304187117,7.28322829389e-05,0.000475509167252,-0.000102047300889,0.0,0.0,0.0,0.0
1609043647354209958,614,1609043647354209958,9.05198712999e-05,0.000304224445182,-0.000236144532179,0.0,0.0,0.0,0.0
1609043647404371081,615,1609043647404371081,-0.000262524230124,0.000472227152818,-0.00012617716683,0.0,0.0,0.0,0.0
1609043647456337033,616,1609043647456337033,-0.000234025183538,0.000552220882135,9.37442734088e-05,0.0,0.0,0.0,0.0
1609043647504683075,617,1609043647504683075,-0.000241809528333,0.000459096756206,5.55981949599e-05,0.0,0.0,0.0,0.0
1609043647552407084,618,1609043647552407084,-0.00031428567425,0.000361384047721,-8.66851455523e-05,0.0,0.0,0.0,0.0
1609043647601863919,619,1609043647601863919,-0.000162983362166,0.000544100445678,-5.28605262815e-05,0.0,0.0,0.0,0.0
1609043647655230103,620,1609043647655230103,-0.000153383013533,0.000584976066946,-4.84696711283e-05,0.0,0.0,0.0,0.0
1609043647703469096,621,1609043647703469096,-0.00015782036785,0.000573782012461,-4.60598017664e-05,0.0,0.0,0.0,0.0
1609043647754370986,622,1609043647754370986,-0.000244127718862,0.000355923963561,7.3879173712e-07,0.0,0.0,0.0,0.0
1609043647803957043,623,1609043647803957043,-0.000188766386344,0.000382440248123,0.00013616067524,0.0,0.0,0.0,0.0
1609043647855572043,624,1609043647855572043,-0.000288885509029,0.000420332097304,0.000127291689743,0.0,0.0,0.0,0.0
1609043647905875025,625,1609043647905875025,-0.000423797938993,0.000403269813305,0.000156244058447,0.0,0.0,0.0,0.0
1609043647955201922,626,1609043647955201922,-0.000420324027349,0.000372873879675,0.000131777285352,0.0,0.0,0.0,0.0
1609043648005574999,627,1609043648005574999,-0.000307470309387,0.000372474776668,0.000136824322066,0.0,0.0,0.0,0.0
1609043648054317055,628,1609043648054317055,-0.000472574414317,0.00030882106474,0.000199227839095,0.0,0.0,0.0,0.0
1609043648103606997,629,1609043648103606997,-0.000289774061763,0.000399094143985,0.000116820682475,0.0,0.0,0.0,0.0
1609043648151989041,630,1609043648151989041,-0.000222159184531,0.000278111776105,0.000142714235876,0.0,0.0,0.0,0.0
1609043648203661023,631,1609043648203661023,-0.000277262642566,0.000412989294714,9.98381495751e-05,0.0,0.0,0.0,0.0
1609043648255363045,632,1609043648255363045,-0.000101171334464,0.000194798112675,-0.00014702459557,0.0,0.0,0.0,0.0
1609043648304083882,633,1609043648304083882,-0.000139941448747,0.000501296284416,0.000107155440906,0.0,0.0,0.0,0.0
1609043648352789937,634,1609043648352789937,-0.000317999617952,0.000393042060008,0.000169718703164,0.0,0.0,0.0,0.0
1609043648403869925,635,1609043648403869925,-0.000238840436918,0.000523065094898,8.65520334852e-05,0.0,0.0,0.0,0.0
1609043648458586989,636,1609043648458586989,-0.000233546945879,0.00023545381088,-8.98617471847e-05,0.0,0.0,0.0,0.0
1609043648504020987,637,1609043648504020987,-0.000239920272669,0.000532629515872,9.4224319497e-05,0.0,0.0,0.0,0.0
1609043648719360886,639,1609043648719360886,-0.000528883533718,0.00103909783695,4.0623800265e-05,0.0,0.0,0.0,0.0
1609043648951988993,641,1609043648951988993,-0.000718788676842,0.000507947618157,-0.00011700350905,0.0,0.0,0.0,0.0
1609043648997987090,642,1609043648997987090,-0.000756019379583,0.000418093631263,-9.44364911746e-05,0.0,0.0,0.0,0.0
1609043649062882004,643,1609043649062882004,-0.000680875657238,0.00027613544971,-9.56775432073e-05,0.0,0.0,0.0,0.0
1609043649108051119,644,1609043649108051119,-0.000485873517313,0.000371775066135,3.13642235028e-05,0.0,0.0,0.0,0.0
1609043649158501921,645,1609043649158501921,-0.000550657788672,0.000471969429105,-1.21707019751e-05,0.0,0.0,0.0,0.0
1609043649208236037,646,1609043649208236037,-0.000508604744123,2.82136902747e-05,-0.000121319787786,0.0,0.0,0.0,0.0
1609043649256522952,647,1609043649256522952,-0.000604839169707,-0.000543062601547,-0.000258442118529,0.0,0.0,0.0,0.0
1609043649309538899,648,1609043649309538899,-0.000533189832204,-5.98585686316e-05,-0.000122985604291,0.0,0.0,0.0,0.0
1609043649358561097,649,1609043649358561097,-0.000355913068912,3.0537413835e-05,-0.000194287914953,0.0,0.0,0.0,0.0
1609043649408020077,650,1609043649408020077,-0.000373966817858,-4.81186227184e-05,-0.000203572630804,0.0,0.0,0.0,0.0
1609043649454361020,651,1609043649454361020,-0.000481039562391,-5.61911989738e-05,-0.000225052986336,0.0,0.0,0.0,0.0
1609043649504710970,652,1609043649504710970,-0.000479412305342,6.05789663215e-05,-0.000160977230724,0.0,0.0,0.0,0.0
1609043649553947983,653,1609043649553947983,-0.000364096310822,-4.45905522692e-05,-0.000221256860403,0.0,0.0,0.0,0.0
1609043649603375969,654,1609043649603375969,-0.000522751590847,-1.89972271141e-05,-0.000120278870435,0.0,0.0,0.0,0.0
1609043649654835043,655,1609043649654835043,-0.000445285984071,0.000244360815865,-0.000123186245276,0.0,0.0,0.0,0.0
1609043649702931939,656,1609043649702931939,-0.000486720560129,0.000118236228907,-0.000113133203634,0.0,0.0,0.0,0.0
1609043649753507910,657,1609043649753507910,-0.000288985539775,-9.95726042099e-05,-0.000172280995963,0.0,0.0,0.0,0.0
1609043649801800070,658,1609043649801800070,-0.000420962494736,9.16054028295e-05,-0.000259854170022,0.0,0.0,0.0,0.0
1609043649852565108,659,1609043649852565108,-0.000429133327788,-0.00016462687371,-0.000160540318936,0.0,0.0,0.0,0.0
1609043649914325057,660,1609043649914325057,-0.000372507463325,-1.11342441045e-07,-0.000178808370986,0.0,0.0,0.0,0.0
1609043649999018965,661,1609043649999018965,-0.000520619586588,4.40781265887e-06,0.000119686883117,0.0,0.0,0.0,0.0
1609043650050462065,662,1609043650050462065,-0.000509940325653,-4.67224716445e-05,6.88713864641e-05,0.0,0.0,0.0,0.0
1609043650117358027,663,1609043650117358027,-0.000468741155707,-0.000223833125391,0.000115178568816,0.0,0.0,0.0,0.0
1609043650159262000,664,1609043650159262000,-0.000704583944771,0.000153532437816,0.000111725165546,0.0,0.0,0.0,0.0
1609043650203343926,665,1609043650203343926,-0.000498239949206,-0.000124281075951,7.78458852935e-07,0.0,0.0,0.0,0.0
1609043650252995072,666,1609043650252995072,-0.00053907807818,8.06724824844e-05,-3.01952237471e-05,0.0,0.0,0.0,0.0
1609043650303886948,667,1609043650303886948,-0.000627367595754,0.000162053085326,-3.7622027186e-05,0.0,0.0,0.0,0.0
1609043650352330981,668,1609043650352330981,-0.000442994667548,0.000103222512495,2.15864790452e-05,0.0,0.0,0.0,0.0
1609043650402571974,669,1609043650402571974,-0.0004903328865,0.00026014564763,0.000206638593019,0.0,0.0,0.0,0.0
1609043650457216082,670,1609043650457216082,-0.000468839388628,0.000154631495988,0.000102859911097,0.0,0.0,0.0,0.0
1609043650503351985,671,1609043650503351985,-0.000512250329265,2.3278293046e-05,0.00011384753245,0.0,0.0,0.0,0.0
1609043650552598057,672,1609043650552598057,-0.000661104109266,5.51213279465e-06,0.000170247681298,0.0,0.0,0.0,0.0
1609043650602726994,673,1609043650602726994,-0.000695414215798,1.50492645421e-05,1.3558215695e-05,0.0,0.0,0.0,0.0
1609043650652021943,674,1609043650652021943,-0.000500770621485,-0.000206470467926,-4.15537187255e-05,0.0,0.0,0.0,0.0
1609043650704584895,675,1609043650704584895,-0.000467814840228,8.28912752819e-05,5.9448234385e-05,0.0,0.0,0.0,0.0
1609043650755027113,676,1609043650755027113,-0.000508529461708,-4.02716822059e-05,6.97722212788e-05,0.0,0.0,0.0,0.0
1609043650803396044,677,1609043650803396044,-0.000562063094922,9.09307665022e-05,2.16379171913e-05,0.0,0.0,0.0,0.0
1609043650853885947,678,1609043650853885947,-0.000614269875889,7.40161109434e-05,0.000116181947782,0.0,0.0,0.0,0.0
1609043650904551087,679,1609043650904551087,-0.000512854876931,-3.81520011867e-05,7.96355297137e-05,0.0,0.0,0.0,0.0
1609043650956461964,680,1609043650956461964,-0.00044226669916,-0.000137101494332,0.000112296032022,0.0,0.0,0.0,0.0
1609043651002686081,681,1609043651002686081,-0.00049994715274,-8.42244945112e-05,2.72846170724e-05,0.0,0.0,0.0,0.0
1609043651055675087,682,1609043651055675087,-0.000486250549486,2.94257902844e-05,6.54507503661e-05,0.0,0.0,0.0,0.0
1609043651103020964,683,1609043651103020964,-0.00058407839752,2.83578893203e-05,2.95404906883e-05,0.0,0.0,0.0,0.0
1609043651152264891,684,1609043651152264891,-0.000380364562929,9.17402379308e-05,0.000120577005783,0.0,0.0,0.0,0.0
1609043651202364979,685,1609043651202364979,-0.000288295908646,5.99295074242e-05,0.000149035379813,0.0,0.0,0.0,0.0
1609043651253844080,686,1609043651253844080,-0.000310166539073,-1.10983678852e-05,0.000151773677988,0.0,0.0,0.0,0.0
1609043651304052887,687,1609043651304052887,-0.000410687014313,7.21557530738e-05,-6.086849932e-05,0.0,0.0,0.0,0.0
1609043651352521000,688,1609043651352521000,-0.000465050577915,0.000103535972011,6.5829441855e-05,0.0,0.0,0.0,0.0
1609043651404502926,689,1609043651404502926,-0.000336781066046,0.000225009639685,0.000110350568912,0.0,0.0,0.0,0.0
1609043651456569968,690,1609043651456569968,-0.00041422120729,0.000171553376802,3.50340371114e-06,0.0,0.0,0.0,0.0
1609043651506228982,691,1609043651506228982,-0.000466844877291,0.000112992907223,7.48668014676e-05,0.0,0.0,0.0,0.0
1609043651553388892,692,1609043651553388892,-0.000417451737807,-5.6217061406e-05,0.000109357955047,0.0,0.0,0.0,0.0
1609043651602519093,693,1609043651602519093,-0.000518294214388,-7.97711859555e-05,6.65052394631e-05,0.0,0.0,0.0,0.0
1609043651655026970,694,1609043651655026970,-0.000438332059463,-0.000107798302892,0.000121331112418,0.0,0.0,0.0,0.0
1609043651726306973,695,1609043651726306973,-0.00058940489329,-2.10618889849e-05,1.16869807218e-05,0.0,0.0,0.0,0.0
1609043651768775998,696,1609043651768775998,-0.000433177506793,6.12483579303e-05,0.000208503452292,0.0,0.0,0.0,0.0
1609043651856891928,697,1609043651856891928,-0.000421888207168,-6.31492104404e-05,0.000114224002031,0.0,0.0,0.0,0.0
1609043651907214938,698,1609043651907214938,-0.000628635163405,-9.81011061008e-06,9.6547363766e-05,0.0,0.0,0.0,0.0
1609043651948077021,699,1609043651948077021,-0.000471479977623,8.09980141394e-05,6.56786473545e-05,0.0,0.0,0.0,0.0
1609043651998587904,700,1609043651998587904,-0.000416807105648,-6.77811945611e-05,0.000101402478482,0.0,0.0,0.0,0.0
1609043652049837885,701,1609043652049837885,-0.000592165675368,-1.19430146661e-05,2.24601180587e-05,0.0,0.0,0.0,0.0
1609043652113920985,702,1609043652113920985,-0.000595396236921,1.02702117033e-06,3.63922880773e-05,0.0,0.0,0.0,0.0
1609043652157920895,703,1609043652157920895,-0.000242638779937,-0.000114024801508,0.000188254702737,0.0,0.0,0.0,0.0
1609043652203728018,704,1609043652203728018,-0.00048191935063,-4.14722427049e-05,0.000246651047382,0.0,0.0,0.0,0.0
1609043652254019080,705,1609043652254019080,-0.000573217041676,-2.7977358906e-05,0.000206091882413,0.0,0.0,0.0,0.0
1609043652304257927,706,1609043652304257927,-0.000494805168557,-5.32721769648e-05,0.000265590421954,0.0,0.0,0.0,0.0
1609043652353328047,707,1609043652353328047,-0.000630628654172,-0.000119262362713,3.7422009088e-05,0.0,0.0,0.0,0.0
1609043652401931105,708,1609043652401931105,-0.000374243735692,-7.37974659444e-05,0.000243633445278,0.0,0.0,0.0,0.0
1609043652457825957,709,1609043652457825957,-0.000436635517516,3.81858051135e-05,0.000202114071186,0.0,0.0,0.0,0.0
1609043652502889929,710,1609043652502889929,-0.000627250201482,0.000133400229693,0.000176354283854,0.0,0.0,0.0,0.0
1609043652552249966,711,1609043652552249966,-0.00043655790153,1.66528694709e-05,0.000189543319802,0.0,0.0,0.0,0.0
1609043652604857979,712,1609043652604857979,-0.000383476460037,-0.000204882815222,0.000186497131718,0.0,0.0,0.0,0.0
1609043652652705012,713,1609043652652705012,-0.000618584688208,-9.40789454429e-05,2.78811576973e-05,0.0,0.0,0.0,0.0
1609043652705683051,714,1609043652705683051,-0.000489963277857,-4.22409052696e-05,0.000262277867678,0.0,0.0,0.0,0.0
1609043652753114996,715,1609043652753114996,-0.00044611737745,-0.000124775617854,0.000127095580233,0.0,0.0,0.0,0.0
1609043652804196892,716,1609043652804196892,-0.000542462458224,-0.00019304349658,4.9477720836e-05,0.0,0.0,0.0,0.0
1609043652854637919,717,1609043652854637919,-0.000600524720106,-3.16101579152e-05,2.78197827264e-05,0.0,0.0,0.0,0.0
1609043652906878052,718,1609043652906878052,-0.000418663786164,-7.02451779127e-05,0.000103690990962,0.0,0.0,0.0,0.0
1609043652955344019,719,1609043652955344019,-0.00056656229723,-0.000187728124336,-0.000130041673916,0.0,0.0,0.0,0.0
1609043653003237067,720,1609043653003237067,-0.000531254315799,-0.000161924992968,4.50285768316e-05,0.0,0.0,0.0,0.0
1609043653055003939,721,1609043653055003939,-0.000541055202902,-0.000178533530763,5.50323757675e-05,0.0,0.0,0.0,0.0
1609043653102260886,722,1609043653102260886,-0.000402282760763,5.77216871456e-06,0.000114795992442,0.0,0.0,0.0,0.0
1609043653151819048,723,1609043653151819048,-0.000513371411408,-3.87009899736e-05,8.03509051597e-05,0.0,0.0,0.0,0.0
1609043653203285990,724,1609043653203285990,-0.000393632583606,5.67312534319e-05,0.000126897427791,0.0,0.0,0.0,0.0
1609043653255760012,725,1609043653255760012,-0.000448372960012,-7.18877846619e-05,0.000162095765825,0.0,0.0,0.0,0.0
1609043653303022919,726,1609043653303022919,-0.000628647842113,-9.77331249903e-05,4.58780360848e-05,0.0,0.0,0.0,0.0
1609043653353490887,727,1609043653353490887,-0.00051133960827,-4.12009845387e-05,7.48503996242e-05,0.0,0.0,0.0,0.0
1609043653403425036,728,1609043653403425036,-0.000501535752161,-3.08220805891e-05,6.12489438012e-05,0.0,0.0,0.0,0.0
1609043653454121886,729,1609043653454121886,-0.000600925051891,-5.3835765069e-05,1.5804734284e-05,0.0,0.0,0.0,0.0
1609043653504603920,730,1609043653504603920,-0.000512396357344,2.8833512923e-05,0.000117342332357,0.0,0.0,0.0,0.0
1609043653553011952,731,1609043653553011952,-0.000586192527305,-9.77822059056e-06,1.17753978106e-05,0.0,0.0,0.0,0.0
1609043653603406964,732,1609043653603406964,-0.000602121408271,1.72801335445e-05,5.91988572722e-05,0.0,0.0,0.0,0.0
1609043653654373942,733,1609043653654373942,-0.000506707288842,-8.87572071342e-05,3.81762469637e-05,0.0,0.0,0.0,0.0
1609043653704877911,734,1609043653704877911,-0.000341753058908,-8.70042849321e-05,0.000171109788523,0.0,0.0,0.0,0.0
1609043653755338011,735,1609043653755338011,-0.000597271496446,-0.000107824201002,-2.26225644457e-05,0.0,0.0,0.0,0.0
1609043653802954970,736,1609043653802954970,-0.00051011360172,-9.0283172451e-05,4.4101389463e-05,0.0,0.0,0.0,0.0
1609043653854162989,737,1609043653854162989,-0.000559198616006,-9.92735283152e-05,-9.37524290041e-05,0.0,0.0,0.0,0.0
1609043653905649004,738,1609043653905649004,-0.000382134908943,-8.71181709883e-05,2.09868225411e-05,0.0,0.0,0.0,0.0
1609043653952793894,739,1609043653952793894,-0.000550915133886,8.84262680678e-05,-2.07702721156e-06,0.0,0.0,0.0,0.0
1609043654004638968,740,1609043654004638968,-0.000362336329516,7.55211287302e-05,7.52092567211e-05,0.0,0.0,0.0,0.0
1609043654060996113,741,1609043654060996113,-0.000376305622126,8.02101349784e-05,0.000105820073259,0.0,0.0,0.0,0.0
1609043654102572022,742,1609043654102572022,-0.000464929709075,0.000110180413357,6.94191017274e-05,0.0,0.0,0.0,0.0
1609043654152026949,743,1609043654152026949,-0.000475621983828,0.000269095647699,0.000182410162347,0.0,0.0,0.0,0.0
1609043654202808915,744,1609043654202808915,-0.000287863794441,6.33114564206e-05,0.000150122124133,0.0,0.0,0.0,0.0
1609043654256011067,745,1609043654256011067,-0.000597622044417,1.22312226125e-05,4.72990729765e-05,0.0,0.0,0.0,0.0
1609043654305424033,746,1609043654305424033,-0.000447080623744,-5.51611128152e-05,0.000169158295611,0.0,0.0,0.0,0.0
1609043654353370009,747,1609043654353370009,-0.000505261974638,-1.36323751079e-05,7.86043149965e-05,0.0,0.0,0.0,0.0
1609043654402842103,748,1609043654402842103,-0.00047700438245,7.09722217973e-05,7.09342995808e-05,0.0,0.0,0.0,0.0
1609043654454701958,749,1609043654454701958,-0.0006025911641,-3.09554949389e-05,3.23255070445e-05,0.0,0.0,0.0,0.0
1609043654502903042,750,1609043654502903042,-0.000358089965665,-0.000183101126348,0.000148339694011,0.0,0.0,0.0,0.0
1609043654553401051,751,1609043654553401051,-0.000708413107031,-0.000133770319211,-4.62789340947e-05,0.0,0.0,0.0,0.0
1609043654607281027,752,1609043654607281027,-0.000584722636731,-3.31593887228e-05,-4.64218769203e-06,0.0,0.0,0.0,0.0
1609043654654419003,753,1609043654654419003,-0.000594507932142,-2.90926944686e-05,1.72512120198e-05,0.0,0.0,0.0,0.0
1609043654703591881,754,1609043654703591881,-0.000431496057139,2.12683214915e-05,0.000182092142088,0.0,0.0,0.0,0.0
1609043654753087101,755,1609043654753087101,-0.000505814772243,-3.17416678293e-05,6.92671729645e-05,0.0,0.0,0.0,0.0
1609043654804260073,756,1609043654804260073,-0.000336289953871,-7.87530904613e-05,0.000164953301503,0.0,0.0,0.0,0.0
1609043654860626994,757,1609043654860626994,-0.000507644914563,1.27206554534e-05,9.85596091514e-05,0.0,0.0,0.0,0.0
1609043654905488072,758,1609043654905488072,-0.000565953660622,0.000141712667649,5.86907016711e-05,0.0,0.0,0.0,0.0
1609043654952817021,759,1609043654952817021,-0.000644570116599,1.06520474752e-05,0.000140179998068,0.0,0.0,0.0,0.0
1609043655002439080,760,1609043655002439080,-0.000430823749056,-5.78310954111e-05,0.000135141405192,0.0,0.0,0.0,0.0
1609043655054667054,761,1609043655054667054,-0.000541646266932,-0.000109957812569,9.57521491713e-05,0.0,0.0,0.0,0.0
1609043655104780970,762,1609043655104780970,-0.000439121072834,-9.14904842375e-05,0.000132310120541,0.0,0.0,0.0,0.0
1609043655152046023,763,1609043655152046023,-0.000388069289379,-0.000231714929932,0.000180201856315,0.0,0.0,0.0,0.0
1609043655203368006,764,1609043655203368006,-0.000628405321475,-0.000159708180224,0.000240392495835,0.0,0.0,0.0,0.0
1609043655254176913,765,1609043655254176913,-0.000610774084532,-0.000177930444755,0.000194662478918,0.0,0.0,0.0,0.0
1609043655305847941,766,1609043655305847941,-0.000399725323462,-0.000327253335961,0.000148403474858,0.0,0.0,0.0,0.0
1609043655354909001,767,1609043655354909001,-0.000703026193626,-0.000292611820637,-0.000148622620001,0.0,0.0,0.0,0.0
1609043655403384982,768,1609043655403384982,-0.000551100031252,-0.000192720315424,6.69198544134e-05,0.0,0.0,0.0,0.0
1609043655454242049,769,1609043655454242049,-0.000641424483042,-0.000159472711953,3.58053301053e-05,0.0,0.0,0.0,0.0
1609043655503746090,770,1609043655503746090,-0.000466788058926,-0.000194724844583,0.000128059740019,0.0,0.0,0.0,0.0
1609043655560747920,771,1609043655560747920,-0.000744397666775,-2.50759106439e-05,8.82804546709e-05,0.0,0.0,0.0,0.0
1609043655602788029,772,1609043655602788029,-0.000393125064711,-0.000193477976117,0.000212348556575,0.0,0.0,0.0,0.0
1609043655653355895,773,1609043655653355895,-0.000362976896284,-0.000342647290287,6.61135480922e-05,0.0,0.0,0.0,0.0
1609043655702537118,774,1609043655702537118,-0.000528658306756,-1.65054988237e-05,0.000123688063967,0.0,0.0,0.0,0.0
1609043655752784071,775,1609043655752784071,-0.000631790962164,-7.21638011854e-05,6.68999438833e-05,0.0,0.0,0.0,0.0
1609043655803010045,776,1609043655803010045,-0.000403310567176,-6.15470867054e-05,0.000308765975374,0.0,0.0,0.0,0.0
1609043655855727969,777,1609043655855727969,-0.000739486970126,-0.000122019716867,2.25743272999e-05,0.0,0.0,0.0,0.0
1609043655906371890,778,1609043655906371890,-0.00052128518232,-3.73296833995e-05,9.69514073237e-05,0.0,0.0,0.0,0.0
1609043655960450945,779,1609043655960450945,-0.000540001891999,-0.000136157194463,7.73611468912e-05,0.0,0.0,0.0,0.0
1609043656002715884,780,1609043656002715884,-0.000385828238745,-0.000238348169075,0.000171900226107,0.0,0.0,0.0,0.0
1609043656054246960,781,1609043656054246960,-0.000611144453259,-3.28162950094e-05,4.83400390827e-05,0.0,0.0,0.0,0.0
1609043656111146031,782,1609043656111146031,-0.000449611380837,-0.000125498200099,0.000133659146591,0.0,0.0,0.0,0.0
1609043656161556063,783,1609043656161556063,-0.000388981163823,-0.000216965685862,0.000190527580333,0.0,0.0,0.0,0.0
1609043656208544074,784,1609043656208544074,-0.000634341731125,-0.000137525029754,3.43100880702e-05,0.0,0.0,0.0,0.0
1609043656259649096,785,1609043656259649096,-0.000629026175464,4.16591789687e-06,0.000105386882641,0.0,0.0,0.0,0.0
1609043656303688107,786,1609043656303688107,-0.000446891479399,-0.000195284568855,8.79884166363e-05,0.0,0.0,0.0,0.0
1609043656353152094,787,1609043656353152094,-0.000738836609415,-0.000104846971936,3.11764164955e-05,0.0,0.0,0.0,0.0
1609043656410852967,788,1609043656410852967,-0.000234652753317,-0.000114777013549,0.000171866864585,0.0,0.0,0.0,0.0
1609043656462021885,789,1609043656462021885,-0.000593272223991,-0.000141427405991,-4.99867361725e-05,0.0,0.0,0.0,0.0
1609043656508899031,790,1609043656508899031,-0.000515288687158,-8.33777757556e-05,5.84214427306e-05,0.0,0.0,0.0,0.0
1609043656558444081,791,1609043656558444081,-0.000537807590195,0.000119562205505,0.000220421757087,0.0,0.0,0.0,0.0
1609043656603386937,792,1609043656603386937,-0.000335500150303,-0.000138883868148,0.000128705306398,0.0,0.0,0.0,0.0
1609043656654321013,793,1609043656654321013,-0.000695732032572,4.04972513728e-05,2.88660347625e-05,0.0,0.0,0.0,0.0
1609043656705163060,794,1609043656705163060,-0.000631951656619,0.000191731452183,0.000219380584873,0.0,0.0,0.0,0.0
1609043656753150998,795,1609043656753150998,-0.000526886663568,-4.15079339433e-06,0.000127272273414,0.0,0.0,0.0,0.0
1609043656802402077,796,1609043656802402077,-0.000524116995834,1.11663603874e-06,0.000124776245832,0.0,0.0,0.0,0.0
1609043656853049098,797,1609043656853049098,-0.000495377193246,6.02436582913e-05,0.000101452786289,0.0,0.0,0.0,0.0
1609043656906055985,798,1609043656906055985,-0.000464410085169,-4.84272425787e-05,-2.30696214309e-05,0.0,0.0,0.0,0.0
1609043656955891905,799,1609043656955891905,-0.00074356060464,0.000208394412983,-9.50751216422e-06,0.0,0.0,0.0,0.0
1609043657006615935,800,1609043657006615935,-0.000569821566479,0.000143109544441,6.72232872674e-05,0.0,0.0,0.0,0.0
1609043657054457961,801,1609043657054457961,-0.000534532626386,5.64710495397e-05,0.000177501048094,0.0,0.0,0.0,0.0
1609043657103690920,802,1609043657103690920,-0.000588741522751,-0.000172067322746,-7.67039034848e-05,0.0,0.0,0.0,0.0
1609043657150747118,803,1609043657150747118,-0.000597943455841,-9.03899279905e-05,-1.12280189679e-05,0.0,0.0,0.0,0.0
1609043657202941952,804,1609043657202941952,-0.000457403801601,-3.53049279624e-05,-2.95003445689e-05,0.0,0.0,0.0,0.0
1609043657255775033,805,1609043657255775033,-0.000650744904529,0.000172630014786,1.51787222809e-05,0.0,0.0,0.0,0.0
1609043657303494034,806,1609043657303494034,-0.000675482697769,-8.84504359409e-05,-8.59356400547e-05,0.0,0.0,0.0,0.0
1609043657354323922,807,1609043657354323922,-0.00049633825369,-6.55402115104e-05,3.0847855772e-05,0.0,0.0,0.0,0.0
1609043657404666958,808,1609043657404666958,-0.000469308948354,-0.000137887632798,0.000165866817776,0.0,0.0,0.0,0.0
1609043657454224883,809,1609043657454224883,-0.000611272171817,2.43050228477e-06,6.89178685374e-05,0.0,0.0,0.0,0.0
1609043657503517924,810,1609043657503517924,-0.000651485229518,-0.000161351469536,5.4821100079e-05,0.0,0.0,0.0,0.0
1609043657556213913,811,1609043657556213913,-0.000507242849348,-0.000201336821519,-2.56639816723e-05,0.0,0.0,0.0,0.0
1609043657603606043,812,1609043657603606043,-0.000614214891545,-1.30624924211e-06,7.26421842376e-05,0.0,0.0,0.0,0.0
1609043657652581034,813,1609043657652581034,-0.000619471687198,6.09352549983e-05,0.000119031690277,0.0,0.0,0.0,0.0
1609043657719754038,814,1609043657719754038,-0.00056177581337,-0.000193824176067,8.76110861388e-05,0.0,0.0,0.0,0.0
1609043657758946000,815,1609043657758946000,-0.000663478323968,0.000119063760312,9.73119740699e-06,0.0,0.0,0.0,0.0
1609043657804465113,816,1609043657804465113,-0.000524350158361,-3.63470873435e-05,0.00010364105411,0.0,0.0,0.0,0.0
1609043657856519042,817,1609043657856519042,-0.000652477633498,-0.000158536548087,5.84266970129e-05,0.0,0.0,0.0,0.0
1609043657905513106,818,1609043657905513106,-0.000602690840136,-0.000268510635678,0.000126287965077,0.0,0.0,0.0,0.0
1609043657952822028,819,1609043657952822028,-0.000746206489218,-4.5197504571e-05,8.02923326741e-05,0.0,0.0,0.0,0.0
1609043658003639040,820,1609043658003639040,-0.000499994462075,-0.000197700599136,-3.80478847806e-05,0.0,0.0,0.0,0.0
1609043658055428086,821,1609043658055428086,-0.000868694263211,0.000106516335077,-4.89934389094e-05,0.0,0.0,0.0,0.0
1609043658104399977,822,1609043658104399977,-0.000704578557311,1.26061410324e-05,3.04577587116e-05,0.0,0.0,0.0,0.0
1609043658152668057,823,1609043658152668057,-0.000773203092468,-0.000175224219589,5.92552222027e-05,0.0,0.0,0.0,0.0
1609043658203037081,824,1609043658203037081,-0.000650299740613,-0.00017421556548,4.50357032964e-05,0.0,0.0,0.0,0.0
1609043658254897891,825,1609043658254897891,-0.000747795058384,-6.79215099542e-05,7.03637308774e-05,0.0,0.0,0.0,0.0
1609043658303688107,826,1609043658303688107,-0.000732683250721,-0.000140045011751,-1.41079922145e-06,0.0,0.0,0.0,0.0
1609043658359818993,827,1609043658359818993,-0.000654880204483,8.86722031979e-06,-7.09833252692e-05,0.0,0.0,0.0,0.0
1609043658402264891,828,1609043658402264891,-0.000756625196171,-3.36715008764e-05,-0.00012297906555,0.0,0.0,0.0,0.0
1609043658461112080,829,1609043658461112080,-0.000673314351346,-3.02989089001e-05,-5.67388027477e-05,0.0,0.0,0.0,0.0
1609043658508426009,830,1609043658508426009,-0.000678626039761,-0.000122684719805,-9.93944894425e-05,0.0,0.0,0.0,0.0
1609043658560926018,831,1609043658560926018,-0.000607003219034,-2.57401578505e-05,4.41468007928e-05,0.0,0.0,0.0,0.0
1609043658604028998,832,1609043658604028998,-0.000766435057365,-0.000112590935091,-0.000148884041229,0.0,0.0,0.0,0.0
1609043658654430924,833,1609043658654430924,-0.000635595970913,2.86757245043e-05,-9.80871769638e-05,0.0,0.0,0.0,0.0
1609043658711228905,834,1609043658711228905,-0.0006314123363,1.27062499153e-05,-0.00011565265217,0.0,0.0,0.0,0.0
1609043658759676037,835,1609043658759676037,-0.000507156555479,-0.000155644353125,5.08436748703e-07,0.0,0.0,0.0,0.0
1609043658808600007,836,1609043658808600007,-0.000671266144131,-0.000152475792476,-0.000131274219775,0.0,0.0,0.0,0.0
1609043658856463013,837,1609043658856463013,-0.000580635788427,-2.14374677796e-05,-6.04809193661e-06,0.0,0.0,0.0,0.0
1609043658910958109,838,1609043658910958109,-0.00054964973581,-2.60876721878e-05,-7.06316107255e-05,0.0,0.0,0.0,0.0
1609043658953508912,839,1609043658953508912,-0.000669848318932,-0.000160890705194,-0.000138958408002,0.0,0.0,0.0,0.0
1609043659003895102,840,1609043659003895102,-0.000715312789431,-0.000274464467738,-0.000113614176431,0.0,0.0,0.0,0.0
1609043659053347884,841,1609043659053347884,-0.000625126113853,-0.000157388664253,4.44669043986e-06,0.0,0.0,0.0,0.0
1609043659111321030,842,1609043659111321030,-0.000894575495831,-0.000212369019637,-0.000181149524542,0.0,0.0,0.0,0.0
1609043659160141049,843,1609043659160141049,-0.000808490123685,-7.31552471702e-05,-4.21308542542e-05,0.0,0.0,0.0,0.0
1609043659209648905,844,1609043659209648905,-0.000720070873601,1.50814056568e-05,6.28350393139e-05,0.0,0.0,0.0,0.0
1609043659258942900,845,1609043659258942900,-0.00083615129369,-5.65264806411e-05,2.27175413219e-05,0.0,0.0,0.0,0.0
1609043659309104977,846,1609043659309104977,-0.000769265595846,-7.55370293763e-05,-0.000121865208802,0.0,0.0,0.0,0.0
1609043659353556929,847,1609043659353556929,-0.000697368702767,2.02117856141e-05,2.04394418564e-05,0.0,0.0,0.0,0.0
1609043659410207091,848,1609043659410207091,-0.000843430017952,-0.000110393605352,-0.000224530103877,0.0,0.0,0.0,0.0
1609043659461725054,849,1609043659461725054,-0.000793685460565,4.44356474141e-05,-0.000234636926265,0.0,0.0,0.0,0.0
1609043659508781968,850,1609043659508781968,-0.000625138325482,-1.0786444955e-05,-0.000141731810723,0.0,0.0,0.0,0.0
1609043659559440909,851,1609043659559440909,-0.000665665426549,-0.000137651785392,-0.000133915997079,0.0,0.0,0.0,0.0
1609043659609077988,852,1609043659609077988,-0.00077461256301,3.40758790482e-05,-4.79830957438e-05,0.0,0.0,0.0,0.0
1609043659654444991,853,1609043659654444991,-0.000632970912321,8.31089048816e-05,0.000158785269411,0.0,0.0,0.0,0.0
1609043659706171093,854,1609043659706171093,-0.000907958765367,-0.000109297128706,-9.49854493459e-05,0.0,0.0,0.0,0.0
1609043659753248034,855,1609043659753248034,-0.000824120028785,-0.000127771165076,-4.23960008842e-05,0.0,0.0,0.0,0.0
1609043659803254900,856,1609043659803254900,-0.00072389595887,-0.000101458504613,3.28217979906e-06,0.0,0.0,0.0,0.0
1609043659854352055,857,1609043659854352055,-0.000648957118621,-0.000168769035449,4.54937695995e-05,0.0,0.0,0.0,0.0
1609043659904759942,858,1609043659904759942,-0.000889829349155,-9.21058991565e-05,-0.000121291756436,0.0,0.0,0.0,0.0
1609043659954990922,859,1609043659954990922,-0.000538222068251,-9.88001854871e-05,9.53446427214e-05,0.0,0.0,0.0,0.0
1609043660003284035,860,1609043660003284035,-0.000620277658921,-0.000138033989884,5.91999189581e-06,0.0,0.0,0.0,0.0
1609043660053849040,861,1609043660053849040,-0.000737109828787,-0.000128372845809,1.41623089061e-05,0.0,0.0,0.0,0.0
1609043660104015885,862,1609043660104015885,-0.000851207517663,-0.000210793584877,-3.61495474763e-05,0.0,0.0,0.0,0.0
1609043660153835116,863,1609043660153835116,-0.000640009692962,-0.00012154329116,5.48479897642e-05,0.0,0.0,0.0,0.0
1609043660204692898,864,1609043660204692898,-0.000909635402618,-8.11533369287e-05,-7.54090324335e-05,0.0,0.0,0.0,0.0
1609043660254636107,865,1609043660254636107,-0.000912660279013,-7.81829680072e-05,-6.76534003823e-05,0.0,0.0,0.0,0.0
1609043660305807887,866,1609043660305807887,-0.000609058870111,-1.75389519264e-06,6.20835559815e-05,0.0,0.0,0.0,0.0
1609043660353056965,867,1609043660353056965,-0.000680854662257,-0.00013922808313,-0.000104480634059,0.0,0.0,0.0,0.0
1609043660402077971,868,1609043660402077971,-0.000806917000627,-4.10310914187e-05,-2.67515818777e-05,0.0,0.0,0.0,0.0
1609043660458327113,869,1609043660458327113,-0.000669070189627,1.33919805361e-05,0.00019070563259,0.0,0.0,0.0,0.0
1609043660503588019,870,1609043660503588019,-0.000825965040121,-6.54843318788e-05,-2.79717352925e-06,0.0,0.0,0.0,0.0
1609043660556799946,871,1609043660556799946,-0.000774221659267,5.20040401906e-05,-3.8426969283e-05,0.0,0.0,0.0,0.0
1609043660602593003,872,1609043660602593003,-0.000693562174551,2.50682706504e-05,1.56350621321e-05,0.0,0.0,0.0,0.0
1609043660654147921,873,1609043660654147921,-0.000695867644595,2.25333637154e-05,1.87792633906e-05,0.0,0.0,0.0,0.0
1609043660701309023,874,1609043660701309023,-0.00077795013636,4.16745225067e-05,-3.69341786683e-05,0.0,0.0,0.0,0.0
1609043660754305897,875,1609043660754305897,-0.000603810194214,-1.5419251314e-05,4.37187386311e-05,0.0,0.0,0.0,0.0
1609043660804460106,876,1609043660804460106,-0.000860503503432,5.44256465034e-05,-9.53912839119e-05,0.0,0.0,0.0,0.0
1609043660854820071,877,1609043660854820071,-0.000628390564447,-1.61831397438e-05,-0.000138346285931,0.0,0.0,0.0,0.0
1609043660907929955,878,1609043660907929955,-0.000629561762253,-1.67787786012e-05,-0.000136349969269,0.0,0.0,0.0,0.0
1609043660953033028,879,1609043660953033028,-0.000668953704935,-0.000155309086429,-0.000137527453065,0.0,0.0,0.0,0.0
1609043661003799019,880,1609043661003799019,-0.000866263853315,6.91856483037e-05,-7.53731269736e-05,0.0,0.0,0.0,0.0
1609043661056536971,881,1609043661056536971,-0.000482841752433,0.000123119797943,0.00011266381077,0.0,0.0,0.0,0.0
1609043661104614077,882,1609043661104614077,-0.000581545030901,-4.72696420371e-05,-1.91259148163e-05,0.0,0.0,0.0,0.0
1609043661153871117,883,1609043661153871117,-0.000692086261399,2.26296682211e-05,1.12804790469e-05,0.0,0.0,0.0,0.0
1609043661203204928,884,1609043661203204928,-0.000774865137789,5.00419660856e-05,-3.82727506363e-05,0.0,0.0,0.0,0.0
1609043661254911004,885,1609043661254911004,-0.000636072533247,-0.000100923548221,5.88713030449e-05,0.0,0.0,0.0,0.0
1609043661303879080,886,1609043661303879080,-0.000822127615738,-0.000110477753211,-3.64054953064e-05,0.0,0.0,0.0,0.0
1609043661354343949,887,1609043661354343949,-0.000867314759578,6.50794453865e-05,-7.56412298522e-05,0.0,0.0,0.0,0.0
1609043661402432976,888,1609043661402432976,-0.000670195904132,-0.000125733819303,-0.000117993767503,0.0,0.0,0.0,0.0
1609043661454166947,889,1609043661454166947,-0.000798189616571,-1.99265537848e-05,-3.20184450882e-05,0.0,0.0,0.0,0.0
1609043661503027020,890,1609043661503027020,-0.000936322655846,7.64706727754e-05,6.87891203874e-05,0.0,0.0,0.0,0.0
1609043661552523909,891,1609043661552523909,-0.000616247605805,5.92705915743e-05,0.000111630879866,0.0,0.0,0.0,0.0
1609043661602865992,892,1609043661602865992,-0.000957308516185,8.87272251777e-05,-0.000112951391319,0.0,0.0,0.0,0.0
1609043661654228983,893,1609043661654228983,-0.00086638308462,6.55936320886e-05,-7.72060250416e-05,0.0,0.0,0.0,0.0
1609043661704520045,894,1609043661704520045,-0.000697010089155,1.41048869224e-05,1.62018828611e-05,0.0,0.0,0.0,0.0
1609043661752939997,895,1609043661752939997,-0.000695720670343,1.73407256927e-05,1.54916564092e-05,0.0,0.0,0.0,0.0
1609043661805342970,896,1609043661805342970,-0.000912106201138,8.49703902315e-05,2.53106944896e-05,0.0,0.0,0.0,0.0
1609043661856200038,897,1609043661856200038,-0.000581912287888,-1.89418182703e-05,0.000228672894464,0.0,0.0,0.0,0.0
1609043661906195937,898,1609043661906195937,-0.000707472085725,1.77831610717e-05,3.92233405471e-05,0.0,0.0,0.0,0.0
1609043661952966033,899,1609043661952966033,-0.000889578282095,-9.15188334361e-05,0.000109277243357,0.0,0.0,0.0,0.0
1609043662003624020,900,1609043662003624020,-0.000806669952187,5.38821148375e-05,2.74800629434e-05,0.0,0.0,0.0,0.0
1609043662053817091,901,1609043662053817091,-0.000639966194843,-1.40518999103e-06,-0.000106700575737,0.0,0.0,0.0,0.0
1609043662104552088,902,1609043662104552088,-0.000953892150761,8.70779925162e-05,-0.000120727401875,0.0,0.0,0.0,0.0
1609043662156864939,903,1609043662156864939,-0.000428068869542,-9.77580886516e-05,0.000106616694804,0.0,0.0,0.0,0.0
1609043662204469023,904,1609043662204469023,-0.000570838045835,-2.35309371579e-05,-2.68285965888e-05,0.0,0.0,0.0,0.0
1609043662253934918,905,1609043662253934918,-0.000780575199961,3.86660839649e-05,-3.34245359408e-05,0.0,0.0,0.0,0.0
1609043662304636059,906,1609043662304636059,-0.000780152727362,3.54895841141e-05,-3.61000492823e-05,0.0,0.0,0.0,0.0
1609043662353231011,907,1609043662353231011,-0.000643921838776,-1.18987657238e-06,-9.86740669351e-05,0.0,0.0,0.0,0.0
1609043662403326092,908,1609043662403326092,-0.000914679846847,7.78276192701e-05,2.63338412942e-05,0.0,0.0,0.0,0.0
1609043662455940066,909,1609043662455940066,-0.000395058783965,7.39956969582e-05,0.000139701154854,0.0,0.0,0.0,0.0
1609043662504295884,910,1609043662504295884,-0.000606993684027,-7.5493297409e-06,5.46162521626e-05,0.0,0.0,0.0,0.0
1609043662552095948,911,1609043662552095948,-0.000734780384832,-0.000101073135351,2.52489159784e-05,0.0,0.0,0.0,0.0
1609043662602840958,912,1609043662602840958,-0.000869783220459,5.99984255309e-05,-7.36394541132e-05,0.0,0.0,0.0,0.0
1609043662654969035,913,1609043662654969035,-0.000603531207261,-5.03562410437e-06,4.91484027147e-05,0.0,0.0,0.0,0.0
1609043662705361901,914,1609043662705361901,-0.000745121760165,-5.15388198625e-05,7.44690065027e-05,0.0,0.0,0.0,0.0
1609043662752594052,915,1609043662752594052,-0.000847749957163,5.74585983006e-05,0.000111611079118,0.0,0.0,0.0,0.0
1609043662805215893,916,1609043662805215893,-0.00076023292705,3.79436358386e-05,0.000156252082981,0.0,0.0,0.0,0.0
1609043662854601918,917,1609043662854601918,-0.000607763063293,-1.08750837384e-05,5.42357184958e-05,0.0,0.0,0.0,0.0
1609043662905472098,918,1609043662905472098,-0.000707629574119,1.61091951671e-05,3.85727844225e-05,0.0,0.0,0.0,0.0
1609043662954964934,919,1609043662954964934,-0.000554605696635,-4.08352332428e-05,0.000161496863786,0.0,0.0,0.0,0.0
1609043663006099043,920,1609043663006099043,-0.000636253013152,1.00478840359e-06,0.000118001804978,0.0,0.0,0.0,0.0
1609043663054901896,921,1609043663054901896,-0.000695439907101,6.7709014111e-06,8.83638429094e-06,0.0,0.0,0.0,0.0
1609043663104423104,922,1609043663104423104,-0.000690520591224,-2.27077035202e-05,-1.79880150064e-05,0.0,0.0,0.0,0.0
1609043663152468024,923,1609043663152468024,-0.000480555753057,-0.000140771359316,-4.40578658516e-05,0.0,0.0,0.0,0.0
1609043663207116900,924,1609043663207116900,-0.000627919766188,5.4509976497e-06,-0.000126813110525,0.0,0.0,0.0,0.0
1609043663254684983,925,1609043663254684983,-0.000566815147309,0.000136190158646,5.72275061614e-05,0.0,0.0,0.0,0.0
1609043663304446993,926,1609043663304446993,-0.000554453489475,8.42039722642e-05,2.55720954101e-06,0.0,0.0,0.0,0.0
1609043663353353081,927,1609043663353353081,-0.000473524353218,8.09224442495e-05,6.97192382333e-05,0.0,0.0,0.0,0.0
1609043663404377995,928,1609043663404377995,-0.000568695613484,0.000131853659232,5.84838349127e-05,0.0,0.0,0.0,0.0
1609043663454824982,929,1609043663454824982,-0.000502348928904,-4.22205850281e-05,5.63013148085e-05,0.0,0.0,0.0,0.0
1609043663504925070,930,1609043663504925070,-0.000618722585575,0.000152388665828,0.000170266665465,0.0,0.0,0.0,0.0
1609043663556310950,931,1609043663556310950,-0.000632024087835,0.000160346869755,0.000201428880347,0.0,0.0,0.0,0.0
1609043663604521094,932,1609043663604521094,-0.000582343392853,6.70338734405e-05,4.83743940922e-05,0.0,0.0,0.0,0.0
1609043663653952895,933,1609043663653952895,-0.000562678597625,0.000139846939158,5.10721435436e-05,0.0,0.0,0.0,0.0
1609043663704382954,934,1609043663704382954,-0.000566556170401,0.00013816669936,5.78497914638e-05,0.0,0.0,0.0,0.0
1609043663752926884,935,1609043663752926884,-0.000597573313105,-0.00014443916232,-4.31307267235e-05,0.0,0.0,0.0,0.0
1609043663804390965,936,1609043663804390965,-0.000606194200362,-3.14386593914e-06,5.55591874267e-05,0.0,0.0,0.0,0.0
1609043663855767069,937,1609043663855767069,-0.000691441152508,1.78273278735e-05,7.22275766485e-06,0.0,0.0,0.0,0.0
1609043663906348048,938,1609043663906348048,-0.000640391066959,-0.000118582407488,5.73170567435e-05,0.0,0.0,0.0,0.0
1609043663953743992,939,1609043663953743992,-0.000606306113795,-1.0048735442e-05,5.18015359798e-05,0.0,0.0,0.0,0.0
1609043664002847014,940,1609043664002847014,-0.000433077274767,-6.31339380028e-05,0.000136585890205,0.0,0.0,0.0,0.0
1609043664054725943,941,1609043664054725943,-0.000497686176555,-0.00019954511156,-4.37227272414e-05,0.0,0.0,0.0,0.0
1609043664105147896,942,1609043664105147896,-0.000435019619275,-6.72304114531e-05,0.000138104281794,0.0,0.0,0.0,0.0
1609043664154233990,943,1609043664154233990,-0.000483631387016,9.56965234664e-05,9.84292477622e-05,0.0,0.0,0.0,0.0
1609043664204045115,944,1609043664204045115,-0.000629470231765,-8.14520998418e-05,5.6908237605e-05,0.0,0.0,0.0,0.0
1609043664254340945,945,1609043664254340945,-0.000605937069331,-5.83197146575e-06,5.34955848988e-05,0.0,0.0,0.0,0.0
1609043664304065047,946,1609043664304065047,-0.000467375275708,-0.000177887312775,0.000138940932091,0.0,0.0,0.0,0.0
1609043664357180892,947,1609043664357180892,-0.000721203658134,-0.000214280687587,-6.71461168356e-05,0.0,0.0,0.0,0.0
1609043664402622996,948,1609043664402622996,-0.000513089400002,-6.66501206634e-05,6.36725997403e-05,0.0,0.0,0.0,0.0
1609043664458782969,949,1609043664458782969,-0.000583484987381,-0.000177884178658,-9.05589064377e-05,0.0,0.0,0.0,0.0
1609043664503303109,950,1609043664503303109,-0.000404430652207,2.98472842477e-05,0.000132968365641,0.0,0.0,0.0,0.0
1609043664552897988,951,1609043664552897988,-0.000570209273906,-0.000331741148926,-0.00020578756644,0.0,0.0,0.0,0.0
1609043664606739102,952,1609043664606739102,-0.000259224818699,-0.000102632326275,0.000227958323693,0.0,0.0,0.0,0.0
1609043664655084906,953,1609043664655084906,-0.000434168736099,-5.76134426904e-05,0.000141949391772,0.0,0.0,0.0,0.0
1609043664705328999,954,1609043664705328999,-0.000520115669275,-3.20085073184e-05,9.76830935535e-05,0.0,0.0,0.0,0.0
1609043664753717957,955,1609043664753717957,-0.00058456778363,-1.4515481503e-05,0.000236530186955,0.0,0.0,0.0,0.0
1609043664801842032,956,1609043664801842032,-0.000353666090152,-0.000101184685398,0.000186733042081,0.0,0.0,0.0,0.0
1609043664854641972,957,1609043664854641972,-0.00074006177768,-0.000134202205086,1.66985685812e-05,0.0,0.0,0.0,0.0
1609043664906123934,958,1609043664906123934,-0.00074015430388,-0.00013833462239,1.45007782049e-05,0.0,0.0,0.0,0.0
1609043664953282891,959,1609043664953282891,-0.000510453581306,-0.000116705105986,2.95463540319e-05,0.0,0.0,0.0,0.0
1609043665004957972,960,1609043665004957972,-0.00039297144048,7.07616944791e-05,0.000133666444643,0.0,0.0,0.0,0.0
1609043665054544983,961,1609043665054544983,-0.000746095427687,-9.64874552913e-05,5.04977673952e-05,0.0,0.0,0.0,0.0
1609043665108310042,962,1609043665108310042,-0.000702681152241,-5.38459093136e-06,1.6294052438e-05,0.0,0.0,0.0,0.0
1609043665152242003,963,1609043665152242003,-0.000346407658721,-8.36655622987e-05,0.000182333620275,0.0,0.0,0.0,0.0
1609043665202894984,964,1609043665202894984,-0.000568222363047,0.000139664561464,6.20421041138e-05,0.0,0.0,0.0,0.0
1609043665254524050,965,1609043665254524050,-0.000560652313357,-0.000157885467377,0.000106087868012,0.0,0.0,0.0,0.0
1609043665303978978,966,1609043665303978978,-0.000433925213677,-6.07538848563e-05,0.000139652167585,0.0,0.0,0.0,0.0
1609043665355525075,967,1609043665355525075,-0.000715065966268,-0.000301597163375,-0.000129750780555,0.0,0.0,0.0,0.0
1609043665402497111,968,1609043665402497111,-0.00043865212259,-6.47195113199e-05,0.00014680890618,0.0,0.0,0.0,0.0
1609043665454783021,969,1609043665454783021,-0.000523267377851,-3.65125828612e-05,0.000101382491824,0.0,0.0,0.0,0.0
1609043665503620921,970,1609043665503620921,-0.000431759471709,-5.48985177176e-05,0.000138701630194,0.0,0.0,0.0,0.0
1609043665552959023,971,1609043665552959023,-0.000617844298723,-0.000276449549402,-7.87468174028e-05,0.0,0.0,0.0,0.0
1609043665604719935,972,1609043665604719935,-0.000347202183193,-8.50341866716e-05,0.000183131767374,0.0,0.0,0.0,0.0
1609043665655453978,973,1609043665655453978,-0.000729649346809,-0.00010386930483,1.33860950324e-05,0.0,0.0,0.0,0.0
1609043665704646884,974,1609043665704646884,-0.000634807839035,-9.95043599659e-05,5.7163010089e-05,0.0,0.0,0.0,0.0
1609043665753459034,975,1609043665753459034,-0.000436654712455,-6.35211361466e-05,0.000143509513196,0.0,0.0,0.0,0.0
1609043665805940924,976,1609043665805940924,-0.000358306627316,-0.000120264778388,0.000185002528701,0.0,0.0,0.0,0.0
1609043665854023037,977,1609043665854023037,-0.00080413296827,-0.000115640300377,-7.53311028543e-05,0.0,0.0,0.0,0.0
1609043665905377923,978,1609043665905377923,-0.000616365771535,-0.000149091795402,-8.27061514919e-06,0.0,0.0,0.0,0.0
1609043665953448115,979,1609043665953448115,-0.000547723215831,-0.000137029446218,9.22836069019e-05,0.0,0.0,0.0,0.0
1609043666002816973,980,1609043666002816973,-0.000564452441875,-0.000188254692324,9.61695672554e-05,0.0,0.0,0.0,0.0
1609043666054426966,981,1609043666054426966,-0.00061225233048,-0.000157448632763,-2.13065585974e-05,0.0,0.0,0.0,0.0
1609043666104152022,982,1609043666104152022,-0.000393312043435,8.85199610856e-05,0.000144586165032,0.0,0.0,0.0,0.0
1609043666156991063,983,1609043666156991063,-0.000737858014272,-0.000130073154686,1.46766580027e-05,0.0,0.0,0.0,0.0
1609043666201940117,984,1609043666201940117,-0.000528224706017,-7.92693193858e-05,8.66333521099e-05,0.0,0.0,0.0,0.0
1609043666254001914,985,1609043666254001914,-0.0004235361884,-0.000123644738004,8.26358544792e-05,0.0,0.0,0.0,0.0
1609043666304726897,986,1609043666304726897,-0.000371849731529,-7.50645375778e-05,7.38952709689e-06,0.0,0.0,0.0,0.0
1609043666355013905,987,1609043666355013905,-0.000524574063231,-0.000139585463385,4.45634089701e-05,0.0,0.0,0.0,0.0
1609043666403197108,988,1609043666403197108,-0.000417631897655,-0.000217640344966,1.66454181088e-05,0.0,0.0,0.0,0.0
1609043666483007012,989,1609043666483007012,-0.000415145578391,-0.000231869755819,3.47419988778e-06,0.0,0.0,0.0,0.0
1609043666552885113,990,1609043666552885113,-0.000304981093382,-0.000164711656607,5.28442729077e-05,0.0,0.0,0.0,0.0
1609043666603278933,991,1609043666603278933,-0.000212677842285,-3.17595097634e-05,0.000175832878419,0.0,0.0,0.0,0.0
1609043666656378088,992,1609043666656378088,-0.00056636079248,0.000172575733858,7.7299535409e-05,0.0,0.0,0.0,0.0
1609043666707058964,993,1609043666707058964,-0.000369427455109,-7.6371483356e-05,1.79689512869e-06,0.0,0.0,0.0,0.0
1609043666754874049,994,1609043666754874049,-0.000461104901429,0.000160321495642,9.06890957442e-05,0.0,0.0,0.0,0.0
1609043666804215012,995,1609043666804215012,-0.000536263474928,9.8131960744e-05,-2.57511972528e-05,0.0,0.0,0.0,0.0
1609043666854718981,996,1609043666854718981,-0.000642707060429,-4.5086615863e-07,0.000130056233321,0.0,0.0,0.0,0.0
1609043666904574929,997,1609043666904574929,-0.000543112860122,0.000145877193162,0.000246193754094,0.0,0.0,0.0,0.0
1609043666954906998,998,1609043666954906998,-0.000926191388139,9.19516683826e-05,5.7475177929e-05,0.0,0.0,0.0,0.0
1609043667007052002,999,1609043667007052002,-0.000571733135089,0.000125822445071,6.10745272045e-05,0.0,0.0,0.0,0.0
1609043667054287015,1000,1609043667054287015,-0.0004169150852,-6.23546276302e-06,0.00013710442917,0.0,0.0,0.0,0.0
1609043667105368910,1001,1609043667105368910,-0.000387640445396,8.46424939542e-05,0.000131019953953,0.0,0.0,0.0,0.0
1609043667154912053,1002,1609043667154912053,-0.000697321285397,9.37545938129e-06,1.40966750308e-05,0.0,0.0,0.0,0.0
1609043667204211054,1003,1609043667204211054,-0.000393330171477,8.81344541703e-05,0.000144400099948,0.0,0.0,0.0,0.0
1609043667255947886,1004,1609043667255947886,-0.000614567484178,-2.22042965348e-07,7.39717179208e-05,0.0,0.0,0.0,0.0
1609043667304658947,1005,1609043667304658947,-0.00057482779032,0.000123106797851,6.56910922459e-05,0.0,0.0,0.0,0.0
1609043667354271946,1006,1609043667354271946,-0.000490902258683,7.83453629154e-05,0.00010295019146,0.0,0.0,0.0,0.0
1609043667403415976,1007,1609043667403415976,-0.000521327317635,-3.63016667926e-05,9.76283199012e-05,0.0,0.0,0.0,0.0
1609043667455108939,1008,1609043667455108939,-0.00071278779436,3.06027969774e-05,-0.0001734960357,0.0,0.0,0.0,0.0
1609043667506839095,1009,1609043667506839095,-0.000483517962632,-5.40755665472e-05,1.18463672951e-05,0.0,0.0,0.0,0.0
1609043667554565011,1010,1609043667554565011,-0.000334836393233,4.06177578114e-05,1.46633736264e-07,0.0,0.0,0.0,0.0
1609043667650980053,1011,1609043667650980053,-0.000484362946274,0.00010893265217,0.000107522578606,0.0,0.0,0.0,0.0
1609043667720110951,1012,1609043667720110951,-0.000633606905442,4.62172882578e-05,-9.19467115938e-05,0.0,0.0,0.0,0.0
1609043667808933077,1013,1609043667808933077,-0.000639469764785,-0.000158646264001,3.23767721842e-05,0.0,0.0,0.0,0.0
1609043667855028925,1014,1609043667855028925,-0.000554579704886,-4.32465634219e-05,-7.06762023892e-05,0.0,0.0,0.0,0.0
1609043667905392943,1015,1609043667905392943,-0.000512735870981,-8.80140826638e-05,5.06483474965e-05,0.0,0.0,0.0,0.0
1609043667955543099,1016,1609043667955543099,-0.000563361374724,9.90059159403e-05,2.88876033423e-05,0.0,0.0,0.0,0.0
1609043668004664956,1017,1609043668004664956,-0.000652908294072,-2.6816117078e-06,-8.15815099209e-05,0.0,0.0,0.0,0.0
1609043668054079114,1018,1609043668054079114,-0.000605031333055,3.11478598185e-05,7.30081305509e-05,0.0,0.0,0.0,0.0
1609043668105418978,1019,1609043668105418978,-0.000566180282522,0.000130444324268,5.26461930317e-05,0.0,0.0,0.0,0.0
1609043668154679118,1020,1609043668154679118,-0.000479425030907,0.000112962637999,9.99814615188e-05,0.0,0.0,0.0,0.0
1609043668204361020,1021,1609043668204361020,-0.000611194694429,-1.470271404e-05,5.8884363872e-05,0.0,0.0,0.0,0.0
1609043668254411994,1022,1609043668254411994,-0.00072445425895,2.12945942355e-05,7.51744828094e-05,0.0,0.0,0.0,0.0
1609043668303962050,1023,1609043668303962050,-0.000527855770098,-2.61926671286e-05,0.000116499313258,0.0,0.0,0.0,0.0
1609043668356453953,1024,1609043668356453953,-0.000638120172976,2.39270264082e-05,-9.57824652001e-05,0.0,0.0,0.0,0.0
1609043668405767022,1025,1609043668405767022,-0.000616565893878,0.000300516852594,2.06365781814e-05,0.0,0.0,0.0,0.0
1609043668455009041,1026,1609043668455009041,-0.000452993930189,9.9527020275e-05,3.94317157539e-05,0.0,0.0,0.0,0.0
1609043668504577933,1027,1609043668504577933,-0.000432269181843,9.97472904185e-05,-1.84408455794e-06,0.0,0.0,0.0,0.0
1609043668552774964,1028,1609043668552774964,-0.000651789395032,0.000125723963521,-9.78026826104e-06,0.0,0.0,0.0,0.0
1609043668602505980,1029,1609043668602505980,-0.000442862364377,9.05147301999e-06,-3.29754051602e-05,0.0,0.0,0.0,0.0
1609043668656076966,1030,1609043668656076966,-0.000602848745597,-1.07437111296e-06,5.00689964014e-05,0.0,0.0,0.0,0.0
1609043668705859957,1031,1609043668705859957,-0.000645762137168,0.000134630624716,-1.66857774673e-05,0.0,0.0,0.0,0.0
1609043668755703030,1032,1609043668755703030,-0.000465157377015,3.18206459351e-05,2.46926376626e-05,0.0,0.0,0.0,0.0
1609043668804982958,1033,1609043668804982958,-0.000458214850276,-4.18071260526e-05,-3.16290971405e-05,0.0,0.0,0.0,0.0
1609043668855114995,1034,1609043668855114995,-0.00055864678049,5.93581263288e-05,-3.39139942263e-06,0.0,0.0,0.0,0.0
1609043668908762036,1035,1609043668908762036,-0.000459054684818,-1.86660935828e-05,-1.66087173721e-05,0.0,0.0,0.0,0.0
1609043668953667937,1036,1609043668953667937,-0.000433306959977,2.62209657631e-05,-4.21650103704e-05,0.0,0.0,0.0,0.0
1609043669013159094,1037,1609043669013159094,-0.000497581976163,0.000118435735903,-9.13199550681e-05,0.0,0.0,0.0,0.0
1609043669066160021,1038,1609043669066160021,-0.00048674705668,0.0002112927528,-5.94249011527e-05,0.0,0.0,0.0,0.0
1609043669154815016,1039,1609043669154815016,-0.00059768041308,0.000222938887413,-6.18232855523e-05,0.0,0.0,0.0,0.0
1609043669206558047,1040,1609043669206558047,-0.000417473729538,9.49340103222e-05,-3.41768365217e-05,0.0,0.0,0.0,0.0
1609043669254998026,1041,1609043669254998026,-0.000395418407557,8.26138928058e-05,0.00014538878141,0.0,0.0,0.0,0.0
1609043669348382054,1042,1609043669348382054,-0.000652496335022,-4.17287275489e-06,-8.32643275199e-05,0.0,0.0,0.0,0.0
1609043669397712050,1043,1609043669397712050,-0.000597472219351,-1.60464416687e-05,3.06953550044e-05,0.0,0.0,0.0,0.0
1609043669461134015,1044,1609043669461134015,-0.000459380123644,-5.35381968341e-05,-3.60650396107e-05,0.0,0.0,0.0,0.0
1609043669505310116,1045,1609043669505310116,-0.000519502382176,9.43997055582e-05,-6.1387541054e-05,0.0,0.0,0.0,0.0
1609043669554100094,1046,1609043669554100094,-0.00045831046511,-2.3250724551e-05,-2.07388777476e-05,0.0,0.0,0.0,0.0
1609043669602690039,1047,1609043669602690039,-0.00046397151457,-1.69907230489e-05,-5.82016535233e-06,0.0,0.0,0.0,0.0
1609043669656846104,1048,1609043669656846104,-0.000592821720517,-1.8442316275e-05,2.00233653e-05,0.0,0.0,0.0,0.0
1609043669703940926,1049,1609043669703940926,-0.000491100943073,-0.000178878950209,-4.49629201515e-05,0.0,0.0,0.0,0.0
1609043669754638968,1050,1609043669754638968,-0.000676527082007,6.05860542358e-05,2.08198661511e-06,0.0,0.0,0.0,0.0
1609043669803395091,1051,1609043669803395091,-0.000574459093517,8.73562884074e-06,-9.90390331523e-07,0.0,0.0,0.0,0.0
1609043669853952942,1052,1609043669853952942,-0.00067644153911,-0.000153111695074,-0.00012130175009,0.0,0.0,0.0,0.0
1609043669905443965,1053,1609043669905443965,-0.000679982658859,-0.000111661836515,-9.03288549825e-05,0.0,0.0,0.0,0.0
1609043669953637896,1054,1609043669953637896,-0.000561754715768,0.000139912679185,4.92643546881e-05,0.0,0.0,0.0,0.0
1609043670003531037,1055,1609043670003531037,-0.000605662248105,-6.57992312298e-05,1.83706416692e-05,0.0,0.0,0.0,0.0
1609043670056262074,1056,1609043670056262074,-0.000677918431855,-0.000154713216372,-0.000119274678001,0.0,0.0,0.0,0.0
1609043670104547081,1057,1609043670104547081,-0.000703290702607,-0.000143416208847,-6.20737661379e-05,0.0,0.0,0.0,0.0
1609043670200439988,1058,1609043670200439988,-0.000603386375435,-0.000173473732536,-0.000278986225526,0.0,0.0,0.0,0.0
1609043670250274001,1059,1609043670250274001,-0.000540565431152,-6.51934497355e-05,-0.00011132705686,0.0,0.0,0.0,0.0
1609043670318222104,1060,1609043670318222104,-0.000471002859733,0.00012065694105,8.75924666577e-05,0.0,0.0,0.0,0.0
1609043670417232094,1061,1609043670417232094,-0.000638640150861,1.14031486831e-05,-0.000101964677093,0.0,0.0,0.0,0.0
1609043670456572114,1062,1609043670456572114,-0.000628667938997,-4.43723899863e-05,-0.00015404532277,0.0,0.0,0.0,0.0
1609043670505416928,1063,1609043670505416928,-0.000609687312522,-0.000137343498379,-0.000245567494506,0.0,0.0,0.0,0.0
1609043670553693114,1064,1609043670553693114,-0.000634551673581,4.96585388792e-05,-8.80751469392e-05,0.0,0.0,0.0,0.0
1609043670603386937,1065,1609043670603386937,-0.000695958317944,-0.00015476485372,-0.000313993585841,0.0,0.0,0.0,0.0
1609043670658361969,1066,1609043670658361969,-0.00042736033706,5.4444779888e-05,-3.77714571123e-05,0.0,0.0,0.0,0.0
1609043670705502091,1067,1609043670705502091,-0.000620793852661,-5.00470487204e-05,-0.000173047499054,0.0,0.0,0.0,0.0
1609043670754578887,1068,1609043670754578887,-0.000693583356203,-0.000146652562417,-0.000314060886078,0.0,0.0,0.0,0.0
1609043670803856907,1069,1609043670803856907,-0.000718274346152,2.30990755483e-05,-0.000166861798423,0.0,0.0,0.0,0.0
1609043670854188977,1070,1609043670854188977,-0.000691272182237,-2.01094317607e-05,-1.49884085445e-05,0.0,0.0,0.0,0.0
1609043670906878052,1071,1609043670906878052,-0.000844488504878,-0.000105007543402,-0.000219310108896,0.0,0.0,0.0,0.0
1609043670956668911,1072,1609043670956668911,-0.000472974155439,0.000111081570095,8.60095518682e-05,0.0,0.0,0.0,0.0
1609043671003723918,1073,1609043671003723918,-0.000684415051925,4.57260034086e-05,9.27219154612e-06,0.0,0.0,0.0,0.0
1609043671054411946,1074,1609043671054411946,-0.000724154796028,5.71910290059e-05,-0.000135457513403,0.0,0.0,0.0,0.0
1609043671105424939,1075,1609043671105424939,-0.000870467713209,6.42855344601e-05,-6.98001272923e-05,0.0,0.0,0.0,0.0
1609043671152576027,1076,1609043671152576027,-0.000500464890813,5.18203387472e-05,0.000106760005655,0.0,0.0,0.0,0.0
1609043671204155980,1077,1609043671204155980,-0.000844388002157,-7.84360394288e-05,-0.000204190662842,0.0,0.0,0.0,0.0
1609043671254734097,1078,1609043671254734097,-0.000809521238246,3.19488873171e-05,-0.0002102007332,0.0,0.0,0.0,0.0
1609043671304520903,1079,1609043671304520903,-0.000595053229894,-9.22206149294e-05,-1.80575034801e-05,0.0,0.0,0.0,0.0
1609043671354914008,1080,1609043671354914008,-0.000678452537606,-0.000103659513817,-8.8771754962e-05,0.0,0.0,0.0,0.0
1609043671402664958,1081,1609043671402664958,-0.000853922489046,-0.000134074259767,-0.000217222253687,0.0,0.0,0.0,0.0
1609043671455193100,1082,1609043671455193100,-0.000521864432972,-2.78905194406e-05,0.000103551072227,0.0,0.0,0.0,0.0
1609043671505743084,1083,1609043671505743084,-0.000886909753042,-0.000222419602352,-0.000202258498124,0.0,0.0,0.0,0.0
1609043671556462107,1084,1609043671556462107,-0.000849286492663,-0.000101391234221,-0.000207639925286,0.0,0.0,0.0,0.0
1609043671604317961,1085,1609043671604317961,-0.000522598236497,4.73570501889e-05,-8.23268254457e-05,0.0,0.0,0.0,0.0
1609043671654780922,1086,1609043671654780922,-0.000513784832538,0.000128688158307,-5.30394704636e-05,0.0,0.0,0.0,0.0
1609043671704141913,1087,1609043671704141913,-0.000626635132114,4.50401210905e-06,-0.000129925483895,0.0,0.0,0.0,0.0
1609043671755760966,1088,1609043671755760966,-0.000437088726748,7.95368493911e-06,-4.51425876591e-05,0.0,0.0,0.0,0.0
1609043671805971919,1089,1609043671805971919,-0.000553084013287,5.521222125e-05,-1.68948878621e-05,0.0,0.0,0.0,0.0
1609043671855108080,1090,1609043671855108080,-0.000636826382085,4.9765919206e-05,-8.3468943707e-05,0.0,0.0,0.0,0.0
1609043671908335028,1091,1609043671908335028,-0.000777257565417,5.85451936921e-05,-2.85904269557e-05,0.0,0.0,0.0,0.0
1609043671954915104,1092,1609043671954915104,-0.000503695884333,0.000117906159371,0.000151319340102,0.0,0.0,0.0,0.0
1609043672003986893,1093,1609043672003986893,-0.000727436083135,1.77549379643e-06,-0.000160853667817,0.0,0.0,0.0,0.0
1609043672057356892,1094,1609043672057356892,-0.000499049272857,3.5836426262e-05,9.4715803435e-05,0.0,0.0,0.0,0.0
1609043672103504000,1095,1609043672103504000,-0.000578635080874,-0.00011118698538,-6.17923258339e-05,0.0,0.0,0.0,0.0
1609043672152710019,1096,1609043672152710019,-0.000679824445921,6.85862970826e-05,1.32821614081e-05,0.0,0.0,0.0,0.0
1609043672203785954,1097,1609043672203785954,-0.000729302588645,2.62225799581e-05,-0.000143029271126,0.0,0.0,0.0,0.0
1609043672256527005,1098,1609043672256527005,-0.000527685959074,0.000128176701612,-2.5563472418e-05,0.0,0.0,0.0,0.0
1609043672306644974,1099,1609043672306644974,-0.000719344591413,1.87789541144e-05,-0.000167214603087,0.0,0.0,0.0,0.0
1609043672354941903,1100,1609043672354941903,-0.000720038630707,2.6265313803e-05,-0.000161511637982,0.0,0.0,0.0,0.0
1609043672402010975,1101,1609043672402010975,-0.000631378891498,-3.6535047645e-06,-0.000125152114673,0.0,0.0,0.0,0.0
1609043672456579981,1102,1609043672456579981,-0.000698425483726,-0.000149939833504,-0.000306282979523,0.0,0.0,0.0,0.0
1609043672504951058,1103,1609043672504951058,-0.00075753706885,-0.00012808170719,-0.000175591397237,0.0,0.0,0.0,0.0
1609043672553189097,1104,1609043672553189097,-0.000462028117592,3.1652674906e-05,1.83443135668e-05,0.0,0.0,0.0,0.0
1609043672602804003,1105,1609043672602804003,-0.000712657629688,2.55840588999e-05,-0.000176649753838,0.0,0.0,0.0,0.0
1609043672659848032,1106,1609043672659848032,-0.000764190384267,-0.00012548189231,-0.000160800818627,0.0,0.0,0.0,0.0
1609043672704943953,1107,1609043672704943953,-0.000707869536075,-3.0608257152e-05,1.21157552417e-05,0.0,0.0,0.0,0.0
1609043672753918944,1108,1609043672753918944,-0.000696960567421,1.31570203621e-05,1.55564267832e-05,0.0,0.0,0.0,0.0
1609043672803535996,1109,1609043672803535996,-0.000782463792319,3.99485165818e-05,-2.89121462824e-05,0.0,0.0,0.0,0.0
1609043672854677020,1110,1609043672854677020,-0.000630363309529,0.00016079202892,0.000198367680134,0.0,0.0,0.0,0.0
1609043672907047091,1111,1609043672907047091,-0.000867471816822,6.41939907098e-05,-7.58380041965e-05,0.0,0.0,0.0,0.0
1609043672957156954,1112,1609043672957156954,-0.000760298811624,3.19553411465e-05,-7.78011743314e-05,0.0,0.0,0.0,0.0
1609043673004497109,1113,1609043673004497109,-0.000698240604393,9.12095011607e-06,1.57865123107e-05,0.0,0.0,0.0,0.0
1609043673054570971,1114,1609043673054570971,-0.000700587271091,1.37317519062e-05,2.31331091172e-05,0.0,0.0,0.0,0.0
1609043673104282914,1115,1609043673104282914,-0.000781484387407,5.0436989758e-05,-2.48212909479e-05,0.0,0.0,0.0,0.0
1609043673152183114,1116,1609043673152183114,-0.000583728818754,-6.95425853703e-05,-2.76052930328e-05,0.0,0.0,0.0,0.0
1609043673203681050,1117,1609043673203681050,-0.000665213416074,2.7880119795e-06,-5.38452848193e-05,0.0,0.0,0.0,0.0
1609043673256916104,1118,1609043673256916104,-0.000480921455125,0.000113965250613,0.000103549059419,0.0,0.0,0.0,0.0
1609043673304775057,1119,1609043673304775057,-0.000539274773793,-8.49397539486e-05,0.000105439329042,0.0,0.0,0.0,0.0
