%time,field.header.seq,field.header.stamp,field.pose.position.x,field.pose.position.y,field.pose.position.z,field.pose.orientation.x,field.pose.orientation.y,field.pose.orientation.z,field.pose.orientation.w
1609059636812099886,1219,1609059636812099886,-0.000386770275789,-2.33251453921e-05,-2.60521023812e-05,0.0,0.0,0.0,1.0
1609059636861403895,1220,1609059636861403895,-0.000259252931222,-0.000222152198415,-4.9023629817e-05,0.0,0.0,0.0,1.0
1609059636910773945,1221,1609059636910773945,-0.000249159738416,6.85323165257e-05,-4.15233398279e-05,0.0,0.0,0.0,1.0
1609059636960119916,1222,1609059636960119916,-0.00014818375568,-3.87114276954e-05,-0.000109214670719,0.0,0.0,0.0,1.0
1609059637010565949,1223,1609059637010565949,-0.000224406721319,-0.000209042446961,-0.000290828649984,0.0,0.0,0.0,1.0
1609059637063188983,1224,1609059637063188983,-0.0001948696178,3.06756288531e-05,-0.000165600295414,0.0,0.0,0.0,1.0
1609059637110161019,1225,1609059637110161019,-0.000151706765507,-4.72616094243e-05,-0.000118687633766,0.0,0.0,0.0,1.0
1609059637161779118,1226,1609059637161779118,-0.000226510458138,1.72869967798e-05,-0.0001497323371,0.0,0.0,0.0,1.0
1609059637209620905,1227,1609059637209620905,-0.00024702546477,0.000102776753764,1.0491592441e-05,0.0,0.0,0.0,1.0
1609059637261206103,1228,1609059637261206103,-0.000237053489826,9.63638000222e-05,-1.14383191274e-05,0.0,0.0,0.0,1.0
1609059637311500979,1229,1609059637311500979,-0.000321910361983,-0.000134368571977,-0.000279075284308,0.0,0.0,0.0,1.0
1609059637361015988,1230,1609059637361015988,-0.000163245787668,-3.50301516505e-05,-8.56523399761e-05,0.0,0.0,0.0,1.0
1609059637411388112,1231,1609059637411388112,-0.000215153493823,1.01597118309e-05,-0.000174426986892,0.0,0.0,0.0,1.0
1609059637461224986,1232,1609059637461224986,-0.000478316714897,8.0736088286e-06,-9.01998777252e-05,0.0,0.0,0.0,1.0
1609059637510847998,1233,1609059637510847998,-9.41272975226e-05,0.000160073756618,0.000143758406011,0.0,0.0,0.0,1.0
1609059637562162114,1234,1609059637562162114,-0.000197377356152,1.04654814024e-05,2.68966000299e-05,0.0,0.0,0.0,1.0
1609059637610972119,1235,1609059637610972119,-0.000343120547491,-7.75958255836e-05,-0.000163758181184,0.0,0.0,0.0,1.0
1609059637661370945,1236,1609059637661370945,-0.000330211102963,-8.65253002438e-05,-0.000193146711144,0.0,0.0,0.0,1.0
1609059637709715081,1237,1609059637709715081,-0.000300918200359,-8.98680055599e-05,-1.11673152752e-05,0.0,0.0,0.0,1.0
1609059637761191083,1238,1609059637761191083,-0.000296511183148,-8.16956980501e-05,-3.33489680671e-06,0.0,0.0,0.0,1.0
1609059637811635924,1239,1609059637811635924,-0.000334312930654,-8.09320381805e-05,-0.000179420843196,0.0,0.0,0.0,1.0
1609059637860938979,1240,1609059637860938979,4.09495398301e-05,-4.14459405675e-05,-0.000114113090003,0.0,0.0,0.0,1.0
1609059637911144925,1241,1609059637911144925,-0.000226600929022,-0.000229805615735,-9.95824198178e-05,0.0,0.0,0.0,1.0
1609059637961728049,1242,1609059637961728049,-0.000239224110985,9.25969359216e-05,-1.48848623311e-05,0.0,0.0,0.0,1.0
1609059638011242104,1243,1609059638011242104,-0.000126713562608,-5.60835718026e-05,-0.000162105900824,0.0,0.0,0.0,1.0
1609059638063555909,1244,1609059638063555909,-0.000247917901046,6.89449118312e-05,-4.23258555458e-05,0.0,0.0,0.0,1.0
1609059638109523011,1245,1609059638109523011,-0.000192817614863,2.29569791692e-05,-0.000180301149644,0.0,0.0,0.0,1.0
1609059638161158038,1246,1609059638161158038,-0.000265001451943,-0.000155266513389,-0.000157502313272,0.0,0.0,0.0,1.0
1609059638212754918,1247,1609059638212754918,-0.000148981260438,-5.42436745476e-05,-0.000133007238126,0.0,0.0,0.0,1.0
1609059638259267998,1248,1609059638259267998,-0.000193080112755,3.25116417841e-05,-0.000164780121047,0.0,0.0,0.0,1.0
1609059638313444090,1249,1609059638313444090,-0.000231903657085,-0.000202312234578,-4.95768565045e-05,0.0,0.0,0.0,1.0
1609059638362504912,1250,1609059638362504912,-0.000179995235118,-7.05114112094e-05,-0.000122459959428,0.0,0.0,0.0,1.0
1609059638411596013,1251,1609059638411596013,-9.00782876094e-05,-0.000136483991408,0.000110283685466,0.0,0.0,0.0,1.0
1609059638463040066,1252,1609059638463040066,-0.000157760485045,-4.01316052034e-05,-0.000100221100755,0.0,0.0,0.0,1.0
1609059638509191943,1253,1609059638509191943,-0.000327259095979,-0.000101121804647,1.87141619534e-06,0.0,0.0,0.0,1.0
1609059638562962962,1254,1609059638562962962,-3.65761796708e-05,2.96708142002e-05,-0.000131501539926,0.0,0.0,0.0,1.0
1609059638610638094,1255,1609059638610638094,-0.000200908881958,2.47099814246e-05,-0.000168001127872,0.0,0.0,0.0,1.0
1609059638661013079,1256,1609059638661013079,-0.000281458759751,-0.00014505099853,-0.000121896709263,0.0,0.0,0.0,1.0
1609059638711277915,1257,1609059638711277915,-0.000104371116091,-0.000100345775195,-0.000258834894751,0.0,0.0,0.0,1.0
1609059638760889960,1258,1609059638760889960,-0.000153394957771,-8.17526505621e-05,5.01084652385e-05,0.0,0.0,0.0,1.0
1609059638812534047,1259,1609059638812534047,-0.00031208351475,-0.000163525596044,-0.000115320177859,0.0,0.0,0.0,1.0
1609059638862112952,1260,1609059638862112952,-5.21436302243e-05,-0.000194030421749,-2.59214545544e-05,0.0,0.0,0.0,1.0
1609059638909130049,1261,1609059638909130049,-0.000453896542592,-0.000257479300807,-0.000319971764299,0.0,0.0,0.0,1.0
1609059638961914969,1262,1609059638961914969,-0.000314512014288,-0.000148381884468,-8.83550175743e-05,0.0,0.0,0.0,1.0
1609059639009439898,1263,1609059639009439898,-0.000203152553915,5.10700223444e-06,2.51521288952e-05,0.0,0.0,0.0,1.0
1609059639061371995,1264,1609059639061371995,6.30681384521e-05,-8.62429624391e-05,-0.00021143061937,0.0,0.0,0.0,1.0
1609059639109818888,1265,1609059639109818888,-0.000148521552212,-5.10513782856e-05,9.32629259012e-05,0.0,0.0,0.0,1.0
1609059639160401059,1266,1609059639160401059,-0.000164933527618,-5.77144449885e-05,-0.000119785920727,0.0,0.0,0.0,1.0
1609059639211657954,1267,1609059639211657954,-0.000277812994057,0.000100010756778,-0.000179458207864,0.0,0.0,0.0,1.0
1609059639260926915,1268,1609059639260926915,-0.000176367867521,-4.7935871013e-05,-9.07790403915e-05,0.0,0.0,0.0,1.0
1609059639312430096,1269,1609059639312430096,-0.000285135212081,6.76546109446e-05,-6.4141889311e-07,0.0,0.0,0.0,1.0
1609059639361603928,1270,1609059639361603928,-0.000123767878119,0.000195209337694,1.28057091544e-05,0.0,0.0,0.0,1.0
1609059639410062981,1271,1609059639410062981,-0.000250428963984,-0.000221089691639,-5.77021012127e-05,0.0,0.0,0.0,1.0
1609059639461431933,1272,1609059639461431933,-0.000182182620698,-2.63956857012e-05,-4.96499163241e-05,0.0,0.0,0.0,1.0
1609059639510627938,1273,1609059639510627938,-0.000176908568612,-4.80915584298e-05,-9.03914783343e-05,0.0,0.0,0.0,1.0
1609059639562231970,1274,1609059639562231970,-4.20557244958e-05,6.50353599738e-05,-6.8755686474e-05,0.0,0.0,0.0,1.0
1609059639611807061,1275,1609059639611807061,-5.6497899461e-05,6.73350722131e-05,-4.81215237293e-05,0.0,0.0,0.0,1.0
1609059639660788966,1276,1609059639660788966,-0.000231015584646,1.43020235157e-05,7.25377045363e-05,0.0,0.0,0.0,1.0
1609059639710631085,1277,1609059639710631085,-9.66045183084e-05,-8.93664368817e-06,-0.000122425016414,0.0,0.0,0.0,1.0
1609059639761419964,1278,1609059639761419964,-0.000101241179138,0.000124713074754,9.58178275603e-05,0.0,0.0,0.0,1.0
1609059639811754895,1279,1609059639811754895,-0.000115599529181,0.000126409691315,-0.000106335161263,0.0,0.0,0.0,1.0
1609059639860475970,1280,1609059639860475970,-0.000138714651815,-0.000118869258976,-2.62400538169e-05,0.0,0.0,0.0,1.0
1609059639909240914,1281,1609059639909240914,-0.000206296787898,-3.99483350257e-05,-4.28884947894e-05,0.0,0.0,0.0,1.0
1609059639960643006,1282,1609059639960643006,3.31167524692e-06,-4.07271719638e-06,-1.03763926411e-05,0.0,0.0,0.0,1.0
1609059640011176062,1283,1609059640011176062,-7.7889683233e-05,4.27306980235e-05,-6.21559736587e-05,0.0,0.0,0.0,1.0
1609059640060336066,1284,1609059640060336066,-4.49710903041e-05,6.92958988608e-05,-5.85460074198e-05,0.0,0.0,0.0,1.0
1609059640110604954,1285,1609059640110604954,-0.000282617120483,7.56784464393e-05,9.17461331085e-06,0.0,0.0,0.0,1.0
1609059640159892989,1286,1609059640159892989,-0.000139662098544,-0.000123463800886,-3.24418558613e-05,0.0,0.0,0.0,1.0
1609059640211558056,1287,1609059640211558056,-9.94662825704e-05,0.000104130122459,-0.000160767928822,0.0,0.0,0.0,1.0
1609059640263082934,1288,1609059640263082934,-7.641355473e-05,4.32655369416e-05,-0.000284765526501,0.0,0.0,0.0,1.0
1609059640310277892,1289,1609059640310277892,-0.000132944639923,-0.00012768090744,-4.70506574857e-05,0.0,0.0,0.0,1.0
1609059640361942006,1290,1609059640361942006,-0.000120708260152,-0.000127453474903,-6.10689557945e-05,0.0,0.0,0.0,1.0
1609059640409939957,1291,1609059640409939957,-0.000144284844399,-4.39997084243e-05,9.95113458906e-05,0.0,0.0,0.0,1.0
1609059640460380030,1292,1609059640460380030,-0.000285353570188,-0.000162983756383,-0.00014587111319,0.0,0.0,0.0,1.0
1609059640511650038,1293,1609059640511650038,-0.000281698893104,-0.000185727944171,3.534877359e-05,0.0,0.0,0.0,1.0
1609059640562055064,1294,1609059640562055064,-0.000376764909856,-5.94204815627e-05,-9.52804550032e-05,0.0,0.0,0.0,1.0
1609059640611683083,1295,1609059640611683083,-6.24006762706e-07,-2.73376122095e-06,-0.000225345804377,0.0,0.0,0.0,1.0
1609059640660602046,1296,1609059640660602046,-0.000336469321649,-0.000148336390115,-6.2477749406e-05,0.0,0.0,0.0,1.0
1609059640711425019,1297,1609059640711425019,-7.45789479559e-05,4.77237082386e-05,-5.80970753603e-05,0.0,0.0,0.0,1.0
1609059640761268092,1298,1609059640761268092,-0.000273953192831,-0.000209623410061,-1.17996769404e-05,0.0,0.0,0.0,1.0
1609059640810977889,1299,1609059640810977889,-0.000332325631117,-0.00013508998153,-4.62571401734e-05,0.0,0.0,0.0,1.0
1609059640861379099,1300,1609059640861379099,-7.72756438785e-05,-0.000169453905393,-0.0001789825751,0.0,0.0,0.0,1.0
1609059640908561898,1301,1609059640908561898,-0.000187372539781,-4.1772012505e-05,-6.80322737701e-05,0.0,0.0,0.0,1.0
1609059640961056901,1302,1609059640961056901,0.000104824345822,0.000162309175209,-0.000308219473137,0.0,0.0,0.0,1.0
1609059641011466933,1303,1609059641011466933,2.36039225108e-05,-1.76879457641e-05,-5.59018073503e-05,0.0,0.0,0.0,1.0
1609059641062046958,1304,1609059641062046958,-2.50271676343e-05,-2.971085922e-05,-0.000239618841562,0.0,0.0,0.0,1.0
1609059641111312104,1305,1609059641111312104,7.12498635735e-05,-7.45977074104e-05,-0.00042422871622,0.0,0.0,0.0,1.0
1609059641158770991,1306,1609059641158770991,-0.000178402520106,-2.00873306824e-05,-0.000265775000234,0.0,0.0,0.0,1.0
1609059641211102915,1307,1609059641211102915,-0.000119862239618,0.000200412462902,1.65000596652e-05,0.0,0.0,0.0,1.0
1609059641263302041,1308,1609059641263302041,-8.68378318941e-05,0.000119461806097,-0.000151198421854,0.0,0.0,0.0,1.0
1609059641310619069,1309,1609059641310619069,-5.39485553652e-05,7.42733594343e-05,-4.00705950412e-05,0.0,0.0,0.0,1.0
1609059641362344933,1310,1609059641362344933,2.59195384089e-05,-3.42430722e-06,-0.000257639138066,0.0,0.0,0.0,1.0
1609059641409410906,1311,1609059641409410906,0.000104642776062,0.000158973546924,-9.15909563481e-05,0.0,0.0,0.0,1.0
1609059641461462927,1312,1609059641461462927,-6.91552824073e-05,0.00011533221187,-0.000178554071464,0.0,0.0,0.0,1.0
1609059641510810090,1313,1609059641510810090,8.27611478122e-05,-8.23058921569e-05,-0.000228305337451,0.0,0.0,0.0,1.0
1609059641561867905,1314,1609059641561867905,-1.51514438791e-05,-4.09941727675e-05,-0.000269189463861,0.0,0.0,0.0,1.0
1609059641611465884,1315,1609059641611465884,-0.000175364240874,1.09398454669e-05,-0.00021994568684,0.0,0.0,0.0,1.0
1609059641660098029,1316,1609059641660098029,-0.000187136477457,-6.47983872923e-05,-0.000104971412977,0.0,0.0,0.0,1.0
1609059641712622118,1317,1609059641712622118,-0.000261192704386,7.89559258436e-05,-1.07856662268e-05,0.0,0.0,0.0,1.0
1609059641763167096,1318,1609059641763167096,-0.000142523086218,-0.000108095634541,-4.61091535442e-06,0.0,0.0,0.0,1.0
1609059641814458085,1319,1609059641814458085,-0.00019587038534,-4.60500835118e-05,-6.48568237338e-05,0.0,0.0,0.0,1.0
1609059641861777974,1320,1609059641861777974,-4.30831683396e-05,6.08882263791e-05,-7.41511644442e-05,0.0,0.0,0.0,1.0
1609059641910664034,1321,1609059641910664034,-8.31234617884e-05,3.80950580094e-05,-6.33858874153e-05,0.0,0.0,0.0,1.0
1609059641968651963,1322,1609059641968651963,-0.000142928302989,-6.60063478719e-05,6.2878629155e-05,0.0,0.0,0.0,1.0
1609059642011675072,1323,1609059642011675072,-0.000185949389262,-5.76838882829e-05,0.000126689134206,0.0,0.0,0.0,1.0
1609059642061350060,1324,1609059642061350060,-0.000410448006686,-1.58958198426e-06,-0.000185346587894,0.0,0.0,0.0,1.0
1609059642111669970,1325,1609059642111669970,-0.000180445887729,-5.76150039748e-05,0.000120330914076,0.0,0.0,0.0,1.0
1609059642167797041,1326,1609059642167797041,-0.000312410327933,0.000103248180913,8.80846728251e-05,0.0,0.0,0.0,1.0
1609059642210950089,1327,1609059642210950089,-0.000445838662397,-0.00026035454944,0.000109434402827,0.0,0.0,0.0,1.0
1609059642263010932,1328,1609059642263010932,-0.000364495756816,-0.000143293824014,0.000200217536371,0.0,0.0,0.0,1.0
1609059642310435963,1329,1609059642310435963,-0.000325323053826,-0.000154213156762,0.000136794451176,0.0,0.0,0.0,1.0
1609059642362278891,1330,1609059642362278891,-0.000468036067399,-0.000269009892541,0.00012174110519,0.0,0.0,0.0,1.0
1609059642410458994,1331,1609059642410458994,-0.000381750356095,-0.000400700672248,3.23899060675e-05,0.0,0.0,0.0,1.0
1609059642460976077,1332,1609059642460976077,-0.000374648908718,-9.68023474286e-05,6.44429678722e-05,0.0,0.0,0.0,1.0
1609059642510755969,1333,1609059642510755969,-0.000268890525149,1.0060735562e-05,0.0001102967442,0.0,0.0,0.0,1.0
1609059642561908913,1334,1609059642561908913,-0.000708424015016,-0.000155176692687,0.000142040881421,0.0,0.0,0.0,1.0
1609059642611338091,1335,1609059642611338091,-0.000428987708123,-0.00010898691654,0.000108904306014,0.0,0.0,0.0,1.0
1609059642661937905,1336,1609059642661937905,-0.000315033645595,-0.000162472963279,0.000111550857149,0.0,0.0,0.0,1.0
1609059642712047053,1337,1609059642712047053,-0.000580821021664,-0.000351078645057,-9.81033295844e-05,0.0,0.0,0.0,1.0
1609059642763760996,1338,1609059642763760996,-0.000385613333158,-9.33999845749e-05,8.27459639332e-05,0.0,0.0,0.0,1.0
1609059642811994029,1339,1609059642811994029,-0.00029411463488,-0.000138311235414,0.000125435708828,0.0,0.0,0.0,1.0
1609059642860651923,1340,1609059642860651923,-0.000585336773032,-0.000102403272908,8.1406026986e-05,0.0,0.0,0.0,1.0
1609059642908493948,1341,1609059642908493948,-0.000393686879775,-6.97719408649e-05,-9.18744350891e-05,0.0,0.0,0.0,1.0
1609059642960622025,1342,1609059642960622025,-0.000297667536927,-0.000196886214646,-0.000185377198868,0.0,0.0,0.0,1.0
1609059643012129975,1343,1609059643012129975,-0.000424466369896,-0.000311006711389,3.67034031257e-06,0.0,0.0,0.0,1.0
1609059643061673117,1344,1609059643061673117,-0.000370771936993,-4.68060181014e-05,0.000139489653538,0.0,0.0,0.0,1.0
1609059643110657883,1345,1609059643110657883,-0.000419187566937,-1.56864173633e-05,0.000245938414018,0.0,0.0,0.0,1.0
1609059643158637000,1346,1609059643158637000,-0.000327269537976,-0.000160524835032,0.000129032737576,0.0,0.0,0.0,1.0
1609059643212631894,1347,1609059643212631894,-0.000567781758253,-0.000404783661452,-0.000198933303775,0.0,0.0,0.0,1.0
1609059643262228919,1348,1609059643262228919,-0.000431697173198,-4.37402930586e-06,5.69211944921e-05,0.0,0.0,0.0,1.0
1609059643310502959,1349,1609059643310502959,-0.000459484744745,-0.000217375086752,-0.000249553165226,0.0,0.0,0.0,1.0
1609059643361880017,1350,1609059643361880017,-0.000212483437608,-3.81079078977e-05,-3.26875315224e-05,0.0,0.0,0.0,1.0
1609059643410331917,1351,1609059643410331917,-0.000148520018687,-0.000133725143577,-3.83695744759e-05,0.0,0.0,0.0,1.0
1609059643462818099,1352,1609059643462818099,-0.000482434045665,-0.000260180917699,-6.90089759594e-05,0.0,0.0,0.0,1.0
1609059643511497927,1353,1609059643511497927,-0.00037089362781,-7.08131384322e-05,-0.000120319473975,0.0,0.0,0.0,1.0
1609059643560929013,1354,1609059643560929013,-8.15767460622e-05,-0.000184811989183,2.33460971799e-05,0.0,0.0,0.0,1.0
1609059643611206008,1355,1609059643611206008,-0.000286552460629,8.47528971804e-05,2.82477031135e-05,0.0,0.0,0.0,1.0
1609059643661601019,1356,1609059643661601019,-0.000233404517452,2.27755164524e-05,-0.000132891710955,0.0,0.0,0.0,1.0
1609059643713094903,1357,1609059643713094903,-0.000372271339376,-0.000108329844611,4.32949970062e-05,0.0,0.0,0.0,1.0
1609059643763589097,1358,1609059643763589097,-0.000309132350864,-0.000141586826601,-8.38585429292e-05,0.0,0.0,0.0,1.0
1609059643810868931,1359,1609059643810868931,-0.000237158305019,2.06763941115e-05,8.99059875366e-05,0.0,0.0,0.0,1.0
1609059643861731005,1360,1609059643861731005,-0.000340079524413,-0.000153060457396,-6.57563963138e-05,0.0,0.0,0.0,1.0
1609059643908292962,1361,1609059643908292962,-0.00050355784645,-0.000182956977167,7.87695265636e-05,0.0,0.0,0.0,1.0
1609059643960392905,1362,1609059643960392905,-0.000302514422362,-0.000127861250881,-6.97828226279e-05,0.0,0.0,0.0,1.0
1609059644011320067,1363,1609059644011320067,-0.000246024954645,1.89546700575e-05,-0.000124143341125,0.0,0.0,0.0,1.0
1609059644061661912,1364,1609059644061661912,-0.000298586142961,-0.000215625031259,-0.000214132500247,0.0,0.0,0.0,1.0
1609059644110173893,1365,1609059644110173893,-0.000339901307495,-0.000149109337091,-0.000281401416917,0.0,0.0,0.0,1.0
1609059644159088088,1366,1609059644159088088,-0.000283115471163,8.48587280444e-07,-0.00010938160818,0.0,0.0,0.0,1.0
1609059644211442900,1367,1609059644211442900,-0.000122128508707,0.000115696826509,-0.000115718917716,0.0,0.0,0.0,1.0
1609059644263994885,1368,1609059644263994885,-0.000310955354148,-0.000126889585921,-5.83157634857e-05,0.0,0.0,0.0,1.0
1609059644309688998,1369,1609059644309688998,-0.00015147734203,-0.00010176565916,1.59907100539e-05,0.0,0.0,0.0,1.0
1609059644362067891,1370,1609059644362067891,-0.000202057899052,-0.000247252063488,-0.000156203130498,0.0,0.0,0.0,1.0
1609059644409125996,1371,1609059644409125996,-0.000330330885433,-0.000130842587218,-4.18388893877e-05,0.0,0.0,0.0,1.0
1609059644461717082,1372,1609059644461717082,-0.000269586322489,-0.000202524238397,-5.62873194099e-06,0.0,0.0,0.0,1.0
1609059644512036038,1373,1609059644512036038,-0.000305608435699,-0.000212730388025,-0.000201271100657,0.0,0.0,0.0,1.0
1609059644569071007,1374,1609059644569071007,-0.00035723526674,-0.000330391992478,-0.000327931339019,0.0,0.0,0.0,1.0
1609059644611122084,1375,1609059644611122084,-0.000282356039079,-0.000223821218203,-2.45295726344e-05,0.0,0.0,0.0,1.0
1609059644660792065,1376,1609059644660792065,-0.000361825027142,-4.21396930044e-05,-8.53244328916e-05,0.0,0.0,0.0,1.0
1609059644710603905,1377,1609059644710603905,-0.000202671971021,-3.38195036029e-05,-3.73903392941e-05,0.0,0.0,0.0,1.0
1609059644764385891,1378,1609059644764385891,-0.000338151043806,-0.00016519357785,-8.73406285145e-05,0.0,0.0,0.0,1.0
1609059644811536027,1379,1609059644811536027,-0.000402970374513,-9.15263312073e-05,0.000106127896938,0.0,0.0,0.0,1.0
1609059644861247969,1380,1609059644861247969,-0.000578341755237,-0.000114403128936,5.40792695674e-05,0.0,0.0,0.0,1.0
1609059644909268094,1381,1609059644909268094,-0.000385569256974,-8.5466738021e-05,9.53252885694e-05,0.0,0.0,0.0,1.0
1609059644960873080,1382,1609059644960873080,-0.000372451819274,-0.000274508759574,6.51340418045e-07,0.0,0.0,0.0,1.0
1609059645011628104,1383,1609059645011628104,-0.000492691832498,-0.000256245307668,-5.06875429309e-05,0.0,0.0,0.0,1.0
1609059645061392975,1384,1609059645061392975,-0.000445466868879,-0.000206141928786,-2.6415751222e-05,0.0,0.0,0.0,1.0
1609059645112142993,1385,1609059645112142993,-0.000444894010379,-0.00020949981657,-3.24352843357e-05,0.0,0.0,0.0,1.0
1609059645160577012,1386,1609059645160577012,-0.000152142748181,-0.000133507257161,-3.37651595643e-05,0.0,0.0,0.0,1.0
1609059645211976958,1387,1609059645211976958,-0.000245494326659,8.02591535383e-05,0.000194569815775,0.0,0.0,0.0,1.0
1609059645263683033,1388,1609059645263683033,-0.000481905473929,-0.000270947174002,0.000134956650104,0.0,0.0,0.0,1.0
1609059645309767914,1389,1609059645309767914,-0.000350269553785,-0.000152224076945,-0.000274175596381,0.0,0.0,0.0,1.0
1609059645361521912,1390,1609059645361521912,-0.000391105986722,-8.71634521538e-05,9.91308230667e-05,0.0,0.0,0.0,1.0
1609059645410800887,1391,1609059645410800887,-0.000257385805114,1.2152141462e-05,-0.000121622572376,0.0,0.0,0.0,1.0
1609059645461821032,1392,1609059645461821032,-0.000346085158174,-0.000161726319796,-7.2495817296e-05,0.0,0.0,0.0,1.0
1609059645512345982,1393,1609059645512345982,-0.000550583418658,-0.000200061188842,0.000106803554729,0.0,0.0,0.0,1.0
1609059645560505105,1394,1609059645560505105,-0.00059512577273,-5.23851581846e-05,-4.91815038153e-05,0.0,0.0,0.0,1.0
1609059645612406922,1395,1609059645612406922,-0.000410646351728,-0.000136461748131,0.000265334072143,0.0,0.0,0.0,1.0
1609059645659907055,1396,1609059645659907055,-0.000562779073039,-0.000111651763355,4.0169865791e-05,0.0,0.0,0.0,1.0
1609059645710335923,1397,1609059645710335923,-0.000554339860493,-0.000135622237742,0.000213816623628,0.0,0.0,0.0,1.0
1609059645764110995,1398,1609059645764110995,-0.000293244581698,-1.16683346114e-05,0.00010432189266,0.0,0.0,0.0,1.0
1609059645810743046,1399,1609059645810743046,-0.000403813423723,-7.72827502473e-05,-9.19318202364e-05,0.0,0.0,0.0,1.0
1609059645860698891,1400,1609059645860698891,-0.000517147316319,-0.000198769374386,0.000291294873652,0.0,0.0,0.0,1.0
1609059645909594012,1401,1609059645909594012,-0.000451718980571,-2.95308274296e-05,4.03976193262e-05,0.0,0.0,0.0,1.0
1609059645960088921,1402,1609059645960088921,-0.000405885442067,-0.000220927336681,0.000125254330033,0.0,0.0,0.0,1.0
1609059646014728022,1403,1609059646014728022,-0.000331624504547,7.46691284945e-05,6.51627539909e-05,0.0,0.0,0.0,1.0
1609059646061294032,1404,1609059646061294032,-0.000440259663019,-1.36505733543e-05,5.22142958879e-05,0.0,0.0,0.0,1.0
1609059646109769059,1405,1609059646109769059,-0.000471042059271,-0.000242443630668,-5.4156797642e-05,0.0,0.0,0.0,1.0
1609059646160515976,1406,1609059646160515976,-0.000574323591277,-8.37143908754e-05,-0.000123510282261,0.0,0.0,0.0,1.0
1609059646211092902,1407,1609059646211092902,-0.000412908177896,-9.86237521126e-05,0.000106506897367,0.0,0.0,0.0,1.0
1609059646264058066,1408,1609059646264058066,-0.000398092924481,-7.02891894093e-05,-8.75198585817e-05,0.0,0.0,0.0,1.0
1609059646310534907,1409,1609059646310534907,-0.000243940798018,3.31046159694e-05,-0.000104063651651,0.0,0.0,0.0,1.0
1609059646362097931,1410,1609059646362097931,-0.000388958194424,-6.67919941719e-05,-9.26871763305e-05,0.0,0.0,0.0,1.0
1609059646411589098,1411,1609059646411589098,-0.00047637293029,-0.000263884160393,0.000139700040741,0.0,0.0,0.0,1.0
1609059646461224032,1412,1609059646461224032,-0.000219961200479,-5.88245594528e-05,-5.68838375159e-05,0.0,0.0,0.0,1.0
1609059646511770916,1413,1609059646511770916,-9.26998374062e-05,8.78882658384e-06,-9.87920111761e-05,0.0,0.0,0.0,1.0
1609059646561097098,1414,1609059646561097098,-0.000278835634774,7.67392814609e-05,6.41953347724e-06,0.0,0.0,0.0,1.0
1609059646612173033,1415,1609059646612173033,-0.00019410353573,-3.91340812342e-05,-0.000277648279219,0.0,0.0,0.0,1.0
1609059646661961985,1416,1609059646661961985,-0.000355385023511,-5.48895218948e-05,0.000108535878127,0.0,0.0,0.0,1.0
1609059646710694981,1417,1609059646710694981,-0.000436182954576,-0.000317027017648,-0.000213871804629,0.0,0.0,0.0,1.0
1609059646763697100,1418,1609059646763697100,-0.0001938241871,-2.93015808843e-05,-4.05951660269e-05,0.0,0.0,0.0,1.0
1609059646810995055,1419,1609059646810995055,-0.000279271702873,-0.000223030896386,-2.6896055374e-05,0.0,0.0,0.0,1.0
1609059646861387921,1420,1609059646861387921,-0.000418261388859,-8.3216015387e-05,-8.43988208992e-05,0.0,0.0,0.0,1.0
1609059646911863995,1421,1609059646911863995,-0.000459389423597,-1.93481447575e-05,6.56248893094e-05,0.0,0.0,0.0,1.0
1609059646960195971,1422,1609059646960195971,-0.000718803742775,-0.000216856894852,5.6034336005e-05,0.0,0.0,0.0,1.0
1609059647010625077,1423,1609059647010625077,-0.000186134901714,0.000271717260798,-1.38134268362e-05,0.0,0.0,0.0,1.0
1609059647061221076,1424,1609059647061221076,-1.8161470738e-05,-2.34714882303e-05,-0.000237753389797,0.0,0.0,0.0,1.0
1609059647111664010,1425,1609059647111664010,-0.000104659031464,-8.6085023522e-05,-1.40649678002e-05,0.0,0.0,0.0,1.0
1609059647160988045,1426,1609059647160988045,-3.89449264979e-05,5.94467226698e-05,-8.13095890067e-05,0.0,0.0,0.0,1.0
1609059647210534049,1427,1609059647210534049,2.74255272359e-06,1.21081704307e-06,-0.000223021811067,0.0,0.0,0.0,1.0
1609059647263510895,1428,1609059647263510895,-5.24770724013e-05,7.68390422046e-05,-0.000259441558178,0.0,0.0,0.0,1.0
1609059647310938073,1429,1609059647310938073,-5.50926916745e-05,7.02726454058e-05,-0.000266822392319,0.0,0.0,0.0,1.0
1609059647361104918,1430,1609059647361104918,-0.000135696831766,-0.000116751764612,-2.64152587235e-05,0.0,0.0,0.0,1.0
1609059647410228920,1431,1609059647410228920,-4.3192613191e-05,6.66359540027e-05,-6.48711828823e-05,0.0,0.0,0.0,1.0
1609059647461812926,1432,1609059647461812926,6.00381211271e-05,0.00016649955295,-0.000248915418577,0.0,0.0,0.0,1.0
1609059647511064005,1433,1609059647511064005,1.78453927902e-06,-1.90606854602e-05,-3.24450816187e-05,0.0,0.0,0.0,1.0
1609059647560487938,1434,1609059647560487938,-0.000148213589938,0.000201410292988,-0.000170320427959,0.0,0.0,0.0,1.0
1609059647611725998,1435,1609059647611725998,-1.13486434223e-05,9.88684672691e-05,-0.000272701357638,0.0,0.0,0.0,1.0
1609059647660194111,1436,1609059647660194111,-0.000100240602336,0.000136995352609,-0.000107530988103,0.0,0.0,0.0,1.0
1609059647711523963,1437,1609059647711523963,-0.000147728315611,-9.88786286129e-05,-0.000205545377071,0.0,0.0,0.0,1.0
1609059647761155081,1438,1609059647761155081,-8.56843680879e-05,3.53184893811e-05,-6.47970405758e-05,0.0,0.0,0.0,1.0
1609059647812839938,1439,1609059647812839938,-0.000230526190137,8.75013969193e-06,6.31229544688e-05,0.0,0.0,0.0,1.0
1609059647860968066,1440,1609059647860968066,-0.000242101401231,1.29592413387e-05,-0.000138300067661,0.0,0.0,0.0,1.0
1609059647910299969,1441,1609059647910299969,-0.00039387489651,-7.26703134042e-05,-9.62681450787e-05,0.0,0.0,0.0,1.0
1609059647961706114,1442,1609059647961706114,-0.000381871212547,-7.5127397988e-05,-0.000114287294085,0.0,0.0,0.0,1.0
1609059648013448906,1443,1609059648013448906,-0.000358047214934,-0.000167931727113,-6.83176364902e-05,0.0,0.0,0.0,1.0
1609059648060733033,1444,1609059648060733033,-0.000447330267377,-0.000297954033904,-0.000170404382754,0.0,0.0,0.0,1.0
1609059648112209034,1445,1609059648112209034,-0.000392768385392,-6.85968419027e-05,-9.1082931629e-05,0.0,0.0,0.0,1.0
1609059648160470915,1446,1609059648160470915,-0.000332939963442,-0.000130002194251,-3.7434580058e-05,0.0,0.0,0.0,1.0
1609059648211301995,1447,1609059648211301995,-0.000359582064394,-4.76834944507e-05,-9.67870561119e-05,0.0,0.0,0.0,1.0
1609059648263458920,1448,1609059648263458920,-0.000334837330893,-0.000142616899055,-5.52893737584e-05,0.0,0.0,0.0,1.0
1609059648310585928,1449,1609059648310585928,-0.000318799747767,-0.000135137042005,-6.22280793472e-05,0.0,0.0,0.0,1.0
1609059648362069083,1450,1609059648362069083,-0.000241586166695,3.42935409954e-05,-0.000104937898257,0.0,0.0,0.0,1.0
1609059648410202933,1451,1609059648410202933,-0.000155955135895,-8.49833047241e-05,-0.000173753699322,0.0,0.0,0.0,1.0
1609059648460826111,1452,1609059648460826111,-0.00019558877646,-3.22348397219e-05,-4.31916199837e-05,0.0,0.0,0.0,1.0
1609059648511125041,1453,1609059648511125041,-0.000256041585082,5.22365305251e-05,-5.93813118321e-05,0.0,0.0,0.0,1.0
1609059648560791922,1454,1609059648560791922,-0.00037911936359,-8.27219427713e-05,9.21152986599e-05,0.0,0.0,0.0,1.0
1609059648611245108,1455,1609059648611245108,-0.000297278045981,-0.000193710849491,-0.000180779295626,0.0,0.0,0.0,1.0
1609059648661153031,1456,1609059648661153031,-0.000419425856162,-1.72273562455e-05,0.000243764989822,0.0,0.0,0.0,1.0
1609059648710394097,1457,1609059648710394097,-0.000391276838048,-7.24811778205e-05,-9.90203273226e-05,0.0,0.0,0.0,1.0
1609059648763838959,1458,1609059648763838959,-0.000389921756543,-8.09958356704e-05,0.000107559005194,0.0,0.0,0.0,1.0
1609059648811249924,1459,1609059648811249924,-0.000199463036815,-3.53968561484e-05,-4.36729606861e-05,0.0,0.0,0.0,1.0
1609059648862269116,1460,1609059648862269116,-0.000343839648114,-0.000130426510232,-2.53005084048e-05,0.0,0.0,0.0,1.0
1609059648910104943,1461,1609059648910104943,-0.000241277176517,3.7471376924e-05,-0.000100241389184,0.0,0.0,0.0,1.0
1609059648963622046,1462,1609059648963622046,-0.000232750191365,-5.3831899308e-05,-3.39047689302e-05,0.0,0.0,0.0,1.0
1609059649012705994,1463,1609059649012705994,-0.000321818995165,-0.000142320432676,-7.01168733919e-05,0.0,0.0,0.0,1.0
1609059649060615016,1464,1609059649060615016,-0.000365938117241,-5.71638748212e-05,-0.000104411531943,0.0,0.0,0.0,1.0
1609059649111994935,1465,1609059649111994935,-0.000286328162037,9.5282226404e-05,4.47487043012e-05,0.0,0.0,0.0,1.0
1609059649160974932,1466,1609059649160974932,-0.000336826553976,-0.000142057224799,-5.20604889012e-05,0.0,0.0,0.0,1.0
1609059649211126042,1467,1609059649211126042,-0.000289169022494,-0.000221078800024,-1.21563917332e-05,0.0,0.0,0.0,1.0
1609059649263186884,1468,1609059649263186884,-0.000299264500008,0.000103893064409,-0.000148066712775,0.0,0.0,0.0,1.0
1609059649310493899,1469,1609059649310493899,-0.000337341459701,-0.000144908721186,-5.59953935735e-05,0.0,0.0,0.0,1.0
1609059649361945105,1470,1609059649361945105,-0.000290001000579,0.000100119702026,5.67672977034e-05,0.0,0.0,0.0,1.0
1609059649411539031,1471,1609059649411539031,-8.17172117138e-05,3.49476499544e-05,-7.00497373991e-05,0.0,0.0,0.0,1.0
1609059649462953997,1472,1609059649462953997,-0.000295211039305,-0.000114512584751,-5.71127427591e-05,0.0,0.0,0.0,1.0
1609059649511554909,1473,1609059649511554909,-0.000303557745543,-0.000185168478577,-0.000159798567172,0.0,0.0,0.0,1.0
1609059649560886097,1474,1609059649560886097,-0.000337796416911,-0.000145558167517,-5.64947363557e-05,0.0,0.0,0.0,1.0
1609059649611853076,1475,1609059649611853076,-0.000135222924545,-0.000108698722013,-1.4150435689e-05,0.0,0.0,0.0,1.0
1609059649661374999,1476,1609059649661374999,-0.000327997184353,-0.000143814050329,-6.52341675149e-05,0.0,0.0,0.0,1.0
1609059649712681008,1477,1609059649712681008,-0.000242311896717,-0.000282010850626,-0.000164236943668,0.0,0.0,0.0,1.0
1609059649763936949,1478,1609059649763936949,-0.000230070240367,-0.00026679729179,-0.000154401394234,0.0,0.0,0.0,1.0
1609059649811124993,1479,1609059649811124993,-0.000481003699303,-0.000234953146361,-3.05234803371e-05,0.0,0.0,0.0,1.0
1609059649861453963,1480,1609059649861453963,-0.000329334392351,-0.000152390779093,-7.73181476674e-05,0.0,0.0,0.0,1.0
1609059649910799933,1481,1609059649910799933,-0.000477285853371,-0.000240425266888,-4.36053062067e-05,0.0,0.0,0.0,1.0
1609059649961703015,1482,1609059649961703015,-0.000476194358029,-0.000256310414517,-7.01796606997e-05,0.0,0.0,0.0,1.0
1609059650013385010,1483,1609059650013385010,-0.000242108570248,-5.21742465232e-05,-2.02673000835e-05,0.0,0.0,0.0,1.0
1609059650060630036,1484,1609059650060630036,3.96046629731e-05,0.000248939537247,-9.36436359993e-05,0.0,0.0,0.0,1.0
1609059650112010909,1485,1609059650112010909,-9.94538853547e-05,0.000135446740089,-0.000110921202989,0.0,0.0,0.0,1.0
1609059650159295989,1486,1609059650159295989,0.000141469024491,0.000124287849548,-0.000190094512455,0.0,0.0,0.0,1.0
1609059650212063027,1487,1609059650212063027,-0.000127888952846,0.000137733310467,-0.000295590081262,0.0,0.0,0.0,1.0
1609059650262630892,1488,1609059650262630892,-0.000254306714385,3.57897431975e-05,-8.76062327677e-05,0.0,0.0,0.0,1.0
1609059650311097098,1489,1609059650311097098,-6.40154022093e-05,9.00848367635e-05,-0.000224792344195,0.0,0.0,0.0,1.0
1609059650362497044,1490,1609059650362497044,9.23595389999e-05,0.000173913809917,-5.33681313541e-05,0.0,0.0,0.0,1.0
1609059650409851981,1491,1609059650409851981,-0.000246005693981,5.70295384676e-05,-0.00028527136644,0.0,0.0,0.0,1.0
1609059650461435032,1492,1609059650461435032,0.000136481555362,0.000109917811525,-0.00020711269724,0.0,0.0,0.0,1.0
1609059650510832024,1493,1609059650510832024,0.000238117932156,0.000280722946659,-5.46039569294e-05,0.0,0.0,0.0,1.0
1609059650560702038,1494,1609059650560702038,0.000225997615129,0.000291783131622,-0.000244477179177,0.0,0.0,0.0,1.0
1609059650611391020,1495,1609059650611391020,-5.98135603909e-05,-0.000225810177042,-0.000510953927339,0.0,0.0,0.0,1.0
1609059650661632967,1496,1609059650661632967,-2.38537224568e-05,-4.69798701985e-06,-0.00020117359351,0.0,0.0,0.0,1.0
1609059650713942004,1497,1609059650713942004,-0.000189896179265,-2.86837282033e-05,-4.42277227215e-05,0.0,0.0,0.0,1.0
1609059650761362029,1498,1609059650761362029,-0.000306625419753,-0.000209939084591,-0.000195631770769,0.0,0.0,0.0,1.0
1609059650811493111,1499,1609059650811493111,-0.000191664921161,-1.88916429451e-05,-2.65584099566e-05,0.0,0.0,0.0,1.0
1609059650860654068,1500,1609059650860654068,-0.000197891353267,-3.68959190915e-05,-4.79067960981e-05,0.0,0.0,0.0,1.0
1609059650909897995,1501,1609059650909897995,-0.000296688615858,-0.000198753487052,-0.000189500611302,0.0,0.0,0.0,1.0
1609059650962358904,1502,1609059650962358904,-0.000347172748043,0.000109632851739,-8.26250458275e-05,0.0,0.0,0.0,1.0
1609059651011856986,1503,1609059651011856986,-0.000351320051472,-0.000193930701787,-0.000117617953016,0.0,0.0,0.0,1.0
1609059651062148047,1504,1609059651062148047,-0.000404711564652,-8.71512740481e-05,0.000115140091761,0.0,0.0,0.0,1.0
1609059651111564112,1505,1609059651111564112,-8.30056212102e-05,0.000146805025981,-0.000112167060042,0.0,0.0,0.0,1.0
1609059651159983111,1506,1609059651159983111,-0.000140321991093,-8.62236861749e-05,-0.000194100798897,0.0,0.0,0.0,1.0
1609059651212279034,1507,1609059651212279034,-0.000203978110839,5.71273010621e-05,0.000108948080157,0.0,0.0,0.0,1.0
1609059651263666106,1508,1609059651263666106,-7.79395952293e-05,0.000380438968001,-0.000189589760705,0.0,0.0,0.0,1.0
1609059651312325907,1509,1609059651312325907,8.31006735709e-05,0.000178956568021,-3.4458085981e-05,0.0,0.0,0.0,1.0
1609059651361724091,1510,1609059651361724091,-0.000203981093332,-1.60234751334e-05,-0.000229244594223,0.0,0.0,0.0,1.0
1609059651410068942,1511,1609059651410068942,-6.84956140766e-05,6.88607090318e-05,-0.000253319302516,0.0,0.0,0.0,1.0
1609059651462624026,1512,1609059651462624026,6.4100749011e-05,0.000216381144092,-0.000395995588452,0.0,0.0,0.0,1.0
1609059651509920073,1513,1609059651509920073,-0.00010196922052,-6.15513027178e-05,-0.000421615681269,0.0,0.0,0.0,1.0
1609059651570202065,1514,1609059651570202065,0.000361661143181,0.000147786070709,-0.00041144678357,0.0,0.0,0.0,1.0
1609059651616311026,1515,1609059651616311026,-0.000718455954267,0.000430747213162,0.000865019968888,0.0,0.0,0.0,1.0
1609059651669034911,1516,1609059651669034911,-0.000383530267207,-3.0681055005e-05,0.000401889550076,0.0,0.0,0.0,1.0
1609059651718394948,1517,1609059651718394948,-0.000708850235576,0.000361469164449,0.00140864842692,0.0,0.0,0.0,1.0
1609059651770199013,1518,1609059651770199013,-2.43050269688e-07,0.000601601824933,0.000958177169409,0.0,0.0,0.0,1.0
1609059651817955924,1519,1609059651817955924,-0.000134078392822,-7.32316284235e-05,4.09740878275e-05,0.0,0.0,0.0,1.0
1609059651867718888,1520,1609059651867718888,-0.000603494454346,-0.000647092573029,-0.000321022420938,0.0,0.0,0.0,1.0
1609059651917257023,1521,1609059651917257023,-0.000708841562236,-0.000736043729169,-0.000338834699871,0.0,0.0,0.0,1.0
1609059651967446042,1522,1609059651967446042,-0.000435956450918,-0.000334248489295,-1.98305506061e-05,0.0,0.0,0.0,1.0
1609059652017965031,1523,1609059652017965031,-0.000168124552946,-0.000418477977824,-0.000246971882156,0.0,0.0,0.0,1.0
1609059652069879008,1524,1609059652069879008,-0.00115178718862,5.56720708289e-06,0.000919066942114,0.0,0.0,0.0,1.0
1609059652116944981,1525,1609059652116944981,-0.000659621993442,-4.44152250054e-05,0.000482771700018,0.0,0.0,0.0,1.0
1609059652166833115,1526,1609059652166833115,-0.00022383038252,-0.000137817561605,0.00026535065436,0.0,0.0,0.0,1.0
1609059652216715050,1527,1609059652216715050,-0.000226607768134,-0.00036676643305,-9.59099025657e-05,0.0,0.0,0.0,1.0
1609059652269385052,1528,1609059652269385052,-0.000111840386136,-0.000260981827214,-6.23619518372e-05,0.0,0.0,0.0,1.0
1609059652319827033,1529,1609059652319827033,-0.000423236238127,-0.000133701113604,0.000284525880769,0.0,0.0,0.0,1.0
1609059652366114092,1530,1609059652366114092,0.000320396678834,-0.000454056249207,-0.000655994825795,0.0,0.0,0.0,1.0
1609059652417540980,1531,1609059652417540980,6.85606748867e-05,-0.000399202006218,-0.000272710861616,0.0,0.0,0.0,1.0
1609059652468044949,1532,1609059652468044949,7.60790789371e-05,-0.000486202021943,-0.000420060403918,0.0,0.0,0.0,1.0
1609059652517619086,1533,1609059652517619086,-0.000177333055639,-0.000409214850038,-0.000221401902028,0.0,0.0,0.0,1.0
1609059652569947911,1534,1609059652569947911,-0.000518868788603,-0.00134503558262,-0.00130990930763,0.0,0.0,0.0,1.0
1609059652617404891,1535,1609059652617404891,-0.000453901875815,-0.00160698636246,-0.00113814304195,0.0,0.0,0.0,1.0
1609059652667557908,1536,1609059652667557908,-0.000773687735574,-0.00117149392969,-0.000512452973236,0.0,0.0,0.0,1.0
1609059652717285109,1537,1609059652717285109,-0.0011121073126,-0.00128909700844,-0.000301959983062,0.0,0.0,0.0,1.0
1609059652771368933,1538,1609059652771368933,-0.00127773324293,-0.00109648364765,-0.000244097368906,0.0,0.0,0.0,1.0
1609059652818480921,1539,1609059652818480921,-0.000215777439792,-0.000424771550666,-0.000200989921428,0.0,0.0,0.0,1.0
1609059652866795970,1540,1609059652866795970,-7.85697858099e-05,-5.24883517485e-05,0.000230494997393,0.0,0.0,0.0,1.0
1609059652917365027,1541,1609059652917365027,-0.000365086335357,-0.000154973625119,0.000182315243293,0.0,0.0,0.0,1.0
1609059652968762112,1542,1609059652968762112,-0.000509375847876,4.32569761486e-05,0.000667518748195,0.0,0.0,0.0,1.0
1609059653017079068,1543,1609059653017079068,-0.000335298391128,0.000109488657358,0.000568385237091,0.0,0.0,0.0,1.0
1609059653071048928,1544,1609059653071048928,-0.000247838208061,2.40294584728e-05,0.000329526913781,0.0,0.0,0.0,1.0
1609059653117917014,1545,1609059653117917014,-0.000387838124215,6.00883997492e-05,0.000773213214675,0.0,0.0,0.0,1.0
1609059653167936039,1546,1609059653167936039,-0.000415599454392,0.000143727757173,0.000717278326032,0.0,0.0,0.0,1.0
1609059653216130925,1547,1609059653216130925,-0.000410333572475,0.00014594105081,0.00071461351558,0.0,0.0,0.0,1.0
1609059653269761038,1548,1609059653269761038,-0.000253813358739,-5.36646115243e-05,0.000434576518938,0.0,0.0,0.0,1.0
1609059653318077040,1549,1609059653318077040,-0.000314483705832,1.93045505164e-05,0.000178597591614,0.0,0.0,0.0,1.0
1609059653368673039,1550,1609059653368673039,-0.000267470475393,-7.20096536462e-05,0.000199686571502,0.0,0.0,0.0,1.0
1609059653418377114,1551,1609059653418377114,-0.000149120529368,-0.000179843559909,-0.000111091596381,0.0,0.0,0.0,1.0
1609059653469000054,1552,1609059653469000054,-0.00034899987266,-0.000498122616907,-0.000161208912687,0.0,0.0,0.0,1.0
1609059653518964005,1553,1609059653518964005,-0.000640461801467,-0.000423160959343,7.89514912931e-05,0.0,0.0,0.0,1.0
1609059653571012927,1554,1609059653571012927,-0.000416949298909,-8.6312036931e-05,0.000352589796993,0.0,0.0,0.0,1.0
1609059653616563988,1555,1609059653616563988,-0.000556413920929,-0.000190894407694,0.000349982077992,0.0,0.0,0.0,1.0
1609059653669161988,1556,1609059653669161988,-0.000480582235291,-4.00118965054e-05,0.000501095131323,0.0,0.0,0.0,1.0
1609059653717698050,1557,1609059653717698050,-0.000692785622313,-0.000302686421737,0.000332261992675,0.0,0.0,0.0,1.0
1609059653762232018,1558,1609059653762232018,-0.000629114964259,-3.44836625459e-05,0.000462730459677,0.0,0.0,0.0,1.0
1609059653814713908,1559,1609059653814713908,-0.000452567277421,-1.51746836856e-05,0.000285982949695,0.0,0.0,0.0,1.0
1609059653862398100,1560,1609059653862398100,-0.000324033274904,-0.000147668001713,0.000367430441809,0.0,0.0,0.0,1.0
1609059653910335017,1561,1609059653910335017,-0.000270309122801,1.29958872712e-05,0.000338368189368,0.0,0.0,0.0,1.0
1609059653961956931,1562,1609059653961956931,-0.000205931569912,-5.49509111458e-05,0.000154524288863,0.0,0.0,0.0,1.0
1609059654011049939,1563,1609059654011049939,-0.000183649513605,-0.000126549455054,1.43402786321e-05,0.0,0.0,0.0,1.0
1609059654065762949,1564,1609059654065762949,-0.000196116701265,-5.97378025979e-05,0.000357098512133,0.0,0.0,0.0,1.0
1609059654110885096,1565,1609059654110885096,-0.000312089368819,-0.000208057758041,3.55119378774e-05,0.0,0.0,0.0,1.0
1609059654161869956,1566,1609059654161869956,-0.000113234530762,-0.000179847197369,6.8455817555e-05,0.0,0.0,0.0,1.0
1609059654211246920,1567,1609059654211246920,-0.000122591937743,8.78586240667e-05,0.000283960879109,0.0,0.0,0.0,1.0
1609059654262045098,1568,1609059654262045098,-0.000205977032717,-4.36708904168e-05,0.000172537601419,0.0,0.0,0.0,1.0
1609059654312663985,1569,1609059654312663985,-0.00039478661596,-9.87566291748e-05,0.000306728622231,0.0,0.0,0.0,1.0
1609059654362198067,1570,1609059654362198067,-0.000685426685919,-0.000560974731556,0.000355834963145,0.0,0.0,0.0,1.0
1609059654409757090,1571,1609059654409757090,-0.000964839846219,-0.000523571632154,0.000300314316291,0.0,0.0,0.0,1.0
1609059654463171912,1572,1609059654463171912,-0.000476415592466,-0.000286646083527,0.000546972057077,0.0,0.0,0.0,1.0
1609059654510996056,1573,1609059654510996056,-0.000312967015741,-0.00023415349219,0.000438454632391,0.0,0.0,0.0,1.0
1609059654564134074,1574,1609059654564134074,-0.0004855446074,-0.000283514330057,0.000340954917043,0.0,0.0,0.0,1.0
1609059654612175894,1575,1609059654612175894,-2.31769326646e-05,-2.9855064259e-05,0.000201432075453,0.0,0.0,0.0,1.0
1609059654661920977,1576,1609059654661920977,-0.000303427699006,-0.000231619203362,0.000209547544358,0.0,0.0,0.0,1.0
1609059654712494088,1577,1609059654712494088,-8.94286410436e-05,-0.000207597752503,0.000218023388754,0.0,0.0,0.0,1.0
1609059654761625004,1578,1609059654761625004,9.79029726729e-05,-0.00047522133255,1.52215968043e-05,0.0,0.0,0.0,1.0
1609059654813248110,1579,1609059654813248110,-0.000184771436459,-0.000355914114014,0.000315657238019,0.0,0.0,0.0,1.0
1609059654863747073,1580,1609059654863747073,0.000118393922708,-0.000322713215734,1.22305504817e-05,0.0,0.0,0.0,1.0
1609059654911918116,1581,1609059654911918116,-0.00024219221844,-0.00031313638841,0.000229520723256,0.0,0.0,0.0,1.0
1609059654998362017,1582,1609059654998362017,-0.000199745859106,-0.000374844213791,8.13869930099e-05,0.0,0.0,0.0,1.0
1609059655071864081,1583,1609059655071864081,-0.00016502159507,-0.00043399747014,-5.36027379852e-05,0.0,0.0,0.0,1.0
1609059655117051077,1584,1609059655117051077,-0.000243229537521,-0.000310641824175,0.000234711612286,0.0,0.0,0.0,1.0
1609059655162495089,1585,1609059655162495089,-0.000195180329165,-0.000370557720206,8.28462194811e-05,0.0,0.0,0.0,1.0
1609059655210229111,1586,1609059655210229111,-0.000334636220082,-0.000790613410434,2.1403536504e-05,0.0,0.0,0.0,1.0
1609059655263327075,1587,1609059655263327075,-0.000581100398556,-0.000759784463913,0.000138416720279,0.0,0.0,0.0,1.0
1609059655312775088,1588,1609059655312775088,-0.000396365642736,-0.000954293026098,5.50773682342e-05,0.0,0.0,0.0,1.0
1609059655362157059,1589,1609059655362157059,-0.00017913556233,-0.000404831035286,0.000231149359365,0.0,0.0,0.0,1.0
1609059655412181092,1590,1609059655412181092,-0.000198740257719,-0.000377938431033,0.000297007362175,0.0,0.0,0.0,1.0
1609059655460204077,1591,1609059655460204077,-4.28127492e-05,-0.000378594409401,0.000334440050551,0.0,0.0,0.0,1.0
1609059655511562062,1592,1609059655511562062,-0.000254587748742,-0.000302729178284,0.000260658638197,0.0,0.0,0.0,1.0
1609059655562078906,1593,1609059655562078906,-5.65163033386e-05,-0.000497539376177,0.000382892882659,0.0,0.0,0.0,1.0
1609059655611159039,1594,1609059655611159039,0.000158361220418,-0.000550907358964,0.000267119375145,0.0,0.0,0.0,1.0
1609059655661734057,1595,1609059655661734057,0.000205042972162,-0.000616443051356,0.000329641918668,0.0,0.0,0.0,1.0
1609059655708805991,1596,1609059655708805991,0.000154212326201,-0.000561245569834,0.000255535114146,0.0,0.0,0.0,1.0
1609059655763646079,1597,1609059655763646079,-7.94803305872e-05,-0.000538466964628,0.000566447646214,0.0,0.0,0.0,1.0
1609059655811047984,1598,1609059655811047984,9.57245380206e-06,-0.00034428925094,0.000327495074156,0.0,0.0,0.0,1.0
1609059655862096978,1599,1609059655862096978,-4.88611028366e-05,-0.000266821221139,0.000297781967483,0.0,0.0,0.0,1.0
1609059655911828948,1600,1609059655911828948,-0.000296637368248,-0.000235109771456,0.000417740448107,0.0,0.0,0.0,1.0
1609059655960056973,1601,1609059655960056973,-0.000155745090055,-0.000134721876009,0.000411993708212,0.0,0.0,0.0,1.0
1609059656012721968,1602,1609059656012721968,-0.000152623536511,-0.000133641034694,0.000410046018445,0.0,0.0,0.0,1.0
1609059656061912966,1603,1609059656061912966,-0.000136976330012,-0.000150426299257,0.000364931147352,0.0,0.0,0.0,1.0
1609059656113312912,1604,1609059656113312912,-0.000641858197344,-0.000920891376474,0.000175046137496,0.0,0.0,0.0,1.0
1609059656162435008,1605,1609059656162435008,0.000171627747324,-0.000882936403457,0.00038806705594,0.0,0.0,0.0,1.0
1609059656210004998,1606,1609059656210004998,0.000374731147382,-0.00146839154755,0.000325878433401,0.0,0.0,0.0,1.0
1609059656263616038,1607,1609059656263616038,0.000836398515247,-0.00192850767361,0.00038110595866,0.0,0.0,0.0,1.0
1609059656309673977,1608,1609059656309673977,0.00099192289932,-0.00259871965832,0.000461622747391,0.0,0.0,0.0,1.0
1609059656362501097,1609,1609059656362501097,0.0012015248933,-0.00325785743581,0.000274511733508,0.0,0.0,0.0,1.0
1609059656410673094,1610,1609059656410673094,0.00163699281652,-0.00380951583143,0.000436514522526,0.0,0.0,0.0,1.0
1609059656461059046,1611,1609059656461059046,0.00154691792755,-0.00397654790417,0.000498164339849,0.0,0.0,0.0,1.0
1609059656511692954,1612,1609059656511692954,0.00176472690098,-0.00395890000419,0.000713724051565,0.0,0.0,0.0,1.0
1609059656561432076,1613,1609059656561432076,0.0017035968458,-0.00410298272326,0.000777894327847,0.0,0.0,0.0,1.0
1609059656613110972,1614,1609059656613110972,0.00183409734855,-0.00434109624424,0.000910596097675,0.0,0.0,0.0,1.0
1609059656661500884,1615,1609059656661500884,0.00218380636462,-0.0042222757115,0.00157565674685,0.0,0.0,0.0,1.0
1609059656711073113,1616,1609059656711073113,0.00200808863747,-0.00427482177503,0.00214195025276,0.0,0.0,0.0,1.0
1609059656763162089,1617,1609059656763162089,0.00235725585859,-0.00381554852032,0.00357150343675,0.0,0.0,0.0,1.0
1609059656810388995,1618,1609059656810388995,0.00345484421969,-0.00332341518929,0.00683497000088,0.0,0.0,0.0,1.0
1609059656861833048,1619,1609059656861833048,0.00478440270974,-0.00300003382153,0.011775563011,0.0,0.0,0.0,1.0
1609059656910278035,1620,1609059656910278035,0.00620326024687,-0.00134679430577,0.0313834638527,0.0,0.0,0.0,1.0
1609059656960672093,1621,1609059656960672093,0.00763081337498,6.74284226747e-05,0.0466183601894,0.0,0.0,0.0,1.0
1609059657012189103,1622,1609059657012189103,0.00901514913933,0.00172546870508,0.0647511455691,0.0,0.0,0.0,1.0
1609059657061730099,1623,1609059657061730099,0.0108652937369,0.00319667226601,0.0860577091148,0.0,0.0,0.0,1.0
1609059657119433117,1624,1609059657119433117,0.0150342851656,0.00640980648592,0.139771059046,0.0,0.0,0.0,1.0
1609059657167930079,1625,1609059657167930079,0.016954625748,0.00841165214622,0.171532421895,0.0,0.0,0.0,1.0
1609059657217385006,1626,1609059657217385006,0.0200124928521,0.0101875926895,0.206775337532,0.0,0.0,0.0,1.0
1609059657270077897,1627,1609059657270077897,0.022172182666,0.0115439982267,0.24538428592,0.0,0.0,0.0,1.0
1609059657318799925,1628,1609059657318799925,0.0242881118775,0.0137122538501,0.285431505901,0.0,0.0,0.0,1.0
1609059657371524048,1629,1609059657371524048,0.0295990977952,0.0166751419892,0.37779810692,0.0,0.0,0.0,1.0
1609059657418588114,1630,1609059657418588114,0.0317765425762,0.0166010036569,0.423412768875,0.0,0.0,0.0,1.0
1609059657468891097,1631,1609059657468891097,0.0343500239243,0.0181477377744,0.473116422843,0.0,0.0,0.0,1.0
1609059657516695929,1632,1609059657516695929,0.0354457074021,0.0188701697623,0.527010083155,0.0,0.0,0.0,1.0
1609059657571406079,1633,1609059657571406079,0.0372146843961,0.0185498857919,0.580331297908,0.0,0.0,0.0,1.0
1609059657619152022,1634,1609059657619152022,0.0398341010391,0.0183186841721,0.693996802752,0.0,0.0,0.0,1.0
1609059657668961001,1635,1609059657668961001,0.0416007133775,0.0175929900359,0.754889211805,0.0,0.0,0.0,1.0
1609059657711796952,1636,1609059657711796952,0.0436719827914,0.0162198584881,0.813811449791,0.0,0.0,0.0,1.0
1609059657765041066,1637,1609059657765041066,0.0447516699855,0.0154476578368,0.879759343066,0.0,0.0,0.0,1.0
1609059657812216950,1638,1609059657812216950,0.0461534892308,0.0143073169297,0.939333598836,0.0,0.0,0.0,1.0
1609059657870021058,1639,1609059657870021058,0.0478921138703,0.0126728437593,1.0069010595,0.0,0.0,0.0,1.0
1609059657918132020,1640,1609059657918132020,0.0501267547632,0.00978665723192,1.13368009392,0.0,0.0,0.0,1.0
1609059657968609047,1641,1609059657968609047,0.0506723242638,0.00698922346924,1.20023631332,0.0,0.0,0.0,1.0
1609059658016653014,1642,1609059658016653014,0.0522300204603,0.00470281930501,1.26543166748,0.0,0.0,0.0,1.0
1609059658069469882,1643,1609059658069469882,0.0536124915012,0.000983578166831,1.32977068137,0.0,0.0,0.0,1.0
1609059658118728114,1644,1609059658118728114,0.0546755335675,-0.00145065242863,1.39291427041,0.0,0.0,0.0,1.0
1609059658161442948,1645,1609059658161442948,0.0560658562729,-0.00479791774753,1.45687018871,0.0,0.0,0.0,1.0
1609059658212151003,1646,1609059658212151003,0.0589993956601,-0.0114786339631,1.55912112361,0.0,0.0,0.0,1.0
1609059658262937975,1647,1609059658262937975,0.0607107147493,-0.0154494211025,1.60434004464,0.0,0.0,0.0,1.0
1609059658311723900,1648,1609059658311723900,0.0620839489304,-0.0183254577352,1.64288927671,0.0,0.0,0.0,1.0
1609059658360968066,1649,1609059658360968066,0.0639094842469,-0.0215687449661,1.67810963959,0.0,0.0,0.0,1.0
1609059658412733031,1650,1609059658412733031,0.0654266030374,-0.0251091543602,1.7072370941,0.0,0.0,0.0,1.0
1609059658462712002,1651,1609059658462712002,0.0688253134532,-0.0320499335221,1.75160553247,0.0,0.0,0.0,1.0
1609059658510883999,1652,1609059658510883999,0.0709582808849,-0.035264628513,1.76705861544,0.0,0.0,0.0,1.0
1609059658563214970,1653,1609059658563214970,0.0718022012083,-0.0388536448802,1.78015407409,0.0,0.0,0.0,1.0
1609059658610691023,1654,1609059658610691023,0.0729353243814,-0.0421772510858,1.79044426319,0.0,0.0,0.0,1.0
1609059658666602088,1655,1609059658666602088,0.0741952379863,-0.0455447594147,1.79831486522,0.0,0.0,0.0,1.0
1609059658719102097,1656,1609059658719102097,0.0773280291396,-0.0514985358674,1.80834800736,0.0,0.0,0.0,1.0
1609059658770991993,1657,1609059658770991993,0.0793226319913,-0.0542662506197,1.81244972717,0.0,0.0,0.0,1.0
1609059658816936923,1658,1609059658816936923,0.0808403657034,-0.0572991466505,1.81622015886,0.0,0.0,0.0,1.0
1609059658866413069,1659,1609059658866413069,0.0819256312269,-0.0596451761381,1.82056631151,0.0,0.0,0.0,1.0
1609059658918862057,1660,1609059658918862057,0.0823711125288,-0.062611175157,1.82610350542,0.0,0.0,0.0,1.0
1609059658969150019,1661,1609059658969150019,0.0839438527383,-0.0688426954264,1.84060631548,0.0,0.0,0.0,1.0
1609059659017477942,1662,1609059659017477942,0.0844859525238,-0.0711719948157,1.84958122643,0.0,0.0,0.0,1.0
1609059659060991955,1663,1609059659060991955,0.0850788487666,-0.073224443547,1.86117170263,0.0,0.0,0.0,1.0
1609059659117699099,1664,1609059659117699099,0.0851060652562,-0.075650411317,1.87430386315,0.0,0.0,0.0,1.0
1609059659170153094,1665,1609059659170153094,0.0861597116361,-0.0773385034087,1.88814054545,0.0,0.0,0.0,1.0
1609059659222061110,1666,1609059659222061110,0.0839015143202,-0.0818101355706,1.9235337801,0.0,0.0,0.0,1.0
1609059659269287062,1667,1609059659269287062,0.0824073022839,-0.0836761453848,1.94386263779,0.0,0.0,0.0,1.0
1609059659317410899,1668,1609059659317410899,0.0802309829256,-0.0858129361078,1.96585131413,0.0,0.0,0.0,1.0
1609059659368162108,1669,1609059659368162108,0.0781465602577,-0.0871071081742,1.99096973809,0.0,0.0,0.0,1.0
1609059659419976903,1670,1609059659419976903,0.0762642486782,-0.0884342506343,2.01628583267,0.0,0.0,0.0,1.0
1609059659470663977,1671,1609059659470663977,0.0695807680333,-0.0915037586937,2.07188354563,0.0,0.0,0.0,1.0
1609059659518475962,1672,1609059659518475962,0.0647287712417,-0.0935160271423,2.10077938139,0.0,0.0,0.0,1.0
1609059659567202998,1673,1609059659567202998,0.0605801675076,-0.0943554152115,2.1314022903,0.0,0.0,0.0,1.0
1609059659616642905,1674,1609059659616642905,0.0567153566224,-0.0956365329301,2.16139235234,0.0,0.0,0.0,1.0
1609059659670530987,1675,1609059659670530987,0.0521171836706,-0.098004105226,2.19093947498,0.0,0.0,0.0,1.0
1609059659719023896,1676,1609059659719023896,0.0464107148355,-0.100594261411,2.22088273255,0.0,0.0,0.0,1.0
1609059659770456028,1677,1609059659770456028,0.0349542293095,-0.105923115796,2.27649597494,0.0,0.0,0.0,1.0
1609059659816714955,1678,1609059659816714955,0.0297742416083,-0.108757138819,2.29647666896,0.0,0.0,0.0,1.0
1609059659868567896,1679,1609059659868567896,0.0228511524333,-0.112289666111,2.31358294462,0.0,0.0,0.0,1.0
1609059659918898058,1680,1609059659918898058,0.0168767381567,-0.11501100256,2.32692141869,0.0,0.0,0.0,1.0
1609059659969722939,1681,1609059659969722939,0.0110890320121,-0.117468067553,2.33701278218,0.0,0.0,0.0,1.0
1609059660022901965,1682,1609059660022901965,-0.00197163551613,-0.123978314652,2.35107032107,0.0,0.0,0.0,1.0
1609059660069988919,1683,1609059660069988919,-0.0084908309123,-0.127288330828,2.35587052864,0.0,0.0,0.0,1.0
1609059660114958954,1684,1609059660114958954,-0.0144300826222,-0.130803484138,2.35900824611,0.0,0.0,0.0,1.0
1609059660167317105,1685,1609059660167317105,-0.0213217954171,-0.135606875515,2.36008301264,0.0,0.0,0.0,1.0
1609059660217067910,1686,1609059660217067910,-0.0273388221809,-0.139978791021,2.3597622951,0.0,0.0,0.0,1.0
1609059660271840048,1687,1609059660271840048,-0.0328053722683,-0.144332510953,2.35822771786,0.0,0.0,0.0,1.0
1609059660318335963,1688,1609059660318335963,-0.0437056285579,-0.154638284341,2.35343864484,0.0,0.0,0.0,1.0
1609059660367056084,1689,1609059660367056084,-0.0498055170394,-0.160451847818,2.35035112238,0.0,0.0,0.0,1.0
1609059660417452050,1690,1609059660417452050,-0.0548817323717,-0.165640001766,2.34701798203,0.0,0.0,0.0,1.0
1609059660470231963,1691,1609059660470231963,-0.059950999455,-0.171665462935,2.34264386956,0.0,0.0,0.0,1.0
1609059660517838908,1692,1609059660517838908,-0.0649480164277,-0.178165731371,2.33880326095,0.0,0.0,0.0,1.0
1609059660568952990,1693,1609059660568952990,-0.0736746248831,-0.190716942985,2.33147678571,0.0,0.0,0.0,1.0
1609059660660825921,1694,1609059660660825921,-0.0818876064295,-0.204565101182,2.32408670785,0.0,0.0,0.0,1.0
1609059660730107022,1695,1609059660730107022,-0.0887045144321,-0.218261843543,2.31832513513,0.0,0.0,0.0,1.0
1609059660777754975,1696,1609059660777754975,-0.0922137352774,-0.225690903123,2.315772779,0.0,0.0,0.0,1.0
1609059660818107081,1697,1609059660818107081,-0.0953741200604,-0.232859759065,2.3137214735,0.0,0.0,0.0,1.0
1609059660869698954,1698,1609059660869698954,-0.0978372987573,-0.239737896156,2.31150149861,0.0,0.0,0.0,1.0
1609059660961729956,1699,1609059660961729956,-0.103288261589,-0.254424134674,2.30758509011,0.0,0.0,0.0,1.0
1609059661023889971,1700,1609059661023889971,-0.108694651339,-0.270675925655,2.30325756841,0.0,0.0,0.0,1.0
1609059661074479056,1701,1609059661074479056,-0.112024146241,-0.279140474512,2.30158745841,0.0,0.0,0.0,1.0
1609059661118380023,1702,1609059661118380023,-0.114528081534,-0.287140455781,2.29939197072,0.0,0.0,0.0,1.0
1609059661166803074,1703,1609059661166803074,-0.116273243242,-0.294670934423,2.29701883138,0.0,0.0,0.0,1.0
1609059661218196106,1704,1609059661218196106,-0.118759454757,-0.302863751231,2.29495333465,0.0,0.0,0.0,1.0
1609059661270476056,1705,1609059661270476056,-0.121690331792,-0.311022195935,2.29281660043,0.0,0.0,0.0,1.0
1609059661320253087,1706,1609059661320253087,-0.126077001714,-0.327598808858,2.28855363372,0.0,0.0,0.0,1.0
1609059661369775010,1707,1609059661369775010,-0.128063619202,-0.335670912423,2.28629051312,0.0,0.0,0.0,1.0
1609059661416919899,1708,1609059661416919899,-0.130280596765,-0.343999674508,2.28412825833,0.0,0.0,0.0,1.0
1609059661468933058,1709,1609059661468933058,-0.132041137081,-0.352365090412,2.2822728615,0.0,0.0,0.0,1.0
1609059661519315911,1710,1609059661519315911,-0.134172710901,-0.360953462173,2.28052359963,0.0,0.0,0.0,1.0
1609059661571784926,1711,1609059661571784926,-0.138264870008,-0.378853444422,2.27648588918,0.0,0.0,0.0,1.0
1609059661616754962,1712,1609059661616754962,-0.139668903284,-0.3877620194,2.27416812906,0.0,0.0,0.0,1.0
1609059661669336033,1713,1609059661669336033,-0.141660643622,-0.397039285858,2.27149425985,0.0,0.0,0.0,1.0
1609059661717476082,1714,1609059661717476082,-0.144020649212,-0.40622087026,2.26974859514,0.0,0.0,0.0,1.0
1609059661771470023,1715,1609059661771470023,-0.145111970172,-0.414681485287,2.26782721727,0.0,0.0,0.0,1.0
1609059661819436980,1716,1609059661819436980,-0.146619579106,-0.423737060773,2.26688753083,0.0,0.0,0.0,1.0
1609059661868981076,1717,1609059661868981076,-0.148892644572,-0.434598726072,2.26521926968,0.0,0.0,0.0,1.0
1609059661917119933,1718,1609059661917119933,-0.151549669982,-0.452237352018,2.26397191229,0.0,0.0,0.0,1.0
1609059661968826962,1719,1609059661968826962,-0.152652118406,-0.462147931697,2.26243672379,0.0,0.0,0.0,1.0
1609059662022747946,1720,1609059662022747946,-0.154483207084,-0.471886209505,2.26048023604,0.0,0.0,0.0,1.0
1609059662070672942,1721,1609059662070672942,-0.155379658284,-0.481361578398,2.25772733378,0.0,0.0,0.0,1.0
1609059662164643002,1722,1609059662164643002,-0.158851684911,-0.50852496348,2.25234198615,0.0,0.0,0.0,1.0
1609059662209807110,1723,1609059662209807110,-0.159538465666,-0.516653113094,2.25520020266,0.0,0.0,0.0,1.0
1609059662285608960,1724,1609059662285608960,-0.16089951275,-0.533858057092,2.27031378641,0.0,0.0,0.0,1.0
1609059662327209902,1725,1609059662327209902,-0.162121832033,-0.542247476302,2.28406683274,0.0,0.0,0.0,1.0
1609059662374592019,1726,1609059662374592019,-0.163028501454,-0.550414953851,2.29754992665,0.0,0.0,0.0,1.0
1609059662417490912,1727,1609059662417490912,-0.164499433547,-0.557828356653,2.31267926353,0.0,0.0,0.0,1.0
1609059662511553956,1728,1609059662511553956,-0.16653629961,-0.572139894034,2.34861156921,0.0,0.0,0.0,1.0
1609059662579008055,1729,1609059662579008055,-0.16933105232,-0.587023548942,2.39008154584,0.0,0.0,0.0,1.0
1609059662624293995,1730,1609059662624293995,-0.170716429776,-0.593099059581,2.41131899363,0.0,0.0,0.0,1.0
1609059662709766102,1731,1609059662709766102,-0.175011159363,-0.605474710669,2.4558135946,0.0,0.0,0.0,1.0
1609059662761326027,1732,1609059662761326027,-0.177290538147,-0.610564678945,2.4794077702,0.0,0.0,0.0,1.0
1609059662837383938,1733,1609059662837383938,-0.183819538854,-0.620400663989,2.52855465768,0.0,0.0,0.0,1.0
1609059662876091910,1734,1609059662876091910,-0.186403116215,-0.624636388427,2.55197391984,0.0,0.0,0.0,1.0
1609059662918286038,1735,1609059662918286038,-0.189711321406,-0.62832740023,2.57542505445,0.0,0.0,0.0,1.0
1609059662969582987,1736,1609059662969582987,-0.192785868242,-0.632472162188,2.59950937358,0.0,0.0,0.0,1.0
1609059663017830086,1737,1609059663017830086,-0.19634883568,-0.635867312928,2.62166090588,0.0,0.0,0.0,1.0
1609059663070465041,1738,1609059663070465041,-0.199880039705,-0.639751894328,2.64440962374,0.0,0.0,0.0,1.0
1609059663120063973,1739,1609059663120063973,-0.2090557359,-0.645756001174,2.68915647839,0.0,0.0,0.0,1.0
