%time,field.header.seq,field.header.stamp,field.pose.position.x,field.pose.position.y,field.pose.position.z,field.pose.orientation.x,field.pose.orientation.y,field.pose.orientation.z,field.pose.orientation.w
1609056014486882067,1548,1609056014486882067,-0.000247578994284,0.000173899066112,0.00134117346596,0.0,0.0,0.0,1.0
1609056014537453032,1549,1609056014537453032,-0.000580042947004,0.000261081915269,0.0012007562611,0.0,0.0,0.0,1.0
1609056014586028910,1550,1609056014586028910,-0.000403807366812,0.000178057547856,0.00183853613163,0.0,0.0,0.0,1.0
1609056014637585021,1551,1609056014637585021,-0.000238857440689,9.19901144556e-05,0.00153045795092,0.0,0.0,0.0,1.0
1609056014740033961,1552,1609056014740033961,-0.00019442682153,4.76292151248e-05,4.90968591489e-05,0.0,0.0,0.0,1.0
1609056014786198950,1553,1609056014786198950,-0.000532633441495,-0.000190414145891,-0.000144541388027,0.0,0.0,0.0,1.0
1609056014837397910,1554,1609056014837397910,-0.000117518128448,-0.000143568497677,6.3408014821e-06,0.0,0.0,0.0,1.0
1609056014884882069,1555,1609056014884882069,-0.000277246117463,-0.000120547390416,-0.000267976279209,0.0,0.0,0.0,1.0
1609056014939689017,1556,1609056014939689017,2.73646046516e-05,-2.04017041483e-07,-8.23785879929e-05,0.0,0.0,0.0,1.0
1609056014985713101,1557,1609056014985713101,-0.00048157024456,4.00490421271e-05,-0.00012536887944,0.0,0.0,0.0,1.0
1609056015039748049,1558,1609056015039748049,-0.000446680927325,-0.000175472973119,-0.000263176239766,0.0,0.0,0.0,1.0
1609056015086336947,1559,1609056015086336947,-0.000552045911871,-0.000178710491475,1.7842533004e-05,0.0,0.0,0.0,1.0
1609056015138361073,1560,1609056015138361073,-0.000440305331626,-0.000170157413947,-0.000234143208881,0.0,0.0,0.0,1.0
1609056015189272023,1561,1609056015189272023,-0.000434023062798,-0.000163200294722,-0.000190073991838,0.0,0.0,0.0,1.0
1609056015239884949,1562,1609056015239884949,-0.000451905999459,-0.000116083292951,0.000286268696314,0.0,0.0,0.0,1.0
1609056015286747075,1563,1609056015286747075,-0.000321688577777,-0.000108149277445,-2.56778281535e-05,0.0,0.0,0.0,1.0
1609056015336018897,1564,1609056015336018897,-0.000482339823613,-3.78496062865e-05,0.000127877065783,0.0,0.0,0.0,1.0
1609056015386971093,1565,1609056015386971093,-0.000222238404113,6.65308848582e-05,0.000300939192845,0.0,0.0,0.0,1.0
1609056015439808941,1566,1609056015439808941,-0.000356279913344,-4.67580706598e-05,0.000628232948132,0.0,0.0,0.0,1.0
1609056015486121989,1567,1609056015486121989,-0.000332921995192,-7.84137963166e-05,0.000274790453687,0.0,0.0,0.0,1.0
1609056015538884020,1568,1609056015538884020,-0.000224902653482,7.85185496781e-05,0.000416587441143,0.0,0.0,0.0,1.0
1609056015585574008,1569,1609056015585574008,-0.000466644074844,-7.72437423748e-05,0.000678944759308,0.0,0.0,0.0,1.0
1609056015648938036,1570,1609056015648938036,-0.000450541807382,-0.000100893160209,0.000418858327989,0.0,0.0,0.0,1.0
1609056015691803074,1571,1609056015691803074,-0.000362856808461,-1.21845334249e-05,0.000958535837054,0.0,0.0,0.0,1.0
1609056015737182951,1572,1609056015737182951,-0.000328179163201,-6.63571774595e-06,0.000906355149111,0.0,0.0,0.0,1.0
1609056015786582089,1573,1609056015786582089,-0.000200155929832,7.99238630691e-05,0.00130798888154,0.0,0.0,0.0,1.0
1609056015837288952,1574,1609056015837288952,-0.000203191434355,7.51871945326e-05,0.00127432220622,0.0,0.0,0.0,1.0
1609056015887940980,1575,1609056015887940980,-0.000208588116546,5.85064906531e-05,0.00114017993462,0.0,0.0,0.0,1.0
1609056015939095116,1576,1609056015939095116,-0.000136131635237,0.00038111648702,0.000973518244948,0.0,0.0,0.0,1.0
1609056015986292935,1577,1609056015986292935,-0.000274568484915,0.00032158670669,0.00084564912191,0.0,0.0,0.0,1.0
1609056016039042092,1578,1609056016039042092,-0.000127355620595,0.000315372829085,0.00130802782583,0.0,0.0,0.0,1.0
1609056016147761918,1579,1609056016147761918,7.46674052046e-05,0.00025313997147,0.00110521249636,0.0,0.0,0.0,1.0
1609056016194602109,1580,1609056016194602109,-0.000182049795949,0.000498421754223,0.00121210414183,0.0,0.0,0.0,1.0
1609056016282272912,1581,1609056016282272912,-0.0002032078364,0.000187968550875,0.000385477788186,0.0,0.0,0.0,1.0
1609056016330427981,1582,1609056016330427981,-3.48821712066e-05,7.30363728252e-05,-0.00114342196913,0.0,0.0,0.0,1.0
1609056016394249058,1583,1609056016394249058,-1.29422255419e-05,0.000398497545625,0.000767197390978,0.0,0.0,0.0,1.0
1609056016480572081,1584,1609056016480572081,-3.56949622038e-05,0.00109032971054,0.00515456723232,0.0,0.0,0.0,1.0
1609056016580355025,1585,1609056016580355025,-9.31816873617e-05,0.0012084507198,0.00543473333524,0.0,0.0,0.0,1.0
1609056016642782069,1586,1609056016642782069,0.000450335867434,0.00168015398135,0.00617454604917,0.0,0.0,0.0,1.0
1609056016686981059,1587,1609056016686981059,-1.41105739537e-05,0.00131501639279,0.00616095124917,0.0,0.0,0.0,1.0
1609056016730403996,1588,1609056016730403996,-8.68613780725e-05,0.000392330786788,-2.22217675114e-05,0.0,0.0,0.0,1.0
1609056016782174922,1589,1609056016782174922,-0.00100759327601,-0.000430396957142,-0.000904486749683,0.0,0.0,0.0,1.0
1609056016849476910,1590,1609056016849476910,-0.00281570272272,-0.00229424347427,-0.000924643424444,0.0,0.0,0.0,1.0
1609056016892772055,1591,1609056016892772055,-0.00319827130823,-0.00294690031866,4.14977830587e-05,0.0,0.0,0.0,1.0
1609056016937801934,1592,1609056016937801934,-0.00352462224452,-0.00325712860931,0.000115554421237,0.0,0.0,0.0,1.0
1609056017028194047,1593,1609056017028194047,-0.00387168316046,-0.00371347981248,0.000839621739033,0.0,0.0,0.0,1.0
1609056017079713917,1594,1609056017079713917,-0.00393850800657,-0.00318855508647,0.00290272221555,0.0,0.0,0.0,1.0
1609056017141049004,1595,1609056017141049004,-0.00317115212483,-0.00271509787405,0.00109469169128,0.0,0.0,0.0,1.0
1609056017186519957,1596,1609056017186519957,-0.00300739221077,-0.00256586054084,5.15578110942e-05,0.0,0.0,0.0,1.0
1609056017230990029,1597,1609056017230990029,-0.00232511365087,-0.00186903011226,0.00145489461436,0.0,0.0,0.0,1.0
1609056017281185961,1598,1609056017281185961,-0.00203476107314,-0.00175829077936,-0.00125847351052,0.0,0.0,0.0,1.0
1609056017329867936,1599,1609056017329867936,-0.00121249517054,-0.000952708786606,0.00071065558476,0.0,0.0,0.0,1.0
1609056017381812907,1600,1609056017381812907,-0.00125447017762,-0.000285845616865,0.00302568910008,0.0,0.0,0.0,1.0
1609056017432292080,1601,1609056017432292080,0.000311797387948,0.0014286666008,0.00431926362053,0.0,0.0,0.0,1.0
1609056017480934954,1602,1609056017480934954,0.00122459623828,0.00247263907837,0.00531265109182,0.0,0.0,0.0,1.0
1609056017531829930,1603,1609056017531829930,0.00169813972309,0.00252284973768,0.00246578496448,0.0,0.0,0.0,1.0
1609056017581304884,1604,1609056017581304884,0.00201078365743,0.00301930710739,0.00410806454388,0.0,0.0,0.0,1.0
1609056017635485030,1605,1609056017635485030,0.00170494162483,0.00260620395142,0.00319567872032,0.0,0.0,0.0,1.0
1609056017682381011,1606,1609056017682381011,0.000802423377046,0.00150888427262,0.00169239072503,0.0,0.0,0.0,1.0
1609056017729872084,1607,1609056017729872084,0.000479406102112,0.00113890678789,0.00217064189928,0.0,0.0,0.0,1.0
1609056017780039883,1608,1609056017780039883,-0.000279313815312,0.000218181550743,0.000881230351802,0.0,0.0,0.0,1.0
1609056017830376959,1609,1609056017830376959,-0.000355825648427,0.0003870616992,0.00262557314616,0.0,0.0,0.0,1.0
1609056017883293009,1610,1609056017883293009,-0.00072078937259,0.000304254320945,0.0029553149511,0.0,0.0,0.0,1.0
1609056017930533982,1611,1609056017930533982,-0.000309009423475,0.000580240805917,0.00232186574507,0.0,0.0,0.0,1.0
1609056017982534028,1612,1609056017982534028,0.000534117117077,0.00146690442313,0.00210469412172,0.0,0.0,0.0,1.0
1609056018029773093,1613,1609056018029773093,0.000600481289133,0.00130849577547,0.000484514494866,0.0,0.0,0.0,1.0
1609056018080715991,1614,1609056018080715991,0.00119959223695,0.00189129199583,0.00205945168267,0.0,0.0,0.0,1.0
1609056018133953906,1615,1609056018133953906,0.00113514091452,0.00170932144183,0.000612421725582,0.0,0.0,0.0,1.0
1609056018181363917,1616,1609056018181363917,0.000919115505955,0.00139012907943,0.000280786061496,0.0,0.0,0.0,1.0
1609056018231473065,1617,1609056018231473065,0.000554784195987,0.0010865493506,-0.000425395824649,0.0,0.0,0.0,1.0
1609056018304061986,1618,1609056018304061986,0.000241032090095,-0.000388717472276,-0.00610516255042,0.0,0.0,0.0,1.0
1609056018344956017,1619,1609056018344956017,-0.000152274306068,0.000485153169507,0.00100510844734,0.0,0.0,0.0,1.0
1609056018431629992,1620,1609056018431629992,0.000101960037519,0.000177721746539,-0.00155621502497,0.0,0.0,0.0,1.0
1609056018476565934,1621,1609056018476565934,0.000428624628949,0.000545967426412,-0.00110928400501,0.0,0.0,0.0,1.0
1609056018527247048,1622,1609056018527247048,0.000865800993029,0.00164892955401,0.00181378298471,0.0,0.0,0.0,1.0
1609056018640986062,1623,1609056018640986062,-3.92303207839e-05,-0.000401836585965,-0.00634948178298,0.0,0.0,0.0,1.0
1609056018678708888,1624,1609056018678708888,-0.000996992056852,-0.00126771299754,-0.00560843438281,0.0,0.0,0.0,1.0
1609056018732915974,1625,1609056018732915974,-0.00233311657734,-0.00221665253252,-0.00259857617957,0.0,0.0,0.0,1.0
1609056018800910092,1626,1609056018800910092,-0.00379927265961,-0.00403788453674,-0.000387735918818,0.0,0.0,0.0,1.0
1609056018844050980,1627,1609056018844050980,-0.00480856007744,-0.00429705978526,0.00215638553381,0.0,0.0,0.0,1.0
1609056018887094117,1628,1609056018887094117,-0.00532053250678,-0.00428862560081,0.00469230381963,0.0,0.0,0.0,1.0
1609056018929130888,1629,1609056018929130888,-0.00563261139116,-0.00464770885431,0.00618928422848,0.0,0.0,0.0,1.0
1609056018980487919,1630,1609056018980487919,-0.00580107000798,-0.00470158145139,0.00810579417259,0.0,0.0,0.0,1.0
1609056019029959059,1631,1609056019029959059,-0.00562690749312,-0.00471166242459,0.00559690179902,0.0,0.0,0.0,1.0
1609056019081029034,1632,1609056019081029034,-0.00537445963648,-0.00446766794916,0.00324027403234,0.0,0.0,0.0,1.0
1609056019133932925,1633,1609056019133932925,-0.00405815418497,-0.00363376520674,0.00210566532615,0.0,0.0,0.0,1.0
1609056019181371069,1634,1609056019181371069,-0.00407564903047,-0.00362294818903,0.00225448593031,0.0,0.0,0.0,1.0
1609056019231098986,1635,1609056019231098986,-0.00295191977455,-0.00173968143855,0.00351251864649,0.0,0.0,0.0,1.0
1609056019280619002,1636,1609056019280619002,-0.00219306272585,-0.00117322436898,0.00256606530282,0.0,0.0,0.0,1.0
1609056019333540059,1637,1609056019333540059,-0.00168819405265,-0.000370394555361,0.00163863371027,0.0,0.0,0.0,1.0
1609056019381263114,1638,1609056019381263114,-0.000787204083913,0.000278335011863,0.00101415901742,0.0,0.0,0.0,1.0
1609056019430468894,1639,1609056019430468894,-0.00102477062759,0.000762255178714,0.00225948585808,0.0,0.0,0.0,1.0
1609056019482219077,1640,1609056019482219077,-0.000753125631043,0.00142722055763,0.00268239146534,0.0,0.0,0.0,1.0
1609056019530375100,1641,1609056019530375100,-0.00116447090534,0.00214284622997,0.00366859025812,0.0,0.0,0.0,1.0
1609056019582009888,1642,1609056019582009888,-0.00107551549248,0.00302045845836,0.00559128646115,0.0,0.0,0.0,1.0
1609056019634545899,1643,1609056019634545899,0.000259261917694,0.00628049766546,0.0100521730306,0.0,0.0,0.0,1.0
1609056019680677987,1644,1609056019680677987,0.00166390618249,0.0083188046053,0.0176046503159,0.0,0.0,0.0,1.0
1609056019731616116,1645,1609056019731616116,0.00316672804873,0.0108447715052,0.0245033887957,0.0,0.0,0.0,1.0
1609056019780047036,1646,1609056019780047036,0.00566013287252,0.0139430044059,0.0336538987778,0.0,0.0,0.0,1.0
1609056019833876944,1647,1609056019833876944,0.00906890077781,0.0168018533669,0.0398577157768,0.0,0.0,0.0,1.0
1609056019886747933,1648,1609056019886747933,0.014076589034,0.0230524396496,0.0663408640395,0.0,0.0,0.0,1.0
1609056019938968039,1649,1609056019938968039,0.0221895147037,0.0287657553926,0.0797565702153,0.0,0.0,0.0,1.0
1609056019985406971,1650,1609056019985406971,0.0219622288411,0.0315311544536,0.0931079583768,0.0,0.0,0.0,1.0
1609056020038468934,1651,1609056020038468934,0.0272345753874,0.0361504595492,0.106042845422,0.0,0.0,0.0,1.0
1609056020089552975,1652,1609056020089552975,0.0309111415475,0.0411790810037,0.120752820646,0.0,0.0,0.0,1.0
1609056020138435936,1653,1609056020138435936,0.0381358897038,0.050532598406,0.147116643705,0.0,0.0,0.0,1.0
1609056020188067055,1654,1609056020188067055,0.0406052366161,0.054800335083,0.159526109303,0.0,0.0,0.0,1.0
1609056020238382912,1655,1609056020238382912,0.0486685361548,0.0615267950719,0.171957539486,0.0,0.0,0.0,1.0
1609056020287340022,1656,1609056020287340022,0.0499123956287,0.065696738111,0.183303392883,0.0,0.0,0.0,1.0
1609056020340267993,1657,1609056020340267993,0.052851076083,0.0704899789077,0.195327116928,0.0,0.0,0.0,1.0
1609056020386372901,1658,1609056020386372901,0.0595159915559,0.0807220981957,0.216185482038,0.0,0.0,0.0,1.0
1609056020437300063,1659,1609056020437300063,0.0625440889251,0.0856037815741,0.22587923009,0.0,0.0,0.0,1.0
1609056020484851933,1660,1609056020484851933,0.0651538516628,0.0906867383255,0.23578208533,0.0,0.0,0.0,1.0
1609056020539178944,1661,1609056020539178944,0.0673064965036,0.0951639136973,0.244396640613,0.0,0.0,0.0,1.0
1609056020586398936,1662,1609056020586398936,0.0694313224747,0.0994282139542,0.248148451548,0.0,0.0,0.0,1.0
1609056020637292958,1663,1609056020637292958,0.0738611637605,0.109573006921,0.269284887607,0.0,0.0,0.0,1.0
1609056020685604907,1664,1609056020685604907,0.0742504971173,0.113502260794,0.277205874126,0.0,0.0,0.0,1.0
1609056020737619973,1665,1609056020737619973,0.0745544895537,0.117213866978,0.285340628029,0.0,0.0,0.0,1.0
1609056020788492060,1666,1609056020788492060,0.0756970052028,0.121444828248,0.293818120074,0.0,0.0,0.0,1.0
1609056020837622977,1667,1609056020837622977,0.0762328546294,0.128668029434,0.310476528955,0.0,0.0,0.0,1.0
1609056020933312035,1669,1609056020933312035,0.0747257463173,0.134673539198,0.324945626965,0.0,0.0,0.0,1.0
1609056020981793976,1670,1609056020981793976,0.073729448739,0.137809682217,0.334710797505,0.0,0.0,0.0,1.0
1609056021030598975,1671,1609056021030598975,0.072553394489,0.140908928005,0.342687654282,0.0,0.0,0.0,1.0
1609056021083366013,1672,1609056021083366013,0.070833443087,0.143786188621,0.351252710883,0.0,0.0,0.0,1.0
1609056021129793025,1673,1609056021129793025,0.0660283088804,0.150292251138,0.369747086101,0.0,0.0,0.0,1.0
1609056021182459927,1674,1609056021182459927,0.0633054770475,0.153179709851,0.378538663291,0.0,0.0,0.0,1.0
1609056021230937100,1675,1609056021230937100,0.0601365816444,0.155985251743,0.387949774493,0.0,0.0,0.0,1.0
1609056021281652070,1676,1609056021281652070,0.0568213091826,0.158525026128,0.397311973142,0.0,0.0,0.0,1.0
1609056021335786915,1677,1609056021335786915,0.0502803673776,0.164166740432,0.419179764356,0.0,0.0,0.0,1.0
1609056021381277895,1678,1609056021381277895,0.0465528029056,0.1669404917,0.43112673778,0.0,0.0,0.0,1.0
1609056021434395886,1679,1609056021434395886,0.0419052551895,0.16952840605,0.443177492091,0.0,0.0,0.0,1.0
1609056021480572081,1680,1609056021480572081,0.0371820442726,0.17204170152,0.45579474608,0.0,0.0,0.0,1.0
1609056021533038950,1681,1609056021533038950,0.0322502102974,0.174679167505,0.469280700319,0.0,0.0,0.0,1.0
1609056021582650042,1682,1609056021582650042,0.0216949790771,0.179375910515,0.497035570668,0.0,0.0,0.0,1.0
1609056021637944079,1683,1609056021637944079,0.017239441224,0.182110452182,0.513155145703,0.0,0.0,0.0,1.0
1609056021687095976,1684,1609056021687095976,0.0106358287576,0.183936504198,0.526246352696,0.0,0.0,0.0,1.0
1609056021734546042,1685,1609056021734546042,0.00682421623486,0.186959411119,0.541144650575,0.0,0.0,0.0,1.0
1609056021788301087,1686,1609056021788301087,0.000763127452714,0.189182752165,0.555435406188,0.0,0.0,0.0,1.0
1609056021838853932,1687,1609056021838853932,-0.00704287051444,0.190552753678,0.569050127781,0.0,0.0,0.0,1.0
1609056021930832959,1688,1609056021930832959,-0.0239456512188,0.197741103333,0.611174055481,0.0,0.0,0.0,1.0
1609056021980841971,1689,1609056021980841971,-0.0296521088343,0.19923730898,0.624632703231,0.0,0.0,0.0,1.0
1609056022044041014,1690,1609056022044041014,-0.0428227307829,0.201444449593,0.652721619897,0.0,0.0,0.0,1.0
1609056022089309073,1691,1609056022089309073,-0.0482518908183,0.20334327211,0.666240201499,0.0,0.0,0.0,1.0
1609056022138320065,1692,1609056022138320065,-0.055136299094,0.204472872991,0.680034110569,0.0,0.0,0.0,1.0
1609056022186844922,1693,1609056022186844922,-0.0605398290388,0.205738883765,0.693554306528,0.0,0.0,0.0,1.0
1609056022238504029,1694,1609056022238504029,-0.0684134555503,0.205825731206,0.707636203233,0.0,0.0,0.0,1.0
1609056022289165116,1695,1609056022289165116,-0.0734841129794,0.206716862734,0.722753291309,0.0,0.0,0.0,1.0
1609056022336737013,1696,1609056022336737013,-0.0866789771798,0.207362950331,0.752810423525,0.0,0.0,0.0,1.0
1609056022386694050,1697,1609056022386694050,-0.0927375908971,0.20745062687,0.767478708016,0.0,0.0,0.0,1.0
1609056022437388993,1698,1609056022437388993,-0.0991328729566,0.207948003564,0.783185933827,0.0,0.0,0.0,1.0
1609056022485472060,1699,1609056022485472060,-0.105999769319,0.208204217782,0.799139411965,0.0,0.0,0.0,1.0
1609056022539090968,1700,1609056022539090968,-0.110374323103,0.208937998541,0.815996451176,0.0,0.0,0.0,1.0
1609056022587854004,1701,1609056022587854004,-0.12531776414,0.20665259469,0.849570211508,0.0,0.0,0.0,1.0
1609056022639629937,1702,1609056022639629937,-0.133265043477,0.205181416207,0.865754001572,0.0,0.0,0.0,1.0
1609056022706753111,1703,1609056022706753111,-0.146296512852,0.203446099544,0.898863328106,0.0,0.0,0.0,1.0
1609056022749087906,1704,1609056022749087906,-0.150632295627,0.2034716463,0.915136672856,0.0,0.0,0.0,1.0
1609056022791497088,1705,1609056022791497088,-0.159451082901,0.201599826513,0.932565741442,0.0,0.0,0.0,1.0
1609056022836764908,1706,1609056022836764908,-0.165963376282,0.200402471529,0.948060242336,0.0,0.0,0.0,1.0
1609056022887957907,1707,1609056022887957907,-0.174590094484,0.198144747677,0.963105053121,0.0,0.0,0.0,1.0
1609056022937807894,1708,1609056022937807894,-0.179680581801,0.197213455719,0.978800431876,0.0,0.0,0.0,1.0
1609056022987489081,1709,1609056022987489081,-0.186081954254,0.195805673156,0.995191427566,0.0,0.0,0.0,1.0
1609056023041607953,1710,1609056023041607953,-0.198362753896,0.192710615643,1.02444801371,0.0,0.0,0.0,1.0
1609056023086921073,1711,1609056023086921073,-0.20621007134,0.190543434456,1.04023280445,0.0,0.0,0.0,1.0
1609056023137789107,1712,1609056023137789107,-0.211724317789,0.189108042694,1.05566883531,0.0,0.0,0.0,1.0
1609056023185346938,1713,1609056023185346938,-0.219508203737,0.186599720293,1.07107884637,0.0,0.0,0.0,1.0
1609056023239656067,1714,1609056023239656067,-0.224338089903,0.184737430566,1.08527452093,0.0,0.0,0.0,1.0
1609056023287571049,1715,1609056023287571049,-0.236851187014,0.180364282325,1.11582900189,0.0,0.0,0.0,1.0
1609056023338662005,1716,1609056023338662005,-0.236851117438,0.180364176197,1.11582760123,0.0,0.0,0.0,1.0
1609056023387344933,1717,1609056023387344933,-0.249359942718,0.175801445834,1.14450010867,0.0,0.0,0.0,1.0
1609056023437147952,1718,1609056023437147952,-0.253823040706,0.174030404345,1.15974250427,0.0,0.0,0.0,1.0
1609056023488766051,1719,1609056023488766051,-0.25974256376,0.171534250342,1.17468031564,0.0,0.0,0.0,1.0
1609056023539321042,1720,1609056023539321042,-0.271466988881,0.166578691727,1.20468759302,0.0,0.0,0.0,1.0
1609056023585585928,1721,1609056023585585928,-0.276486138405,0.163805137533,1.21925299532,0.0,0.0,0.0,1.0
1609056023640081978,1722,1609056023640081978,-0.282408171182,0.160712453664,1.23363976472,0.0,0.0,0.0,1.0
1609056023687608099,1723,1609056023687608099,-0.287861692601,0.157866670199,1.24909136365,0.0,0.0,0.0,1.0
1609056023739208079,1724,1609056023739208079,-0.294771490318,0.154726400297,1.26433337025,0.0,0.0,0.0,1.0
1609056023786474085,1725,1609056023786474085,-0.309030844125,0.147439666044,1.29481632104,0.0,0.0,0.0,1.0
1609056023837806082,1726,1609056023837806082,-0.313050498063,0.145000117,1.30731933104,0.0,0.0,0.0,1.0
1609056023889613009,1727,1609056023889613009,-0.319798735031,0.141443209583,1.32223289688,0.0,0.0,0.0,1.0
1609056023937125063,1728,1609056023937125063,-0.326293244527,0.138426467342,1.33518226711,0.0,0.0,0.0,1.0
1609056023987151003,1729,1609056023987151003,-0.332657286147,0.134604713272,1.34814533706,0.0,0.0,0.0,1.0
1609056024038235045,1730,1609056024038235045,-0.344095019872,0.12730383362,1.37682236481,0.0,0.0,0.0,1.0
1609056024088007069,1731,1609056024088007069,-0.351467816085,0.123165270515,1.38771454635,0.0,0.0,0.0,1.0
1609056024138053036,1732,1609056024138053036,-0.358905598163,0.118775658797,1.39964547549,0.0,0.0,0.0,1.0
1609056024185966111,1733,1609056024185966111,-0.364930783424,0.114871887151,1.4117964392,0.0,0.0,0.0,1.0
1609056024245709992,1734,1609056024245709992,-0.378622076611,0.105086355051,1.43677511596,0.0,0.0,0.0,1.0
1609056024290232039,1735,1609056024290232039,-0.383692210885,0.100974256645,1.4478478752,0.0,0.0,0.0,1.0
1609056024337941981,1736,1609056024337941981,-0.391307889721,0.0969268548926,1.45850351413,0.0,0.0,0.0,1.0
1609056024388371087,1737,1609056024388371087,-0.397465086983,0.0925497881285,1.46954316477,0.0,0.0,0.0,1.0
1609056024437419987,1738,1609056024437419987,-0.404571224655,0.0875913736817,1.48122534616,0.0,0.0,0.0,1.0
1609056024488118983,1739,1609056024488118983,-0.411836695502,0.0828357968346,1.4922337256,0.0,0.0,0.0,1.0
1609056024538935042,1740,1609056024538935042,-0.42577270014,0.072876182142,1.51421423159,0.0,0.0,0.0,1.0
1609056024590339995,1741,1609056024590339995,-0.430214062595,0.0692872465367,1.52546425334,0.0,0.0,0.0,1.0
1609056024637895918,1742,1609056024637895918,-0.438119206606,0.0639992454972,1.53660015076,0.0,0.0,0.0,1.0
1609056024686093903,1743,1609056024686093903,-0.443086811269,0.0600242962834,1.54793148907,0.0,0.0,0.0,1.0
1609056024739225960,1744,1609056024739225960,-0.448970753811,0.0556775035019,1.559771135,0.0,0.0,0.0,1.0
1609056024786036110,1745,1609056024786036110,-0.457940232551,0.0487858273834,1.58503340047,0.0,0.0,0.0,1.0
1609056024837787962,1746,1609056024837787962,-0.463583703442,0.0452571470776,1.59694664269,0.0,0.0,0.0,1.0
1609056024888455010,1747,1609056024888455010,-0.468607144987,0.0414680441299,1.60961965218,0.0,0.0,0.0,1.0
1609056024938208914,1748,1609056024938208914,-0.471877366138,0.0384837597546,1.62240031208,0.0,0.0,0.0,1.0
1609056024988149024,1749,1609056024988149024,-0.47587465069,0.0357173638065,1.63567423616,0.0,0.0,0.0,1.0
1609056025037604905,1750,1609056025037604905,-0.483205759675,0.0311189603043,1.66326660529,0.0,0.0,0.0,1.0
1609056025088014937,1751,1609056025088014937,-0.486274235101,0.0291014907341,1.67683229535,0.0,0.0,0.0,1.0
1609056025139000035,1752,1609056025139000035,-0.486874348297,0.0280268574386,1.69054902718,0.0,0.0,0.0,1.0
1609056025187361098,1753,1609056025187361098,-0.491107581213,0.0257546155076,1.70455667221,0.0,0.0,0.0,1.0
1609056025239261961,1754,1609056025239261961,-0.495306295933,0.0244454080861,1.7198850147,0.0,0.0,0.0,1.0
1609056025286472893,1755,1609056025286472893,-0.499145437363,0.023680816463,1.75207290018,0.0,0.0,0.0,1.0
1609056025338445044,1756,1609056025338445044,-0.500503944611,0.0237997119774,1.7681927157,0.0,0.0,0.0,1.0
1609056025387345887,1757,1609056025387345887,-0.502061850625,0.0241023452426,1.78484776517,0.0,0.0,0.0,1.0
1609056025431595898,1758,1609056025431595898,-0.503524561321,0.0248214586481,1.7984688003,0.0,0.0,0.0,1.0
1609056025484216071,1759,1609056025484216071,-0.504396828809,0.0260351403392,1.81580205655,0.0,0.0,0.0,1.0
1609056025531735993,1760,1609056025531735993,-0.506119507565,0.0292521116976,1.85118049459,0.0,0.0,0.0,1.0
1609056025583374119,1761,1609056025583374119,-0.507034968727,0.0310650108156,1.86844441594,0.0,0.0,0.0,1.0
1609056025631881094,1762,1609056025631881094,-0.507733390363,0.0335788618657,1.88702019245,0.0,0.0,0.0,1.0
1609056025681450940,1763,1609056025681450940,-0.508587959648,0.036165713576,1.90458184065,0.0,0.0,0.0,1.0
1609056025733923054,1764,1609056025733923054,-0.509043047356,0.0392756911565,1.92311970155,0.0,0.0,0.0,1.0
1609056025780511952,1765,1609056025780511952,-0.509756246752,0.04607823482,1.96161549139,0.0,0.0,0.0,1.0
1609056025832263089,1766,1609056025832263089,-0.509726337297,0.0498092600357,1.98083812956,0.0,0.0,0.0,1.0
1609056025881610013,1767,1609056025881610013,-0.509890458738,0.0539030281359,1.99884054927,0.0,0.0,0.0,1.0
1609056025929649926,1768,1609056025929649926,-0.509644664103,0.0584340380118,2.01805715025,0.0,0.0,0.0,1.0
1609056025984740115,1769,1609056025984740115,-0.509347305425,0.0630692528119,2.03573676814,0.0,0.0,0.0,1.0
1609056026030990935,1770,1609056026030990935,-0.508910098259,0.0739136987338,2.07322810306,0.0,0.0,0.0,1.0
1609056026082707024,1771,1609056026082707024,-0.508427306188,0.0797175779455,2.09316918842,0.0,0.0,0.0,1.0
1609056026130291081,1772,1609056026130291081,-0.508075311476,0.0859040513072,2.11184992441,0.0,0.0,0.0,1.0
1609056026181545115,1773,1609056026181545115,-0.507215198756,0.0922822384671,2.13089598873,0.0,0.0,0.0,1.0
1609056026234891034,1774,1609056026234891034,-0.506246826914,0.098694249641,2.14858476622,0.0,0.0,0.0,1.0
1609056026281090117,1775,1609056026281090117,-0.50340282862,0.112840577606,2.18508531895,0.0,0.0,0.0,1.0
1609056026333690024,1776,1609056026333690024,-0.501693753074,0.120430316697,2.2041381945,0.0,0.0,0.0,1.0
1609056026381544924,1777,1609056026381544924,-0.499798884326,0.127674385361,2.22204976383,0.0,0.0,0.0,1.0
1609056026438833094,1778,1609056026438833094,-0.499015046702,0.135594385734,2.2456820713,0.0,0.0,0.0,1.0
1609056026487854100,1779,1609056026487854100,-0.492871975563,0.153293967274,2.28185339914,0.0,0.0,0.0,1.0
1609056026538555956,1780,1609056026538555956,-0.490393994402,0.16138773388,2.29894048216,0.0,0.0,0.0,1.0
1609056026587792016,1781,1609056026587792016,-0.486874051585,0.171087665922,2.31742170068,0.0,0.0,0.0,1.0
1609056026637144900,1782,1609056026637144900,-0.484842120974,0.180251852866,2.33546558306,0.0,0.0,0.0,1.0
1609056026687985039,1783,1609056026687985039,-0.48104153019,0.189842289838,2.352764051,0.0,0.0,0.0,1.0
1609056026738756037,1784,1609056026738756037,-0.474002894852,0.209850295885,2.38852060651,0.0,0.0,0.0,1.0
1609056026787630892,1785,1609056026787630892,-0.469834823133,0.220125773512,2.40656250926,0.0,0.0,0.0,1.0
1609056026839020110,1786,1609056026839020110,-0.466945497369,0.230085516764,2.42477763597,0.0,0.0,0.0,1.0
1609056026885618067,1787,1609056026885618067,-0.461640067237,0.241373806925,2.44299822097,0.0,0.0,0.0,1.0
1609056026939565993,1788,1609056026939565993,-0.457865443087,0.251987578197,2.46048440352,0.0,0.0,0.0,1.0
1609056026986816025,1789,1609056026986816025,-0.448584359058,0.273754261839,2.49670742689,0.0,0.0,0.0,1.0
1609056027038894034,1790,1609056027038894034,-0.444368147231,0.284339759721,2.51345842897,0.0,0.0,0.0,1.0
1609056027086954928,1791,1609056027086954928,-0.440222678872,0.295184102656,2.52979150654,0.0,0.0,0.0,1.0
1609056027136525965,1792,1609056027136525965,-0.435227941129,0.306467784424,2.54695685507,0.0,0.0,0.0,1.0
1609056027188047028,1793,1609056027188047028,-0.431113236196,0.317790670023,2.56444128438,0.0,0.0,0.0,1.0
1609056027237485028,1794,1609056027237485028,-0.421548292061,0.340571294075,2.59823558801,0.0,0.0,0.0,1.0
1609056027288196898,1795,1609056027288196898,-0.417932204816,0.351300632281,2.61434270443,0.0,0.0,0.0,1.0
1609056027338842011,1796,1609056027338842011,-0.412584259118,0.363014226347,2.63191420053,0.0,0.0,0.0,1.0
1609056027385824061,1797,1609056027385824061,-0.409758837788,0.373393963912,2.64847393965,0.0,0.0,0.0,1.0
1609056027439219094,1798,1609056027439219094,-0.405368583674,0.384213089431,2.66550208795,0.0,0.0,0.0,1.0
1609056027486569977,1799,1609056027486569977,-0.399070970362,0.404251946031,2.69766223541,0.0,0.0,0.0,1.0
1609056027539449072,1800,1609056027539449072,-0.395512892121,0.414739088934,2.71409724643,0.0,0.0,0.0,1.0
1609056027586701966,1801,1609056027586701966,-0.393295321349,0.423984861883,2.72972270936,0.0,0.0,0.0,1.0
1609056027638130999,1802,1609056027638130999,-0.389595641818,0.434283389185,2.74594399979,0.0,0.0,0.0,1.0
1609056027688591099,1803,1609056027688591099,-0.387579096169,0.443206719975,2.76266702022,0.0,0.0,0.0,1.0
1609056027737264967,1804,1609056027737264967,-0.381850712701,0.461230380591,2.79529762559,0.0,0.0,0.0,1.0
1609056027788942910,1805,1609056027788942910,-0.378452501029,0.470058673826,2.81021526394,0.0,0.0,0.0,1.0
1609056027838574029,1806,1609056027838574029,-0.37755030987,0.477433639357,2.82529850995,0.0,0.0,0.0,1.0
1609056027888101912,1807,1609056027888101912,-0.375274687971,0.484899720832,2.84137991894,0.0,0.0,0.0,1.0
1609056027939319945,1808,1609056027939319945,-0.373859302581,0.491827298952,2.8568548401,0.0,0.0,0.0,1.0
1609056027986692048,1809,1609056027986692048,-0.37108818617,0.505696198384,2.88855428127,0.0,0.0,0.0,1.0
1609056028086341000,1810,1609056028086341000,-0.369499552251,0.518295605318,2.92341710523,0.0,0.0,0.0,1.0
1609056028137421942,1811,1609056028137421942,-0.371005776998,0.523191897214,2.93909805827,0.0,0.0,0.0,1.0
1609056028188737965,1812,1609056028188737965,-0.368975022955,0.528639737214,2.95682726831,0.0,0.0,0.0,1.0
1609056028237159110,1813,1609056028237159110,-0.367433746358,0.538636119563,2.99146345456,0.0,0.0,0.0,1.0
1609056028288071967,1814,1609056028288071967,-0.366258426557,0.543311233685,3.00833209145,0.0,0.0,0.0,1.0
1609056028335393048,1815,1609056028335393048,-0.36611949434,0.547145567328,3.02577018827,0.0,0.0,0.0,1.0
1609056028388160086,1816,1609056028388160086,-0.365847269224,0.550625038924,3.04368273124,0.0,0.0,0.0,1.0
1609056028434929944,1817,1609056028434929944,-0.365204980956,0.552998693849,3.05698366814,0.0,0.0,0.0,1.0
1609056028480712986,1818,1609056028480712986,-0.365419557291,0.558394999219,3.09064361449,0.0,0.0,0.0,1.0
1609056028534547902,1819,1609056028534547902,-0.365667858425,0.560567101673,3.1075141847,0.0,0.0,0.0,1.0
1609056028606717921,1820,1609056028606717921,-0.367555752847,0.564154372032,3.14183371887,0.0,0.0,0.0,1.0
1609056028649654961,1821,1609056028649654961,-0.367727080672,0.565576766576,3.15831721079,0.0,0.0,0.0,1.0
1609056028691198922,1822,1609056028691198922,-0.367076623975,0.567181412012,3.17516373428,0.0,0.0,0.0,1.0
1609056028738359070,1823,1609056028738359070,-0.3676007967,0.5681389354,3.19124930536,0.0,0.0,0.0,1.0
1609056028787005044,1824,1609056028787005044,-0.36794732961,0.568509853344,3.20719143368,0.0,0.0,0.0,1.0
1609056028836385108,1825,1609056028836385108,-0.367962360196,0.568812783291,3.22380022707,0.0,0.0,0.0,1.0
1609056028888362980,1826,1609056028888362980,-0.368862756586,0.568605419511,3.24036816209,0.0,0.0,0.0,1.0
1609056028934598065,1827,1609056028934598065,-0.368859647163,0.568206227276,3.25391075191,0.0,0.0,0.0,1.0
1609056028981259919,1828,1609056028981259919,-0.369434142765,0.567029169796,3.28539365485,0.0,0.0,0.0,1.0
1609056029034189082,1829,1609056029034189082,-0.369713884675,0.566480415747,3.30192209426,0.0,0.0,0.0,1.0
1609056029081265069,1830,1609056029081265069,-0.370446110093,0.565841070804,3.31768542913,0.0,0.0,0.0,1.0
1609056029135589934,1831,1609056029135589934,-0.370923307807,0.56480864719,3.33250938556,0.0,0.0,0.0,1.0
1609056029182449914,1832,1609056029182449914,-0.371786283155,0.563126398679,3.34749098882,0.0,0.0,0.0,1.0
1609056029230965949,1833,1609056029230965949,-0.373004190074,0.560011442302,3.37721975647,0.0,0.0,0.0,1.0
1609056029281895972,1834,1609056029281895972,-0.37369973055,0.558408764284,3.39285926676,0.0,0.0,0.0,1.0
1609056029330678082,1835,1609056029330678082,-0.375241858908,0.556469881295,3.40751942187,0.0,0.0,0.0,1.0
1609056029383422947,1836,1609056029383422947,-0.376071460486,0.554585264404,3.42280462626,0.0,0.0,0.0,1.0
1609056029437915898,1837,1609056029437915898,-0.378661830831,0.550500541695,3.45545242777,0.0,0.0,0.0,1.0
1609056029482210970,1838,1609056029482210970,-0.380309938292,0.547876120034,3.47006653702,0.0,0.0,0.0,1.0
1609056029533854104,1839,1609056029533854104,-0.38168408431,0.545840645932,3.48823909216,0.0,0.0,0.0,1.0
1609056029581920958,1840,1609056029581920958,-0.383777192352,0.543044482849,3.5045678301,0.0,0.0,0.0,1.0
1609056029637132025,1841,1609056029637132025,-0.385401197953,0.54045070546,3.52189949289,0.0,0.0,0.0,1.0
1609056029687172986,1842,1609056029687172986,-0.389944701768,0.534652202841,3.5574199286,0.0,0.0,0.0,1.0
1609056029736981965,1843,1609056029736981965,-0.393267629292,0.531028723625,3.57415529865,0.0,0.0,0.0,1.0
1609056029787282086,1844,1609056029787282086,-0.393852295949,0.528868512223,3.59157419303,0.0,0.0,0.0,1.0
1609056029835874892,1845,1609056029835874892,-0.396811780911,0.5253922384,3.6090407016,0.0,0.0,0.0,1.0
1609056029888886071,1846,1609056029888886071,-0.400842400716,0.521477053804,3.62703893124,0.0,0.0,0.0,1.0
1609056029938366032,1847,1609056029938366032,-0.406294018992,0.51409728102,3.66354512477,0.0,0.0,0.0,1.0
1609056029987388945,1848,1609056029987388945,-0.409778118067,0.510238653648,3.68150394499,0.0,0.0,0.0,1.0
1609056030038039065,1849,1609056030038039065,-0.412732392377,0.506406093884,3.70084116805,0.0,0.0,0.0,1.0
1609056030087657071,1850,1609056030087657071,-0.415784382757,0.502508280621,3.71963060748,0.0,0.0,0.0,1.0
1609056030138858891,1851,1609056030138858891,-0.418575357174,0.498714791306,3.73891711124,0.0,0.0,0.0,1.0
1609056030186734057,1852,1609056030186734057,-0.426560723585,0.490063200114,3.77670139417,0.0,0.0,0.0,1.0
1609056030239039040,1853,1609056030239039040,-0.431426295361,0.485533192059,3.79536887475,0.0,0.0,0.0,1.0
1609056030306517935,1854,1609056030306517935,-0.436308308691,0.47731489487,3.83246657871,0.0,0.0,0.0,1.0
1609056030349485970,1855,1609056030349485970,-0.444444779968,0.471679745513,3.85112531397,0.0,0.0,0.0,1.0
1609056030439379073,1856,1609056030439379073,-0.452142234215,0.463352585409,3.8909547113,0.0,0.0,0.0,1.0
1609056030480542994,1857,1609056030480542994,-0.457144824222,0.45908892322,3.91036991019,0.0,0.0,0.0,1.0
1609056030529236889,1858,1609056030529236889,-0.461829916204,0.454635786356,3.93041441957,0.0,0.0,0.0,1.0
1609056030600483037,1859,1609056030600483037,-0.470767052353,0.445687990212,3.97156554705,0.0,0.0,0.0,1.0
1609056030644671059,1860,1609056030644671059,-0.474369923515,0.441796857226,3.99189991711,0.0,0.0,0.0,1.0
1609056030693278885,1861,1609056030693278885,-0.481304058664,0.437132402467,4.01284265307,0.0,0.0,0.0,1.0
1609056030737727023,1862,1609056030737727023,-0.485373057034,0.43313310967,4.03461262459,0.0,0.0,0.0,1.0
1609056030785950041,1863,1609056030785950041,-0.491547838148,0.428758733638,4.05434226615,0.0,0.0,0.0,1.0
1609056030837519980,1864,1609056030837519980,-0.49633437528,0.425403214396,4.07492008511,0.0,0.0,0.0,1.0
1609056030891836024,1865,1609056030891836024,-0.508816234897,0.417943889692,4.11687495295,0.0,0.0,0.0,1.0
1609056030938366986,1866,1609056030938366986,-0.514797548298,0.414206456992,4.13586754276,0.0,0.0,0.0,1.0
1609056030986724949,1867,1609056030986724949,-0.52049096683,0.410566898568,4.15506784599,0.0,0.0,0.0,1.0
1609056031036786891,1868,1609056031036786891,-0.52565892397,0.407093271682,4.17420233698,0.0,0.0,0.0,1.0
1609056031087483979,1869,1609056031087483979,-0.531941268958,0.404082313296,4.1932734603,0.0,0.0,0.0,1.0
1609056031138403988,1870,1609056031138403988,-0.543339065519,0.398614094593,4.23074291542,0.0,0.0,0.0,1.0
1609056031185637093,1871,1609056031185637093,-0.550818913869,0.3957793648,4.24889484774,0.0,0.0,0.0,1.0
1609056031237655974,1872,1609056031237655974,-0.557088329899,0.393573887787,4.26755395544,0.0,0.0,0.0,1.0
1609056031285693026,1873,1609056031285693026,-0.564010412454,0.390650187757,4.28438454687,0.0,0.0,0.0,1.0
1609056031340195036,1874,1609056031340195036,-0.570651156178,0.387845507601,4.30200354742,0.0,0.0,0.0,1.0
1609056031387561894,1875,1609056031387561894,-0.585751174405,0.38318139213,4.33696644767,0.0,0.0,0.0,1.0
1609056031437246895,1876,1609056031437246895,-0.592586184286,0.381304867695,4.35342408715,0.0,0.0,0.0,1.0
1609056031488215066,1877,1609056031488215066,-0.599547889695,0.379508873671,4.3704897507,0.0,0.0,0.0,1.0
1609056031537889100,1878,1609056031537889100,-0.607779642373,0.377631219013,4.38845202435,0.0,0.0,0.0,1.0
1609056031589065886,1879,1609056031589065886,-0.615056891708,0.375926568801,4.40546309425,0.0,0.0,0.0,1.0
1609056031640380955,1880,1609056031640380955,-0.630528866252,0.371980450745,4.43657731665,0.0,0.0,0.0,1.0
1609056031688212967,1881,1609056031688212967,-0.639101142547,0.370017468936,4.45017958197,0.0,0.0,0.0,1.0
1609056031739345885,1882,1609056031739345885,-0.646696929135,0.368769840228,4.46292850481,0.0,0.0,0.0,1.0
1609056031785952902,1883,1609056031785952902,-0.656291774261,0.366595397511,4.47456526812,0.0,0.0,0.0,1.0
1609056031840089894,1884,1609056031840089894,-0.663667238691,0.365481095229,4.48622064815,0.0,0.0,0.0,1.0
1609056031887292958,1885,1609056031887292958,-0.681851445889,0.361781299917,4.50684928207,0.0,0.0,0.0,1.0
1609056031938179112,1886,1609056031938179112,-0.689325692458,0.360521673274,4.51558263196,0.0,0.0,0.0,1.0
1609056031986877060,1887,1609056031986877060,-0.69858173702,0.358796169669,4.52520886238,0.0,0.0,0.0,1.0
1609056032037108040,1888,1609056032037108040,-0.706714468732,0.357831875935,4.53377551467,0.0,0.0,0.0,1.0
1609056032088831044,1889,1609056032088831044,-0.71433781183,0.357439661003,4.54177137974,0.0,0.0,0.0,1.0
1609056032138297892,1890,1609056032138297892,-0.732062533884,0.355565015805,4.5567019955,0.0,0.0,0.0,1.0
1609056032187578059,1891,1609056032187578059,-0.738409874467,0.355977497615,4.56345940984,0.0,0.0,0.0,1.0
1609056032279065943,1892,1609056032279065943,-0.755821948569,0.354386105627,4.57776248848,0.0,0.0,0.0,1.0
1609056032347091055,1893,1609056032347091055,-0.772791312554,0.35327748313,4.58966882427,0.0,0.0,0.0,1.0
1609056032433311081,1894,1609056032433311081,-0.788519900743,0.3526384315,4.60325023422,0.0,0.0,0.0,1.0
1609056032489743090,1895,1609056032489743090,-0.794114381945,0.353649330116,4.60797118521,0.0,0.0,0.0,1.0
1609056032538976050,1896,1609056032538976050,-0.805598513127,0.352407696554,4.61449882891,0.0,0.0,0.0,1.0
1609056032590330935,1897,1609056032590330935,-0.812049943149,0.35304114697,4.61984601498,0.0,0.0,0.0,1.0
1609056032637930012,1898,1609056032637930012,-0.827967508623,0.354370180574,4.63148577372,0.0,0.0,0.0,1.0
1609056032687589026,1899,1609056032687589026,-0.835398476304,0.355644812478,4.63762653258,0.0,0.0,0.0,1.0
1609056032737482882,1900,1609056032737482882,-0.842664304907,0.356133150872,4.64389749344,0.0,0.0,0.0,1.0
1609056032787364102,1901,1609056032787364102,-0.849428529409,0.35683928086,4.64844290057,0.0,0.0,0.0,1.0
1609056032842326022,1902,1609056032842326022,-0.858452261968,0.356973892103,4.65255137984,0.0,0.0,0.0,1.0
1609056032888496972,1903,1609056032888496972,-0.872920221173,0.359331951427,4.6584880368,0.0,0.0,0.0,1.0
1609056032940306044,1904,1609056032940306044,-0.878854191315,0.361100818761,4.66116792478,0.0,0.0,0.0,1.0
1609056032986909009,1905,1609056032986909009,-0.885981581252,0.362060164954,4.6644497184,0.0,0.0,0.0,1.0
1609056033039662934,1906,1609056033039662934,-0.892178289249,0.36291873562,4.6679212713,0.0,0.0,0.0,1.0
1609056033088601923,1907,1609056033088601923,-0.898639341803,0.363282933469,4.67197904244,0.0,0.0,0.0,1.0
1609056033137579060,1908,1609056033137579060,-0.910171925519,0.364323933772,4.68174668803,0.0,0.0,0.0,1.0
1609056033191748953,1909,1609056033191748953,-0.915515866113,0.365074837608,4.68607800635,0.0,0.0,0.0,1.0
1609056033256594039,1910,1609056033256594039,-0.926700281352,0.367465368202,4.69483676756,0.0,0.0,0.0,1.0
1609056033297518111,1911,1609056033297518111,-0.929374726401,0.368926995697,4.69961772779,0.0,0.0,0.0,1.0
1609056033341758109,1912,1609056033341758109,-0.934940703959,0.368875674464,4.704451249,0.0,0.0,0.0,1.0
1609056033385732985,1913,1609056033385732985,-0.941106719286,0.368825220474,4.7091260891,0.0,0.0,0.0,1.0
1609056033438603020,1914,1609056033438603020,-0.943226091443,0.369924107415,4.71321884605,0.0,0.0,0.0,1.0
1609056033485926009,1915,1609056033485926009,-0.947237914934,0.370283025594,4.71767574793,0.0,0.0,0.0,1.0
1609056033541082001,1916,1609056033541082001,-0.950422369207,0.370705979606,4.72193532288,0.0,0.0,0.0,1.0
1609056033588800049,1917,1609056033588800049,-0.954954242461,0.370490551091,4.73059714899,0.0,0.0,0.0,1.0
1609056033631807900,1918,1609056033631807900,-0.956669620271,0.370561743488,4.7313043896,0.0,0.0,0.0,1.0
1609056033688212014,1919,1609056033688212014,-0.957296158643,0.370803183762,4.73905679191,0.0,0.0,0.0,1.0
1609056033736054993,1920,1609056033736054993,-0.961888201651,0.368676487947,4.74482007235,0.0,0.0,0.0,1.0
1609056033788550950,1921,1609056033788550950,-0.958299129309,0.369086995005,4.74919908906,0.0,0.0,0.0,1.0
1609056033839217997,1922,1609056033839217997,-0.957269353862,0.365454816031,4.75705721988,0.0,0.0,0.0,1.0
1609056033887758112,1923,1609056033887758112,-0.957019344896,0.363467386914,4.76179714118,0.0,0.0,0.0,1.0
1609056033939994908,1924,1609056033939994908,-0.954929303377,0.361894663207,4.76648844697,0.0,0.0,0.0,1.0
1609056033981376029,1925,1609056033981376029,-0.952252314029,0.359655121197,4.76707640969,0.0,0.0,0.0,1.0
1609056034032111025,1926,1609056034032111025,-0.949147997638,0.356713227194,4.77100753022,0.0,0.0,0.0,1.0
1609056034085975981,1927,1609056034085975981,-0.941070793685,0.349754600665,4.77821714769,0.0,0.0,0.0,1.0
1609056034131390906,1928,1609056034131390906,-0.935990043814,0.345673451986,4.78164376882,0.0,0.0,0.0,1.0
1609056034181931115,1929,1609056034181931115,-0.93022906712,0.341492018946,4.78458885536,0.0,0.0,0.0,1.0
1609056034230538941,1930,1609056034230538941,-0.923932425835,0.336461694114,4.78837991182,0.0,0.0,0.0,1.0
1609056034287674046,1931,1609056034287674046,-0.917354739532,0.331267468705,4.79406978436,0.0,0.0,0.0,1.0
1609056034338209010,1932,1609056034338209010,-0.90239255933,0.318904186148,4.79680354593,0.0,0.0,0.0,1.0
1609056034386700964,1933,1609056034386700964,-0.89115925015,0.313824502389,4.80284183209,0.0,0.0,0.0,1.0
1609056034437719918,1934,1609056034437719918,-0.884107924394,0.305925409649,4.8047232264,0.0,0.0,0.0,1.0
1609056034486969090,1935,1609056034486969090,-0.874182620902,0.298578840677,4.80652189007,0.0,0.0,0.0,1.0
1609056034540172911,1936,1609056034540172911,-0.862920426065,0.290740580553,4.80850114595,0.0,0.0,0.0,1.0
1609056034587627030,1937,1609056034587627030,-0.838748907169,0.273516871604,4.81278186447,0.0,0.0,0.0,1.0
1609056034640513039,1938,1609056034640513039,-0.825093100603,0.264261646267,4.81450820251,0.0,0.0,0.0,1.0
1609056034686980105,1939,1609056034686980105,-0.812475464803,0.254776908828,4.81686415374,0.0,0.0,0.0,1.0
1609056034738804913,1940,1609056034738804913,-0.798775042499,0.244388839186,4.81916582488,0.0,0.0,0.0,1.0
1609056034788168049,1941,1609056034788168049,-0.78273080806,0.234580094582,4.82137831191,0.0,0.0,0.0,1.0
1609056034838531113,1942,1609056034838531113,-0.750586831496,0.213292495898,4.82608751227,0.0,0.0,0.0,1.0
1609056034887461997,1943,1609056034887461997,-0.735076891058,0.202254994902,4.82882188994,0.0,0.0,0.0,1.0
1609056034939576006,1944,1609056034939576006,-0.718698242221,0.190766462139,4.83144031503,0.0,0.0,0.0,1.0
1609056034987444973,1945,1609056034987444973,-0.699378405531,0.179094014613,4.83358468749,0.0,0.0,0.0,1.0
1609056035040732956,1946,1609056035040732956,-0.682347868415,0.166894959477,4.83703984602,0.0,0.0,0.0,1.0
1609056035087116099,1947,1609056035087116099,-0.645939702283,0.143112794951,4.84185522303,0.0,0.0,0.0,1.0
1609056035138433075,1948,1609056035138433075,-0.627901202085,0.13027819794,4.84474421561,0.0,0.0,0.0,1.0
1609056035188499070,1949,1609056035188499070,-0.608203677562,0.117961562385,4.84635410268,0.0,0.0,0.0,1.0
1609056035238413907,1950,1609056035238413907,-0.587938862857,0.105400112045,4.84763145847,0.0,0.0,0.0,1.0
1609056035290360070,1951,1609056035290360070,-0.547238699228,0.0794252398585,4.8519468186,0.0,0.0,0.0,1.0
1609056035337715006,1952,1609056035337715006,-0.526919872533,0.0670944179214,4.8536657782,0.0,0.0,0.0,1.0
1609056035387087918,1953,1609056035387087918,-0.508691565941,0.0525673123483,4.85492719414,0.0,0.0,0.0,1.0
1609056035436992980,1954,1609056035436992980,-0.486759731738,0.039922330538,4.85652420067,0.0,0.0,0.0,1.0
1609056035488829947,1955,1609056035488829947,-0.467533830151,0.0260364932572,4.85767746739,0.0,0.0,0.0,1.0
1609056035539631939,1956,1609056035539631939,-0.428195244927,-0.00175266447165,4.86038935962,0.0,0.0,0.0,1.0
1609056035586186028,1957,1609056035586186028,-0.407940067224,-0.0160582659916,4.86101457842,0.0,0.0,0.0,1.0
1609056035639904118,1958,1609056035639904118,-0.388661436587,-0.0313961608288,4.86285268593,0.0,0.0,0.0,1.0
1609056035686042882,1959,1609056035686042882,-0.367678987902,-0.0456454703654,4.86454299546,0.0,0.0,0.0,1.0
1609056035740105010,1960,1609056035740105010,-0.349154878921,-0.0612694227259,4.86543623209,0.0,0.0,0.0,1.0
1609056035788647986,1961,1609056035788647986,-0.308316810886,-0.0911571952207,4.86724227224,0.0,0.0,0.0,1.0
1609056035838343001,1962,1609056035838343001,-0.291149831956,-0.106198367189,4.86776169196,0.0,0.0,0.0,1.0
1609056035929999924,1963,1609056035929999924,-0.252597312563,-0.137894813248,4.87042210829,0.0,0.0,0.0,1.0
1609056035995780087,1964,1609056035995780087,-0.215154630084,-0.171336370064,4.8732669635,0.0,0.0,0.0,1.0
1609056036042964077,1965,1609056036042964077,-0.197179520987,-0.188095520213,4.8747674771,0.0,0.0,0.0,1.0
1609056036088565922,1966,1609056036088565922,-0.178616995381,-0.205294660998,4.87626850587,0.0,0.0,0.0,1.0
1609056036138602114,1967,1609056036138602114,-0.16017798217,-0.22264237414,4.87777810849,0.0,0.0,0.0,1.0
1609056036186086989,1968,1609056036186086989,-0.142002590091,-0.240711530405,4.87930684235,0.0,0.0,0.0,1.0
1609056036239957905,1969,1609056036239957905,-0.123197947211,-0.258878120346,4.88127155915,0.0,0.0,0.0,1.0
1609056036287454939,1970,1609056036287454939,-0.0878846160731,-0.297551498404,4.8854188141,0.0,0.0,0.0,1.0
1609056036338198042,1971,1609056036338198042,-0.07148812084,-0.316463198987,4.88933851174,0.0,0.0,0.0,1.0
1609056036388310051,1972,1609056036388310051,-0.0543844024414,-0.335805244288,4.8922313877,0.0,0.0,0.0,1.0
1609056036438500023,1973,1609056036438500023,-0.0374306014058,-0.355942291553,4.89490794554,0.0,0.0,0.0,1.0
1609056036489698029,1974,1609056036489698029,-0.020790874137,-0.37605135419,4.89854332659,0.0,0.0,0.0,1.0
1609056036538395024,1975,1609056036538395024,0.0112277424936,-0.418951623456,4.90772819099,0.0,0.0,0.0,1.0
1609056036587153054,1976,1609056036587153054,0.0264137738869,-0.440039901857,4.91243252018,0.0,0.0,0.0,1.0
1609056036642290926,1977,1609056036642290926,0.0410901077251,-0.462737474158,4.91832652984,0.0,0.0,0.0,1.0
1609056036686807013,1978,1609056036686807013,0.0561364948688,-0.485132725943,4.92321646755,0.0,0.0,0.0,1.0
1609056036738989926,1979,1609056036738989926,0.0702850038306,-0.508439333449,4.92870161742,0.0,0.0,0.0,1.0
1609056036787321902,1980,1609056036787321902,0.0983489485637,-0.555459426524,4.93927635433,0.0,0.0,0.0,1.0
1609056036839157916,1981,1609056036839157916,0.112195826334,-0.580273768359,4.94347067166,0.0,0.0,0.0,1.0
1609056036886842108,1982,1609056036886842108,0.12474335034,-0.603978817588,4.94987686293,0.0,0.0,0.0,1.0
1609056036938597060,1983,1609056036938597060,0.137052366111,-0.629556211802,4.95617441816,0.0,0.0,0.0,1.0
1609056036989668942,1984,1609056036989668942,0.148696032068,-0.654136482018,4.96079770007,0.0,0.0,0.0,1.0
1609056037038179017,1985,1609056037038179017,0.172258990169,-0.707850911105,4.96967934395,0.0,0.0,0.0,1.0
1609056037087955094,1986,1609056037087955094,0.184110612401,-0.736347363707,4.97117858049,0.0,0.0,0.0,1.0
1609056037142123080,1987,1609056037142123080,0.193992032195,-0.762273035235,4.97855009311,0.0,0.0,0.0,1.0
1609056037181906081,1988,1609056037181906081,0.204551941182,-0.788786868395,4.97951939508,0.0,0.0,0.0,1.0
1609056037239035941,1989,1609056037239035941,0.21451380599,-0.815737627207,4.98318770262,0.0,0.0,0.0,1.0
1609056037281104899,1990,1609056037281104899,0.233940416646,-0.871039955023,4.99147002711,0.0,0.0,0.0,1.0
1609056037334282971,1991,1609056037334282971,0.243569308266,-0.899354339758,4.99548457568,0.0,0.0,0.0,1.0
1609056037381263114,1992,1609056037381263114,0.25400839647,-0.92978016159,4.99729841933,0.0,0.0,0.0,1.0
1609056037437723017,1993,1609056037437723017,0.262432825354,-0.958779691812,5.00608094121,0.0,0.0,0.0,1.0
1609056037488273955,1994,1609056037488273955,0.271756078258,-0.987596663853,5.01080621633,0.0,0.0,0.0,1.0
1609056037538791037,1995,1609056037538791037,0.293057529855,-1.04659780812,5.01927951845,0.0,0.0,0.0,1.0
1609056037587370968,1996,1609056037587370968,0.304594396831,-1.07574351352,5.02394751951,0.0,0.0,0.0,1.0
1609056037639354086,1997,1609056037639354086,0.315322617138,-1.10683890339,5.0286324911,0.0,0.0,0.0,1.0
1609056037696333027,1998,1609056037696333027,0.337783053925,-1.16839254432,5.0377316641,0.0,0.0,0.0,1.0
1609056037739203072,1999,1609056037739203072,0.348912381776,-1.19904388917,5.03842990978,0.0,0.0,0.0,1.0
1609056037781560040,2000,1609056037781560040,0.361382153765,-1.23085328631,5.04233130783,0.0,0.0,0.0,1.0
1609056037832877017,2001,1609056037832877017,0.374640367188,-1.26379444401,5.04543547872,0.0,0.0,0.0,1.0
1609056037882784939,2002,1609056037882784939,0.387621745362,-1.29505179803,5.0479862003,0.0,0.0,0.0,1.0
1609056037937604046,2003,1609056037937604046,0.401657364788,-1.32703296049,5.05383171862,0.0,0.0,0.0,1.0
1609056037989488936,2004,1609056037989488936,0.43359969664,-1.39160843809,5.05821919314,0.0,0.0,0.0,1.0
1609056038039882994,2005,1609056038039882994,0.44638264183,-1.42296803715,5.05941931652,0.0,0.0,0.0,1.0
1609056038091559029,2006,1609056038091559029,0.463177083435,-1.45470116128,5.06049867058,0.0,0.0,0.0,1.0
1609056038137525893,2007,1609056038137525893,0.478814372403,-1.48860998003,5.06132724136,0.0,0.0,0.0,1.0
1609056038189299918,2008,1609056038189299918,0.496152269084,-1.52061090443,5.06152825453,0.0,0.0,0.0,1.0
1609056038240727044,2009,1609056038240727044,0.532113674024,-1.58569032088,5.06109843745,0.0,0.0,0.0,1.0
1609056038287572003,2010,1609056038287572003,0.549849423423,-1.61887206835,5.05960463418,0.0,0.0,0.0,1.0
1609056038339598036,2011,1609056038339598036,0.570223472267,-1.65162077088,5.05783617969,0.0,0.0,0.0,1.0
1609056038386910058,2012,1609056038386910058,0.589746096153,-1.68528259997,5.05599338866,0.0,0.0,0.0,1.0
1609056038440481043,2013,1609056038440481043,0.610276693166,-1.7169448061,5.05371102351,0.0,0.0,0.0,1.0
1609056038486528969,2014,1609056038486528969,0.653142160669,-1.78263736994,5.04896323561,0.0,0.0,0.0,1.0
1609056038538049078,2015,1609056038538049078,0.673616313809,-1.81356204936,5.04759953514,0.0,0.0,0.0,1.0
1609056038589195109,2016,1609056038589195109,0.696173921085,-1.8439140051,5.04627540025,0.0,0.0,0.0,1.0
1609056038638247109,2017,1609056038638247109,0.717599282377,-1.87630721721,5.0454318151,0.0,0.0,0.0,1.0
1609056038688869095,2018,1609056038688869095,0.741968444082,-1.90859246161,5.04436192614,0.0,0.0,0.0,1.0
1609056038737516022,2019,1609056038737516022,0.765609762354,-1.93972981485,5.04402775479,0.0,0.0,0.0,1.0
1609056038787813044,2020,1609056038787813044,0.814475456099,-2.00086460662,5.04349796839,0.0,0.0,0.0,1.0
1609056038838742114,2021,1609056038838742114,0.839519538191,-2.031563768,5.04288717884,0.0,0.0,0.0,1.0
1609056038886173106,2022,1609056038886173106,0.863922070058,-2.0613175766,5.04228141321,0.0,0.0,0.0,1.0
1609056038942495919,2023,1609056038942495919,0.892226775631,-2.09127231981,5.04208891773,0.0,0.0,0.0,1.0
1609056038987329102,2024,1609056038987329102,0.944645234948,-2.1492445129,5.03965673464,0.0,0.0,0.0,1.0
1609056039045987940,2025,1609056039045987940,0.972078419673,-2.17592056203,5.03951686793,0.0,0.0,0.0,1.0
1609056039091722107,2026,1609056039091722107,0.998613544828,-2.20478032846,5.03950195025,0.0,0.0,0.0,1.0
1609056039136261082,2027,1609056039136261082,1.02508086622,-2.2324293749,5.03861949894,0.0,0.0,0.0,1.0
1609056039189349032,2028,1609056039189349032,1.05147106942,-2.25831843941,5.03785301319,0.0,0.0,0.0,1.0
1609056039237206078,2029,1609056039237206078,1.10382113369,-2.30909461966,5.03632117431,0.0,0.0,0.0,1.0
1609056039288714982,2030,1609056039288714982,1.12956524669,-2.33226655319,5.0354955151,0.0,0.0,0.0,1.0
1609056039336931086,2031,1609056039336931086,1.15463522825,-2.35736880493,5.03365978357,0.0,0.0,0.0,1.0
1609056039386614895,2032,1609056039386614895,1.18026337787,-2.37934991606,5.03203577325,0.0,0.0,0.0,1.0
1609056039440646983,2033,1609056039440646983,1.20656494832,-2.40093701232,5.02947962357,0.0,0.0,0.0,1.0
1609056039486214972,2034,1609056039486214972,1.25469419804,-2.44343558259,5.02516948876,0.0,0.0,0.0,1.0
1609056039540790892,2035,1609056039540790892,1.27833530163,-2.46389776546,5.02246084358,0.0,0.0,0.0,1.0
1609056039587255097,2036,1609056039587255097,1.30163946888,-2.48382239217,5.02045991046,0.0,0.0,0.0,1.0
1609056039639364100,2037,1609056039639364100,1.32624987581,-2.50334871676,5.01426301719,0.0,0.0,0.0,1.0
1609056039743686057,2038,1609056039743686057,1.39139536738,-2.5584424671,5.00615398975,0.0,0.0,0.0,1.0
1609056039782301999,2039,1609056039782301999,1.41029019688,-2.57712400321,5.00192696625,0.0,0.0,0.0,1.0
1609056039829820967,2040,1609056039829820967,1.43002291449,-2.59396168253,5.00163622893,0.0,0.0,0.0,1.0
1609056039899846888,2041,1609056039899846888,1.46740244681,-2.62561286093,4.98884613932,0.0,0.0,0.0,1.0
1609056039945014096,2042,1609056039945014096,1.48634003933,-2.64111896972,4.98556268698,0.0,0.0,0.0,1.0
1609056039987204886,2043,1609056039987204886,1.50508537531,-2.65574209265,4.98237991815,0.0,0.0,0.0,1.0
1609056040080448962,2044,1609056040080448962,1.54037073086,-2.68708311627,4.97516427923,0.0,0.0,0.0,1.0
1609056040149151898,2045,1609056040149151898,1.57423988017,-2.71755633046,4.97025819418,0.0,0.0,0.0,1.0
1609056040193132020,2046,1609056040193132020,1.59125286937,-2.7330473444,4.96735389433,0.0,0.0,0.0,1.0
1609056040236039973,2047,1609056040236039973,1.6062188093,-2.74709964436,4.967645231,0.0,0.0,0.0,1.0
1609056040290282107,2048,1609056040290282107,1.62139691477,-2.76111157701,4.96349089992,0.0,0.0,0.0,1.0
1609056040336730099,2049,1609056040336730099,1.63764674112,-2.77605374114,4.96270093327,0.0,0.0,0.0,1.0
1609056040387847996,2050,1609056040387847996,1.65233511473,-2.79033179752,4.9620305541,0.0,0.0,0.0,1.0
1609056040439940072,2051,1609056040439940072,1.68222061655,-2.81936804184,4.96049712855,0.0,0.0,0.0,1.0
1609056040485229111,2052,1609056040485229111,1.69594870662,-2.83371731246,4.96069902312,0.0,0.0,0.0,1.0
1609056040539958096,2053,1609056040539958096,1.71065403865,-2.84838505115,4.9610894134,0.0,0.0,0.0,1.0
1609056040586779929,2054,1609056040586779929,1.72402137006,-2.86272852815,4.96186871216,0.0,0.0,0.0,1.0
1609056040640870905,2055,1609056040640870905,1.73858176072,-2.87628504136,4.96248263927,0.0,0.0,0.0,1.0
1609056040688058949,2056,1609056040688058949,1.76466779938,-2.90346278332,4.96546985984,0.0,0.0,0.0,1.0
1609056040738902903,2057,1609056040738902903,1.77738568469,-2.91556309421,4.96764381831,0.0,0.0,0.0,1.0
1609056040787696934,2058,1609056040787696934,1.7885430936,-2.92879937493,4.96920409361,0.0,0.0,0.0,1.0
1609056040838029957,2059,1609056040838029957,1.80198501948,-2.94201868291,4.97205374568,0.0,0.0,0.0,1.0
1609056040890720940,2060,1609056040890720940,1.81247075806,-2.95576487313,4.97417223102,0.0,0.0,0.0,1.0
1609056040940603114,2061,1609056040940603114,1.83409280622,-2.98159728529,4.97812286862,0.0,0.0,0.0,1.0
1609056040987528897,2062,1609056040987528897,1.84534623104,-2.99353139445,4.98033510827,0.0,0.0,0.0,1.0
1609056041040222025,2063,1609056041040222025,1.85537323412,-3.00627906405,4.98217021578,0.0,0.0,0.0,1.0
1609056041087706900,2064,1609056041087706900,1.86526315214,-3.01833058189,4.98421243451,0.0,0.0,0.0,1.0
1609056041138676978,2065,1609056041138676978,1.87474017999,-3.03114990577,4.98591759373,0.0,0.0,0.0,1.0
1609056041188351012,2066,1609056041188351012,1.89203817227,-3.05705870316,4.99063508068,0.0,0.0,0.0,1.0
1609056041238139964,2067,1609056041238139964,1.8996874699,-3.0686299085,4.99364317404,0.0,0.0,0.0,1.0
1609056041330129004,2068,1609056041330129004,1.91400833156,-3.09310698668,5.00030894097,0.0,0.0,0.0,1.0
1609056041396325923,2069,1609056041396325923,1.92712004841,-3.11800666662,5.00540311165,0.0,0.0,0.0,1.0
1609056041440806008,2070,1609056041440806008,1.93314504308,-3.1304174545,5.00777563985,0.0,0.0,0.0,1.0
1609056041530727959,2071,1609056041530727959,1.94249803907,-3.15716154596,5.01128614725,0.0,0.0,0.0,1.0
1609056041600611067,2072,1609056041600611067,1.95005412104,-3.18587164048,5.01322897698,0.0,0.0,0.0,1.0
1609056041642844058,2073,1609056041642844058,1.9529294732,-3.2006515108,5.01099327515,0.0,0.0,0.0,1.0
1609056041684780932,2074,1609056041684780932,1.9550594728,-3.21538087152,5.01131733295,0.0,0.0,0.0,1.0
1609056041732121087,2075,1609056041732121087,1.95633878809,-3.23080365457,5.0113130523,0.0,0.0,0.0,1.0
1609056041782041884,2076,1609056041782041884,1.95731015051,-3.24684971534,5.01119372282,0.0,0.0,0.0,1.0
1609056041830531931,2077,1609056041830531931,1.95785483043,-3.26406072875,5.01163509614,0.0,0.0,0.0,1.0
1609056041884288884,2078,1609056041884288884,1.95728930938,-3.28215776508,5.01152380506,0.0,0.0,0.0,1.0
1609056041938269949,2079,1609056041938269949,1.95695241856,-3.32103201798,5.0152554159,0.0,0.0,0.0,1.0
1609056041988221026,2080,1609056041988221026,1.95186221349,-3.34314978013,5.01558827562,0.0,0.0,0.0,1.0
1609056042039099074,2081,1609056042039099074,1.95057705955,-3.36419678752,5.01556602683,0.0,0.0,0.0,1.0
1609056042088363028,2082,1609056042088363028,1.94554762201,-3.38850959215,5.01557618092,0.0,0.0,0.0,1.0
1609056042140138960,2083,1609056042140138960,1.94251897717,-3.41146184633,5.01572537847,0.0,0.0,0.0,1.0
1609056042187233067,2084,1609056042187233067,1.93693946519,-3.43700712108,5.01547296602,0.0,0.0,0.0,1.0
1609056042240033007,2085,1609056042240033007,1.9270014261,-3.48970351502,5.01540387695,0.0,0.0,0.0,1.0
1609056042285197115,2086,1609056042285197115,1.91942100388,-3.51880577601,5.0156716208,0.0,0.0,0.0,1.0
1609056042339290000,2087,1609056042339290000,1.91213217697,-3.54730486784,5.01565727609,0.0,0.0,0.0,1.0
1609056042390091992,2088,1609056042390091992,1.90472282735,-3.57710730841,5.01554312002,0.0,0.0,0.0,1.0
1609056042438435889,2089,1609056042438435889,1.88533201807,-3.64172482932,5.01554477538,0.0,0.0,0.0,1.0
1609056042488384104,2090,1609056042488384104,1.87752036076,-3.67366397073,5.01537908901,0.0,0.0,0.0,1.0
1609056042537114001,2091,1609056042537114001,1.86702518852,-3.70865476632,5.01533092357,0.0,0.0,0.0,1.0
1609056042600431061,2092,1609056042600431061,1.84610143004,-3.78060773141,5.01606564387,0.0,0.0,0.0,1.0
1609056042645428992,2093,1609056042645428992,1.83458403783,-3.81731067732,5.01597707988,0.0,0.0,0.0,1.0
1609056042692101098,2094,1609056042692101098,1.82229666991,-3.85478698145,5.01604212163,0.0,0.0,0.0,1.0
1609056042738641120,2095,1609056042738641120,1.81174663807,-3.89204097592,5.01592929762,0.0,0.0,0.0,1.0
1609056042806811905,2096,1609056042806811905,1.78441861163,-3.96949149561,5.01607477786,0.0,0.0,0.0,1.0
1609056042847406960,2097,1609056042847406960,1.77280581028,-4.0073046543,5.01655541864,0.0,0.0,0.0,1.0
1609056042892592049,2098,1609056042892592049,1.7588391462,-4.04765931035,5.0172086156,0.0,0.0,0.0,1.0
1609056042939087010,2099,1609056042939087010,1.74432518243,-4.08578236018,5.01795554772,0.0,0.0,0.0,1.0
1609056042987331963,2100,1609056042987331963,1.73233596403,-4.12426334635,5.0187122138,0.0,0.0,0.0,1.0
1609056043039187050,2101,1609056043039187050,1.71720677083,-4.16544904873,5.01924596327,0.0,0.0,0.0,1.0
1609056043088833905,2102,1609056043088833905,1.70155947661,-4.20566718973,5.01948147702,0.0,0.0,0.0,1.0
1609056043138806916,2103,1609056043138806916,1.67464187171,-4.28483733487,5.01995864451,0.0,0.0,0.0,1.0
1609056043187171078,2104,1609056043187171078,1.65692290245,-4.32533004948,5.02060560591,0.0,0.0,0.0,1.0
1609056043237470961,2105,1609056043237470961,1.64384795097,-4.36527848084,5.02139017536,0.0,0.0,0.0,1.0
