%time,field.header.seq,field.header.stamp,field.pose.position.x,field.pose.position.y,field.pose.position.z,field.pose.orientation.x,field.pose.orientation.y,field.pose.orientation.z,field.pose.orientation.w
1609060363469351911,2734,1609060363469351911,0.000352647179334,-0.000128287925993,-0.000155817087489,0.0,0.0,0.0,1.0
1609060363517702007,2735,1609060363517702007,0.000266304851788,2.46035072351e-05,-3.27642931417e-05,0.0,0.0,0.0,1.0
1609060363568032884,2736,1609060363568032884,0.000273958016813,2.32879262043e-05,-4.33157030884e-05,0.0,0.0,0.0,1.0
1609060363616619968,2737,1609060363616619968,0.000455122074726,4.57262354701e-05,-0.000206091919416,0.0,0.0,0.0,1.0
1609060363669232034,2738,1609060363669232034,0.000322823949912,-4.83567539469e-05,6.75101414416e-06,0.0,0.0,0.0,1.0
1609060363717437887,2739,1609060363717437887,0.000309158089735,-5.69169434002e-05,7.87981877792e-06,0.0,0.0,0.0,1.0
1609060363769132995,2740,1609060363769132995,0.000313077357109,-5.6830624203e-05,3.71032373536e-06,0.0,0.0,0.0,1.0
1609060363816620969,2741,1609060363816620969,0.000357567428022,-0.000119009569413,-0.000146163293024,0.0,0.0,0.0,1.0
1609060363869218969,2742,1609060363869218969,0.000265599040983,1.98402431693e-05,-3.97217635779e-05,0.0,0.0,0.0,1.0
1609060363918718004,2743,1609060363918718004,0.00045098674229,3.4524764196e-05,3.88971390208e-07,0.0,0.0,0.0,1.0
1609060363968428993,2744,1609060363968428993,0.000272344677736,2.07699057313e-05,-4.56298988532e-05,0.0,0.0,0.0,1.0
1609060364018787050,2745,1609060364018787050,0.000364011714215,-0.000124076112762,-0.000161475255833,0.0,0.0,0.0,1.0
1609060364067788028,2746,1609060364067788028,0.000268083643945,2.2408751196e-05,-3.82836417643e-05,0.0,0.0,0.0,1.0
1609060364119419956,2747,1609060364119419956,0.000327209795749,-4.44057200859e-05,8.34317916443e-06,0.0,0.0,0.0,1.0
1609060364166568899,2748,1609060364166568899,0.000259032073167,1.88302793518e-05,-3.41404649582e-05,0.0,0.0,0.0,1.0
1609060364220535898,2749,1609060364220535898,0.000351739520976,-0.000123126199647,-0.000146438613001,0.0,0.0,0.0,1.0
1609060364269806051,2750,1609060364269806051,0.0004495158196,6.55559326255e-05,-0.000167732342025,0.0,0.0,0.0,1.0
1609060364317872905,2751,1609060364317872905,0.000410911334111,0.000120631429432,-3.5863379324e-05,0.0,0.0,0.0,1.0
1609060364369444990,2752,1609060364369444990,0.000506973981782,-2.2316880866e-05,-0.000153461170104,0.0,0.0,0.0,1.0
1609060364418934011,2753,1609060364418934011,0.000302656387621,-5.28056102915e-05,-0.000198416199478,0.0,0.0,0.0,1.0
1609060364470549964,2754,1609060364470549964,0.000306290088567,-5.94717256206e-05,-0.000213234677066,0.0,0.0,0.0,1.0
1609060364516580963,2755,1609060364516580963,0.000320214791351,-6.1599936501e-05,-0.000232001421537,0.0,0.0,0.0,1.0
1609060364568826103,2756,1609060364568826103,0.000270386100699,4.29958858206e-06,-7.02172245575e-05,0.0,0.0,0.0,1.0
1609060364618486070,2757,1609060364618486070,0.000364371774836,-0.000146096985883,2.24963453057e-05,0.0,0.0,0.0,1.0
1609060364666870021,2758,1609060364666870021,0.000403414687032,9.13643033158e-05,-7.51379791204e-05,0.0,0.0,0.0,1.0
1609060364718618059,2759,1609060364718618059,0.000473404606918,3.11656000633e-05,-2.97154849491e-05,0.0,0.0,0.0,1.0
1609060364766617918,2760,1609060364766617918,0.000310502916406,-4.64236317015e-05,-0.000196682587749,0.0,0.0,0.0,1.0
1609060364816910886,2761,1609060364816910886,0.00038837663994,0.000111312753667,-2.62140642207e-05,0.0,0.0,0.0,1.0
1609060364866989994,2762,1609060364866989994,0.000290332972991,-3.3731941393e-05,-0.000153897985101,0.0,0.0,0.0,1.0
1609060364917939090,2763,1609060364917939090,0.000317779433697,-3.31605693695e-05,3.69703712124e-05,0.0,0.0,0.0,1.0
1609060364968490028,2764,1609060364968490028,0.000252330373922,3.33015962539e-05,-3.27574188219e-06,0.0,0.0,0.0,1.0
1609060365018791103,2765,1609060365018791103,0.000348575452175,-0.000112449013589,-0.000125624253371,0.0,0.0,0.0,1.0
1609060365069585943,2766,1609060365069585943,0.000349153289015,-0.000110340515203,-0.000122836338303,0.0,0.0,0.0,1.0
1609060365116973066,2767,1609060365116973066,0.000294942222741,-4.10772091648e-05,-0.000170891871786,0.0,0.0,0.0,1.0
1609060365167543077,2768,1609060365167543077,0.000457232559416,-5.0458840704e-05,-0.000144456872299,0.0,0.0,0.0,1.0
1609060365216736936,2769,1609060365216736936,0.000484481197258,-5.63155205633e-05,-0.000183927775456,0.0,0.0,0.0,1.0
1609060365269127035,2770,1609060365269127035,0.00039057604155,0.000110342699717,-0.000250327849056,0.0,0.0,0.0,1.0
1609060365317117118,2771,1609060365317117118,0.000114215658645,-8.30575793813e-05,-4.03227781938e-05,0.0,0.0,0.0,1.0
1609060365368605995,2772,1609060365368605995,6.50350845461e-05,-7.11512821994e-07,-7.2668919568e-05,0.0,0.0,0.0,1.0
1609060365419071102,2773,1609060365419071102,6.43694079585e-05,-1.31295116113e-05,-9.20985830284e-05,0.0,0.0,0.0,1.0
1609060365467614078,2774,1609060365467614078,0.000111059813214,-8.93266662025e-05,-4.70309474458e-05,0.0,0.0,0.0,1.0
1609060365520151042,2775,1609060365520151042,9.90085859556e-05,-6.01482128566e-05,1.35944594746e-05,0.0,0.0,0.0,1.0
1609060365568041944,2776,1609060365568041944,0.000672148362892,8.77527364196e-06,-6.44834759278e-05,0.0,0.0,0.0,1.0
1609060365618832015,2777,1609060365618832015,0.000682030628834,1.24362571547e-05,-6.94058786443e-05,0.0,0.0,0.0,1.0
1609060365668702983,2778,1609060365668702983,0.000390676521825,0.000124730645545,-6.9577692372e-06,0.0,0.0,0.0,1.0
1609060365716791057,2779,1609060365716791057,0.000166938876468,8.45162353116e-05,-4.6348726638e-05,0.0,0.0,0.0,1.0
1609060365768277072,2780,1609060365768277072,5.37142136068e-05,-4.96170819986e-07,-5.9870705357e-05,0.0,0.0,0.0,1.0
1609060365817838096,2781,1609060365817838096,0.000162657247003,-0.000157148991342,6.23808031719e-06,0.0,0.0,0.0,1.0
1609060365869101905,2782,1609060365869101905,-0.00013098840288,-4.17711170932e-05,-0.000143903102785,0.0,0.0,0.0,1.0
1609060365915625000,2783,1609060365915625000,0.000119453203059,-8.7052553507e-05,-5.25682113484e-05,0.0,0.0,0.0,1.0
1609060365967101955,2784,1609060365967101955,0.000205406808501,-0.000232716377621,-0.00016345870338,0.0,0.0,0.0,1.0
1609060366017361068,2785,1609060366017361068,0.000354080378418,-0.00011855822197,-0.000141596167641,0.0,0.0,0.0,1.0
1609060366071129941,2786,1609060366071129941,0.000544709609031,-8.94970763916e-05,-8.39073669354e-05,0.0,0.0,0.0,1.0
1609060366166268014,2787,1609060366166268014,0.000384116935734,-0.000176545352105,-4.86507860806e-05,0.0,0.0,0.0,1.0
1609060366217750930,2788,1609060366217750930,8.78841174021e-05,-0.000368909525054,-3.52285473788e-05,0.0,0.0,0.0,1.0
1609060366266285085,2789,1609060366266285085,9.26784630835e-05,-5.98053559315e-05,2.11118304847e-05,0.0,0.0,0.0,1.0
1609060366319832944,2790,1609060366319832944,-4.72520323385e-05,4.01800401804e-05,0.000117195826455,0.0,0.0,0.0,1.0
1609060366368166112,2791,1609060366368166112,-0.000108372733902,-9.10236942602e-05,-2.86156370812e-05,0.0,0.0,0.0,1.0
1609060366417719030,2792,1609060366417719030,0.000242615352406,-0.000287834224416,0.000146379692232,0.0,0.0,0.0,1.0
1609060366467579984,2793,1609060366467579984,-3.40019136971e-05,-0.000166907262816,-1.3476891418e-05,0.0,0.0,0.0,1.0
1609060366517288112,2794,1609060366517288112,0.000236428952206,-0.000296243145268,-8.05910401276e-05,0.0,0.0,0.0,1.0
1609060366569877052,2795,1609060366569877052,0.000393388570789,0.000124567704592,-1.02044842087e-05,0.0,0.0,0.0,1.0
1609060366617144012,2796,1609060366617144012,0.000385275130025,-0.000309961104069,0.000173705972855,0.0,0.0,0.0,1.0
1609060366668351078,2797,1609060366668351078,0.000403791593385,0.000110578859971,0.000175766577197,0.0,0.0,0.0,1.0
1609060366715952062,2798,1609060366715952062,-0.000613854007732,-6.07050433743e-05,0.000356339077772,0.0,0.0,0.0,1.0
1609060366768293046,2799,1609060366768293046,-0.000306124657332,-0.000446384154351,5.21283407373e-05,0.0,0.0,0.0,1.0
1609060366818122053,2800,1609060366818122053,0.00102425604445,0.00013784406185,-2.19755433228e-05,0.0,0.0,0.0,1.0
1609060366867343091,2801,1609060366867343091,0.0004181423873,0.000152064976579,0.000227343887268,0.0,0.0,0.0,1.0
1609060366917597913,2802,1609060366917597913,-0.00032563519553,-6.25764994737e-05,0.000476608861668,0.0,0.0,0.0,1.0
1609060366967342042,2803,1609060366967342042,0.00165629323142,-7.1271572935e-05,4.41466586025e-05,0.0,0.0,0.0,1.0
1609060367018635892,2804,1609060367018635892,0.000802164988205,0.00034147842354,0.000332733362089,0.0,0.0,0.0,1.0
1609060367066862964,2805,1609060367066862964,-0.000590913787494,8.62311280549e-05,0.00100994798057,0.0,0.0,0.0,1.0
1609060367120592021,2806,1609060367120592021,0.000176782209987,-0.000147326873662,0.000446900330918,0.0,0.0,0.0,1.0
1609060367168382072,2807,1609060367168382072,0.000698039584005,7.51064641484e-05,0.000454988036914,0.0,0.0,0.0,1.0
1609060367220066928,2808,1609060367220066928,-0.000617461166573,3.64552836132e-05,0.000738189200256,0.0,0.0,0.0,1.0
1609060367268804931,2809,1609060367268804931,-0.000389047219276,-0.000109274880433,0.000690649431021,0.0,0.0,0.0,1.0
1609060367316627883,2810,1609060367316627883,0.000459080561022,-6.99373531852e-05,0.000482253388572,0.0,0.0,0.0,1.0
1609060367374566936,2811,1609060367374566936,-1.31722535031e-05,-0.000190865470877,0.000585093184693,0.0,0.0,0.0,1.0
1609060367419721984,2812,1609060367419721984,7.17376333554e-05,-2.39667290352e-05,0.000762705808608,0.0,0.0,0.0,1.0
1609060367468985939,2813,1609060367468985939,0.000775382792302,0.000165729231625,0.000517079795259,0.0,0.0,0.0,1.0
1609060367518623018,2814,1609060367518623018,0.00100530006792,0.00019104492079,0.000525491781605,0.0,0.0,0.0,1.0
1609060367566896104,2815,1609060367566896104,0.000889958550189,-1.83743155553e-05,0.000532424068282,0.0,0.0,0.0,1.0
1609060367616783046,2816,1609060367616783046,0.00101096924337,0.000152422214597,0.000676674252254,0.0,0.0,0.0,1.0
1609060367668949985,2817,1609060367668949985,0.00073031523803,-8.50943419231e-05,0.000379515226669,0.0,0.0,0.0,1.0
1609060367718545103,2818,1609060367718545103,0.000397580691079,-0.000209806346227,0.000542910591996,0.0,0.0,0.0,1.0
1609060367765889072,2819,1609060367765889072,0.000105200927052,-7.88620547993e-05,0.000416649324883,0.0,0.0,0.0,1.0
1609060367817234897,2820,1609060367817234897,0.000242984064389,1.01383571973e-05,0.000409641319244,0.0,0.0,0.0,1.0
1609060367868952894,2821,1609060367868952894,0.000339713121448,-0.000142812999702,0.000495190210977,0.0,0.0,0.0,1.0
1609060367922713899,2822,1609060367922713899,-0.000142039585278,-3.84171889003e-05,0.000754197924518,0.0,0.0,0.0,1.0
1609060367968738937,2823,1609060367968738937,-0.00111306076248,-0.000305982053099,0.00116747831905,0.0,0.0,0.0,1.0
1609060368018197917,2824,1609060368018197917,-0.00259134042902,-0.000469840347073,0.00142655703437,0.0,0.0,0.0,1.0
1609060368068566942,2825,1609060368068566942,-0.00448522661172,-0.00135184179695,0.00163731231133,0.0,0.0,0.0,1.0
1609060368117813968,2826,1609060368117813968,-0.0070085974774,-0.00217104626986,0.00176219152289,0.0,0.0,0.0,1.0
1609060368170260095,2827,1609060368170260095,-0.00898175377201,-0.00268633871957,0.00155534879198,0.0,0.0,0.0,1.0
1609060368217667007,2828,1609060368217667007,-0.0118178579624,-0.00385111427481,0.0014639958779,0.0,0.0,0.0,1.0
1609060368267810964,2829,1609060368267810964,-0.0126386254943,-0.00385263622265,0.00148409520246,0.0,0.0,0.0,1.0
1609060368318668985,2830,1609060368318668985,-0.0128007294425,-0.00391681231612,0.00199861574654,0.0,0.0,0.0,1.0
1609060368367309951,2831,1609060368367309951,-0.0127013185026,-0.0037570350058,0.00236878914916,0.0,0.0,0.0,1.0
1609060368424606943,2832,1609060368424606943,-0.0122590845359,-0.00380754499188,0.0029009405219,0.0,0.0,0.0,1.0
1609060368476237916,2833,1609060368476237916,-0.0101129756709,-0.00295200870904,0.0041300698965,0.0,0.0,0.0,1.0
1609060368523241901,2834,1609060368523241901,-0.00962258089431,-0.00302474454769,0.0052337672304,0.0,0.0,0.0,1.0
1609060368573940896,2835,1609060368573940896,-0.00866614976539,-0.0025353914308,0.00673746993864,0.0,0.0,0.0,1.0
1609060368625032091,2836,1609060368625032091,-0.00848532803768,-0.00180857856166,0.00926049338374,0.0,0.0,0.0,1.0
1609060368676412963,2837,1609060368676412963,-0.00842687113319,-0.000540116037506,0.0139000290638,0.0,0.0,0.0,1.0
1609060368725769901,2838,1609060368725769901,-0.00698066768825,0.00138715149403,0.0209479159803,0.0,0.0,0.0,1.0
1609060368777173900,2839,1609060368777173900,-0.00386305212983,0.0031643262324,0.0437740361325,0.0,0.0,0.0,1.0
1609060368824648046,2840,1609060368824648046,-0.00304125571477,0.00422418867081,0.0626905236698,0.0,0.0,0.0,1.0
1609060368875344896,2841,1609060368875344896,-0.00110486939531,0.00557343777252,0.0830746244529,0.0,0.0,0.0,1.0
1609060368923364067,2842,1609060368923364067,0.00111121782328,0.00826701339281,0.110012052535,0.0,0.0,0.0,1.0
1609060368974891090,2843,1609060368974891090,0.00161682281267,0.0092259345649,0.139364635954,0.0,0.0,0.0,1.0
1609060369023996019,2844,1609060369023996019,0.00602677228617,0.0140359685316,0.208056706467,0.0,0.0,0.0,1.0
1609060369076563024,2845,1609060369076563024,0.00564594251584,0.0162773519663,0.250225514419,0.0,0.0,0.0,1.0
1609060369122320079,2846,1609060369122320079,0.00652543018205,0.0186014960591,0.295004926569,0.0,0.0,0.0,1.0
1609060369175933027,2847,1609060369175933027,0.00547503450008,0.0215911953128,0.345836221034,0.0,0.0,0.0,1.0
1609060369225181007,2848,1609060369225181007,0.00446088017638,0.0250121640034,0.400167667034,0.0,0.0,0.0,1.0
1609060369277877950,2849,1609060369277877950,0.00367051715437,0.0315446810142,0.514357304807,0.0,0.0,0.0,1.0
1609060369325048112,2850,1609060369325048112,0.00222484388208,0.0359877525469,0.576799260516,0.0,0.0,0.0,1.0
1609060369375655078,2851,1609060369375655078,0.00098634471577,0.0391513287721,0.639772379528,0.0,0.0,0.0,1.0
1609060369423925065,2852,1609060369423925065,-0.00111600281735,0.042314622858,0.705078996814,0.0,0.0,0.0,1.0
1609060369476324939,2853,1609060369476324939,-0.00415633650534,0.0452574701301,0.774513121035,0.0,0.0,0.0,1.0
1609060369526210927,2854,1609060369526210927,-0.0109005376809,0.0502916487189,0.909076917302,0.0,0.0,0.0,1.0
1609060369576456928,2855,1609060369576456928,-0.0169391477668,0.0518969563002,0.979990539961,0.0,0.0,0.0,1.0
1609060369624904060,2856,1609060369624904060,-0.0221751544546,0.0515267892094,1.04704323124,0.0,0.0,0.0,1.0
1609060369676457071,2857,1609060369676457071,-0.0276734291602,0.050771760662,1.11304254099,0.0,0.0,0.0,1.0
1609060369724965953,2858,1609060369724965953,-0.0321179208292,0.0501630124785,1.17711536107,0.0,0.0,0.0,1.0
1609060369776528978,2859,1609060369776528978,-0.0357909576234,0.0466197574589,1.23932618933,0.0,0.0,0.0,1.0
1609060369824361944,2860,1609060369824361944,-0.048315656297,0.0414101325688,1.36254944536,0.0,0.0,0.0,1.0
1609060369874984884,2861,1609060369874984884,-0.0533309029564,0.0364745012048,1.42025469036,0.0,0.0,0.0,1.0
1609060369922994041,2862,1609060369922994041,-0.0586783609115,0.032198394283,1.4770998279,0.0,0.0,0.0,1.0
1609060369973376893,2863,1609060369973376893,-0.0650838314303,0.0239662006996,1.5326180704,0.0,0.0,0.0,1.0
1609060370024845981,2864,1609060370024845981,-0.0723776284433,0.0160044116517,1.5881924752,0.0,0.0,0.0,1.0
1609060370077591085,2865,1609060370077591085,-0.0834313696738,-0.00463055380109,1.69253106034,0.0,0.0,0.0,1.0
1609060370131295108,2866,1609060370131295108,-0.0897874158524,-0.0149492604032,1.74532564262,0.0,0.0,0.0,1.0
1609060370176068925,2867,1609060370176068925,-0.0968695673138,-0.0264829798855,1.79768340723,0.0,0.0,0.0,1.0
1609060370225592994,2868,1609060370225592994,-0.103631682695,-0.0389520067212,1.85050525012,0.0,0.0,0.0,1.0
1609060370274984025,2869,1609060370274984025,-0.110097413302,-0.0527602718288,1.90211648794,0.0,0.0,0.0,1.0
1609060370332502031,2870,1609060370332502031,-0.125957451314,-0.0821647412513,2.01223554409,0.0,0.0,0.0,1.0
1609060370379465007,2871,1609060370379465007,-0.132146366423,-0.0976391122798,2.06429099664,0.0,0.0,0.0,1.0
1609060370424487018,2872,1609060370424487018,-0.138970157635,-0.113620467202,2.11414890272,0.0,0.0,0.0,1.0
1609060370475897932,2873,1609060370475897932,-0.146695647236,-0.130204811019,2.16514745089,0.0,0.0,0.0,1.0
1609060370524448060,2874,1609060370524448060,-0.153378896949,-0.146180621422,2.21805627144,0.0,0.0,0.0,1.0
1609060370576018953,2875,1609060370576018953,-0.160283271086,-0.161757085389,2.27115044308,0.0,0.0,0.0,1.0
1609060370625375890,2876,1609060370625375890,-0.176451612885,-0.193992805843,2.37532868512,0.0,0.0,0.0,1.0
1609060370675712013,2877,1609060370675712013,-0.184377598019,-0.209235434214,2.42957760447,0.0,0.0,0.0,1.0
1609060370723781013,2878,1609060370723781013,-0.191083444059,-0.223693644563,2.47888895972,0.0,0.0,0.0,1.0
1609060370775206947,2879,1609060370775206947,-0.200568807993,-0.238917265188,2.53051087498,0.0,0.0,0.0,1.0
1609060370824607992,2880,1609060370824607992,-0.210445222577,-0.252993011642,2.57995283891,0.0,0.0,0.0,1.0
1609060370877348089,2881,1609060370877348089,-0.223900228312,-0.280567611085,2.66576405263,0.0,0.0,0.0,1.0
1609060370923454904,2882,1609060370923454904,-0.232597662883,-0.2940213787,2.70536919149,0.0,0.0,0.0,1.0
1609060370976180934,2883,1609060370976180934,-0.240827340772,-0.306444307464,2.74287494686,0.0,0.0,0.0,1.0
1609060371024459028,2884,1609060371024459028,-0.248395824206,-0.31808617076,2.77880011707,0.0,0.0,0.0,1.0
1609060371076409959,2885,1609060371076409959,-0.255354368022,-0.329789166424,2.8126022676,0.0,0.0,0.0,1.0
1609060371125555896,2886,1609060371125555896,-0.262940383151,-0.341479720007,2.84300766731,0.0,0.0,0.0,1.0
1609060371175806903,2887,1609060371175806903,-0.276828065161,-0.363164402643,2.90451984338,0.0,0.0,0.0,1.0
1609060371226459884,2888,1609060371226459884,-0.28285521159,-0.373743247365,2.93182476647,0.0,0.0,0.0,1.0
1609060371275564098,2889,1609060371275564098,-0.290110462129,-0.384411233245,2.95963531779,0.0,0.0,0.0,1.0
1609060371322874927,2890,1609060371322874927,-0.295871900424,-0.394180165334,2.98567874976,0.0,0.0,0.0,1.0
1609060371381882095,2891,1609060371381882095,-0.306265602624,-0.414011999161,3.03578787466,0.0,0.0,0.0,1.0
1609060371425695085,2892,1609060371425695085,-0.312094368131,-0.424202562962,3.06071013408,0.0,0.0,0.0,1.0
1609060371476237916,2893,1609060371476237916,-0.316266270204,-0.433729930068,3.08496348776,0.0,0.0,0.0,1.0
1609060371523342037,2894,1609060371523342037,-0.320262402795,-0.442943324582,3.10859096364,0.0,0.0,0.0,1.0
1609060371576234960,2895,1609060371576234960,-0.324850773848,-0.453096608643,3.13329462779,0.0,0.0,0.0,1.0
1609060371625575923,2896,1609060371625575923,-0.329130856737,-0.462328652103,3.15760187778,0.0,0.0,0.0,1.0
1609060371677156114,2897,1609060371677156114,-0.33609109887,-0.48109274772,3.21028497633,0.0,0.0,0.0,1.0
1609060371723249101,2898,1609060371723249101,-0.338919177039,-0.490106750788,3.2318284424,0.0,0.0,0.0,1.0
1609060371773763084,2899,1609060371773763084,-0.341977640577,-0.499358827137,3.25533140464,0.0,0.0,0.0,1.0
1609060371824518108,2900,1609060371824518108,-0.344228458881,-0.507845517283,3.27664896704,0.0,0.0,0.0,1.0
1609060371877555036,2901,1609060371877555036,-0.346992589428,-0.51747406597,3.29853923441,0.0,0.0,0.0,1.0
1609060371924981975,2902,1609060371924981975,-0.352742979717,-0.534766092503,3.34450381226,0.0,0.0,0.0,1.0
1609060371975532913,2903,1609060371975532913,-0.355778269324,-0.542945984254,3.36998857287,0.0,0.0,0.0,1.0
1609060372022653007,2904,1609060372022653007,-0.358431257966,-0.550976754761,3.39711026093,0.0,0.0,0.0,1.0
1609060372076373958,2905,1609060372076373958,-0.360854492415,-0.559106565029,3.43059213281,0.0,0.0,0.0,1.0
1609060372125910902,2906,1609060372125910902,-0.363383761464,-0.566907763284,3.46388823391,0.0,0.0,0.0,1.0
1609060372175580883,2907,1609060372175580883,-0.369859639186,-0.585870174321,3.52727349063,0.0,0.0,0.0,1.0
1609060372223182106,2908,1609060372223182106,-0.374836192918,-0.595417886336,3.55700909778,0.0,0.0,0.0,1.0
1609060372275930070,2909,1609060372275930070,-0.380866920958,-0.604897357608,3.58206306508,0.0,0.0,0.0,1.0
1609060372325079107,2910,1609060372325079107,-0.388001281647,-0.615304957803,3.60659596697,0.0,0.0,0.0,1.0
1609060372376758003,2911,1609060372376758003,-0.394522127439,-0.625191930674,3.62841974594,0.0,0.0,0.0,1.0
1609060372429697895,2912,1609060372429697895,-0.406105728782,-0.64379019608,3.65912877166,0.0,0.0,0.0,1.0
1609060372476098918,2913,1609060372476098918,-0.413418561603,-0.653739830027,3.67004061039,0.0,0.0,0.0,1.0
1609060372524174118,2914,1609060372524174118,-0.421934081057,-0.66358871348,3.679157219,0.0,0.0,0.0,1.0
1609060372576765918,2915,1609060372576765918,-0.432160168016,-0.674308576863,3.68711413373,0.0,0.0,0.0,1.0
1609060372625240945,2916,1609060372625240945,-0.444138522559,-0.685748880514,3.69294470253,0.0,0.0,0.0,1.0
1609060372677777910,2917,1609060372677777910,-0.472182361711,-0.709984860112,3.70086373569,0.0,0.0,0.0,1.0
1609060372722868108,2918,1609060372722868108,-0.48727087133,-0.721973899701,3.70291640874,0.0,0.0,0.0,1.0
1609060372775847101,2919,1609060372775847101,-0.505848082502,-0.735761743521,3.70425627153,0.0,0.0,0.0,1.0
1609060372825338983,2920,1609060372825338983,-0.526069983524,-0.750295347135,3.70463387849,0.0,0.0,0.0,1.0
1609060372877873086,2921,1609060372877873086,-0.547754742236,-0.764950796677,3.70451865582,0.0,0.0,0.0,1.0
1609060372926479959,2922,1609060372926479959,-0.593420071766,-0.795760926135,3.7036770418,0.0,0.0,0.0,1.0
1609060372973801994,2923,1609060372973801994,-0.620897279417,-0.813488992381,3.70299315255,0.0,0.0,0.0,1.0
1609060373024541997,2924,1609060373024541997,-0.646525992162,-0.82896340848,3.70182986116,0.0,0.0,0.0,1.0
1609060373076001071,2925,1609060373076001071,-0.675289520342,-0.846026814714,3.70075930596,0.0,0.0,0.0,1.0
1609060373124035978,2926,1609060373124035978,-0.709971378423,-0.86734576587,3.69957674614,0.0,0.0,0.0,1.0
1609060373180086040,2927,1609060373180086040,-0.776686276472,-0.90583184246,3.6972161062,0.0,0.0,0.0,1.0
1609060373223744058,2928,1609060373223744058,-0.80992038789,-0.924243834599,3.69634556995,0.0,0.0,0.0,1.0
1609060373277434015,2929,1609060373277434015,-0.848077978375,-0.945595600495,3.69530957902,0.0,0.0,0.0,1.0
1609060373323574924,2930,1609060373323574924,-0.886660875863,-0.966654443541,3.69401914723,0.0,0.0,0.0,1.0
1609060373374324941,2931,1609060373374324941,-0.927886646111,-0.989412251122,3.69309725308,0.0,0.0,0.0,1.0
1609060373424693012,2932,1609060373424693012,-0.968898001028,-1.01180054873,3.69168904801,0.0,0.0,0.0,1.0
1609060373477024936,2933,1609060373477024936,-1.05187955047,-1.05688381628,3.688286607,0.0,0.0,0.0,1.0
1609060373523667955,2934,1609060373523667955,-1.09451231682,-1.07966657044,3.68737334523,0.0,0.0,0.0,1.0
1609060373575177097,2935,1609060373575177097,-1.13791334118,-1.10173104335,3.6865233915,0.0,0.0,0.0,1.0
1609060373624744081,2936,1609060373624744081,-1.18111511357,-1.12505938378,3.68598205423,0.0,0.0,0.0,1.0
1609060373678224945,2937,1609060373678224945,-1.22689077904,-1.14961917162,3.68594354624,0.0,0.0,0.0,1.0
1609060373725804948,2938,1609060373725804948,-1.31300193613,-1.19501451409,3.68621079807,0.0,0.0,0.0,1.0
1609060373776235961,2939,1609060373776235961,-1.35572903236,-1.21815431072,3.68577035179,0.0,0.0,0.0,1.0
1609060373823960924,2940,1609060373823960924,-1.39910419893,-1.24036498839,3.68724123298,0.0,0.0,0.0,1.0
1609060373877855920,2941,1609060373877855920,-1.44235300763,-1.26290050377,3.68778482345,0.0,0.0,0.0,1.0
1609060373925863885,2942,1609060373925863885,-1.48444462517,-1.28521125315,3.68799935226,0.0,0.0,0.0,1.0
1609060373976363086,2943,1609060373976363086,-1.56741430815,-1.32870828853,3.6876880015,0.0,0.0,0.0,1.0
1609060374024655008,2944,1609060374024655008,-1.60721412863,-1.34839172847,3.68712882713,0.0,0.0,0.0,1.0
1609060374074808025,2945,1609060374074808025,-1.64902355768,-1.36989438018,3.68699831138,0.0,0.0,0.0,1.0
1609060374125482940,2946,1609060374125482940,-1.68557406837,-1.38805079711,3.68638172127,0.0,0.0,0.0,1.0
1609060374175988101,2947,1609060374175988101,-1.72323900395,-1.40754613805,3.68683586218,0.0,0.0,0.0,1.0
1609060374224301958,2948,1609060374224301958,-1.79791787583,-1.44486579752,3.68799687707,0.0,0.0,0.0,1.0
1609060374275952005,2949,1609060374275952005,-1.83505658643,-1.46384936556,3.6895667875,0.0,0.0,0.0,1.0
1609060374324405097,2950,1609060374324405097,-1.86896592518,-1.48126336193,3.69070618016,0.0,0.0,0.0,1.0
1609060374377849960,2951,1609060374377849960,-1.90357017788,-1.49919723513,3.69173631381,0.0,0.0,0.0,1.0
1609060374432548904,2952,1609060374432548904,-1.96848000243,-1.53202074359,3.69449984607,0.0,0.0,0.0,1.0
1609060374480001115,2953,1609060374480001115,-1.99759812002,-1.54654584993,3.69561511843,0.0,0.0,0.0,1.0
1609060374523640060,2954,1609060374523640060,-2.02602519416,-1.56116872886,3.69688706991,0.0,0.0,0.0,1.0
1609060374575245046,2955,1609060374575245046,-2.05703928447,-1.57693226191,3.6978761909,0.0,0.0,0.0,1.0
1609060374626283073,2956,1609060374626283073,-2.08374827853,-1.59091020495,3.69896225441,0.0,0.0,0.0,1.0
1609060374675654077,2957,1609060374675654077,-2.11077883246,-1.60489867352,3.70005686361,0.0,0.0,0.0,1.0
1609060374723822975,2958,1609060374723822975,-2.16796386295,-1.63448267644,3.70312174765,0.0,0.0,0.0,1.0
1609060374773188972,2959,1609060374773188972,-2.19603354524,-1.6487927228,3.70515637186,0.0,0.0,0.0,1.0
1609060374824628019,2960,1609060374824628019,-2.22214869431,-1.66271231102,3.70657462882,0.0,0.0,0.0,1.0
1609060374877427959,2961,1609060374877427959,-2.24862286524,-1.67667716076,3.70826275709,0.0,0.0,0.0,1.0
1609060374925567054,2962,1609060374925567054,-2.27452033979,-1.68997463112,3.70986922279,0.0,0.0,0.0,1.0
1609060374975277090,2963,1609060374975277090,-2.3289531649,-1.71904948598,3.71206427493,0.0,0.0,0.0,1.0
1609060375024696016,2964,1609060375024696016,-2.35525654169,-1.73348371787,3.71256384262,0.0,0.0,0.0,1.0
1609060375075797939,2965,1609060375075797939,-2.38094841396,-1.74789527432,3.71301513174,0.0,0.0,0.0,1.0
1609060375126281881,2966,1609060375126281881,-2.40622511674,-1.76180566603,3.71276670871,0.0,0.0,0.0,1.0
1609060375176793003,2967,1609060375176793003,-2.43083521743,-1.77568204872,3.71239748785,0.0,0.0,0.0,1.0
1609060375225217962,2968,1609060375225217962,-2.4820203765,-1.8035899364,3.71222393028,0.0,0.0,0.0,1.0
1609060375275624895,2969,1609060375275624895,-2.50846754558,-1.8179743453,3.71180975189,0.0,0.0,0.0,1.0
1609060375323940896,2970,1609060375323940896,-2.53516104541,-1.83281468155,3.71124026909,0.0,0.0,0.0,1.0
1609060375377138042,2971,1609060375377138042,-2.56266661354,-1.84804556754,3.71073708999,0.0,0.0,0.0,1.0
1609060375425173902,2972,1609060375425173902,-2.58902118385,-1.86275100205,3.710833725,0.0,0.0,0.0,1.0
1609060375476771974,2973,1609060375476771974,-2.64448925332,-1.89388723382,3.71014674687,0.0,0.0,0.0,1.0
1609060375524784946,2974,1609060375524784946,-2.66887514595,-1.9073983285,3.71013974048,0.0,0.0,0.0,1.0
1609060375575092935,2975,1609060375575092935,-2.69518190786,-1.92173461479,3.70978696333,0.0,0.0,0.0,1.0
1609060375626551055,2976,1609060375626551055,-2.72137194582,-1.93657440187,3.70942099868,0.0,0.0,0.0,1.0
1609060375677131080,2977,1609060375677131080,-2.74840914607,-1.95194176527,3.70892563562,0.0,0.0,0.0,1.0
1609060375728677892,2978,1609060375728677892,-2.79981962646,-1.97974318513,3.70733520046,0.0,0.0,0.0,1.0
1609060375773073101,2979,1609060375773073101,-2.82608986412,-1.9940851816,3.7061540316,0.0,0.0,0.0,1.0
1609060375823648118,2980,1609060375823648118,-2.85010361855,-2.00668572634,3.70528071655,0.0,0.0,0.0,1.0
1609060375876315975,2981,1609060375876315975,-2.87790984326,-2.02232808479,3.70420682545,0.0,0.0,0.0,1.0
1609060375925799989,2982,1609060375925799989,-2.90472678179,-2.03738258692,3.70273337912,0.0,0.0,0.0,1.0
1609060375977323913,2983,1609060375977323913,-2.95576072717,-2.06479413846,3.69932203221,0.0,0.0,0.0,1.0
1609060376024099016,2984,1609060376024099016,-2.98066031353,-2.07792012984,3.69727373893,0.0,0.0,0.0,1.0
1609060376076449060,2985,1609060376076449060,-3.00610308008,-2.09179908897,3.69472297256,0.0,0.0,0.0,1.0
1609060376129224920,2986,1609060376129224920,-3.03018667954,-2.10507917907,3.69197775719,0.0,0.0,0.0,1.0
1609060376176423931,2987,1609060376176423931,-3.05468592822,-2.11832904377,3.68839952929,0.0,0.0,0.0,1.0
1609060376224506998,2988,1609060376224506998,-3.10321227385,-2.14514833948,3.68056951279,0.0,0.0,0.0,1.0
1609060376275020027,2989,1609060376275020027,-3.12754663196,-2.15845246121,3.67651394593,0.0,0.0,0.0,1.0
1609060376324153089,2990,1609060376324153089,-3.1494160544,-2.17067677955,3.67189592771,0.0,0.0,0.0,1.0
1609060376376890087,2991,1609060376376890087,-3.17269245649,-2.1838603397,3.66671596035,0.0,0.0,0.0,1.0
1609060376425125980,2992,1609060376425125980,-3.19377346002,-2.19591072649,3.66258311677,0.0,0.0,0.0,1.0
1609060376479103946,2993,1609060376479103946,-3.21646704853,-2.20894126771,3.65764873011,0.0,0.0,0.0,1.0
1609060376524039888,2994,1609060376524039888,-3.25854555136,-2.23208938093,3.6480342709,0.0,0.0,0.0,1.0
1609060376576708936,2995,1609060376576708936,-3.27879967501,-2.24418429034,3.64290374446,0.0,0.0,0.0,1.0
1609060376624075078,2996,1609060376624075078,-3.2980040636,-2.25598708543,3.63853397616,0.0,0.0,0.0,1.0
1609060376677000904,2997,1609060376677000904,-3.31651706409,-2.26752211859,3.63384356684,0.0,0.0,0.0,1.0
1609060376726061964,2998,1609060376726061964,-3.35238858695,-2.28832541847,3.62614624497,0.0,0.0,0.0,1.0
1609060376776576900,2999,1609060376776576900,-3.37031754025,-2.29989848833,3.62133389749,0.0,0.0,0.0,1.0
1609060376825327062,3000,1609060376825327062,-3.38606699903,-2.31045268074,3.61705130156,0.0,0.0,0.0,1.0
1609060376875717067,3001,1609060376875717067,-3.40172982687,-2.32064569662,3.6122564672,0.0,0.0,0.0,1.0
1609060376923955106,3002,1609060376923955106,-3.41744157847,-2.33050879017,3.60684317432,0.0,0.0,0.0,1.0
1609060376978782081,3003,1609060376978782081,-3.43253895305,-2.34099097478,3.60089536715,0.0,0.0,0.0,1.0
1609060377024702930,3004,1609060377024702930,-3.4584596827,-2.3585094766,3.58986617421,0.0,0.0,0.0,1.0
1609060377076284074,3005,1609060377076284074,-3.47231487332,-2.36871736731,3.58326716671,0.0,0.0,0.0,1.0
1609060377125342988,3006,1609060377125342988,-3.48457684173,-2.3781043602,3.57695432135,0.0,0.0,0.0,1.0
1609060377175763988,3007,1609060377175763988,-3.49552074414,-2.38664470202,3.57061644827,0.0,0.0,0.0,1.0
1609060377224970006,3008,1609060377224970006,-3.50647449139,-2.39522712635,3.56423237621,0.0,0.0,0.0,1.0
1609060377276503944,3009,1609060377276503944,-3.52665929555,-2.41130911667,3.55097206145,0.0,0.0,0.0,1.0
1609060377323619985,3010,1609060377323619985,-3.53596219588,-2.41929858793,3.54383196488,0.0,0.0,0.0,1.0
1609060377372980976,3011,1609060377372980976,-3.54435833043,-2.42623639677,3.53664120421,0.0,0.0,0.0,1.0
1609060377424736881,3012,1609060377424736881,-3.55261810456,-2.43384003577,3.52906817712,0.0,0.0,0.0,1.0
1609060377477059984,3013,1609060377477059984,-3.5610061918,-2.44177059338,3.52084190714,0.0,0.0,0.0,1.0
1609060377525355958,3014,1609060377525355958,-3.57574119003,-2.4567459992,3.50379501001,0.0,0.0,0.0,1.0
1609060377573468112,3015,1609060377573468112,-3.58300678154,-2.46430719027,3.49471947528,0.0,0.0,0.0,1.0
1609060377624277973,3016,1609060377624277973,-3.58969170205,-2.47201736702,3.48549638931,0.0,0.0,0.0,1.0
1609060377676570081,3017,1609060377676570081,-3.59534705223,-2.4796324147,3.47584147289,0.0,0.0,0.0,1.0
1609060377724878931,3018,1609060377724878931,-3.60114777813,-2.48765913162,3.46674326267,0.0,0.0,0.0,1.0
1609060377775535011,3019,1609060377775535011,-3.61202297076,-2.50388042826,3.44895109785,0.0,0.0,0.0,1.0
1609060377825144910,3020,1609060377825144910,-3.61643603203,-2.51137459398,3.44019997804,0.0,0.0,0.0,1.0
1609060377875771903,3021,1609060377875771903,-3.62172369403,-2.52084370011,3.43137760255,0.0,0.0,0.0,1.0
1609060377924765014,3022,1609060377924765014,-3.62596587427,-2.52967706363,3.42336028884,0.0,0.0,0.0,1.0
1609060377975740098,3023,1609060377975740098,-3.62958320671,-2.53926101402,3.41481076231,0.0,0.0,0.0,1.0
1609060378024561071,3024,1609060378024561071,-3.63586090647,-2.56049222786,3.39903201318,0.0,0.0,0.0,1.0
1609060378075357103,3025,1609060378075357103,-3.6384643129,-2.5723340334,3.39082182674,0.0,0.0,0.0,1.0
1609060378124581956,3026,1609060378124581956,-3.64017636324,-2.58348152236,3.38270907533,0.0,0.0,0.0,1.0
1609060378174213075,3027,1609060378174213075,-3.64234287971,-2.59675393869,3.37304756047,0.0,0.0,0.0,1.0
1609060378226051950,3028,1609060378226051950,-3.64449844679,-2.60996750379,3.36375930566,0.0,0.0,0.0,1.0
1609060378276415014,3029,1609060378276415014,-3.64540000061,-2.63906977,3.34563501204,0.0,0.0,0.0,1.0
1609060378324060106,3030,1609060378324060106,-3.6457201489,-2.65433423202,3.336803951,0.0,0.0,0.0,1.0
1609060378373277091,3031,1609060378373277091,-3.6455222403,-2.67189850383,3.3279751347,0.0,0.0,0.0,1.0
1609060378423890972,3032,1609060378423890972,-3.64440445607,-2.68768844189,3.32063554548,0.0,0.0,0.0,1.0
1609060378477568054,3033,1609060378477568054,-3.64255557485,-2.70618832129,3.31299782032,0.0,0.0,0.0,1.0
1609060378526171112,3034,1609060378526171112,-3.63859206928,-2.74603733125,3.29876592752,0.0,0.0,0.0,1.0
1609060378574407958,3035,1609060378574407958,-3.63513645694,-2.76620315466,3.29266521941,0.0,0.0,0.0,1.0
1609060378623176002,3036,1609060378623176002,-3.63179021169,-2.7872880311,3.28693855942,0.0,0.0,0.0,1.0
1609060378676959896,3037,1609060378676959896,-3.62805180897,-2.8099032963,3.28124543437,0.0,0.0,0.0,1.0
1609060378726021909,3038,1609060378726021909,-3.62356880697,-2.83218328151,3.27628378893,0.0,0.0,0.0,1.0
1609060378776992940,3039,1609060378776992940,-3.612134117,-2.87905527639,3.27031003106,0.0,0.0,0.0,1.0
1609060378824391031,3040,1609060378824391031,-3.60633251055,-2.90346785182,3.27095381263,0.0,0.0,0.0,1.0
1609060378877188110,3041,1609060378877188110,-3.59905006636,-2.92826500477,3.27428036025,0.0,0.0,0.0,1.0
1609060378925368928,3042,1609060378925368928,-3.59155496477,-2.9531933779,3.27991529283,0.0,0.0,0.0,1.0
1609060378976910972,3043,1609060378976910972,-3.58476579102,-2.98048925824,3.28637857772,0.0,0.0,0.0,1.0
1609060379027351999,3044,1609060379027351999,-3.5683605349,-3.03370983773,3.30349764118,0.0,0.0,0.0,1.0
1609060379074258947,3045,1609060379074258947,-3.55923022787,-3.06175284862,3.31375402188,0.0,0.0,0.0,1.0
1609060379123567008,3046,1609060379123567008,-3.55070779544,-3.08790309959,3.323951413,0.0,0.0,0.0,1.0
1609060379172895097,3047,1609060379172895097,-3.54180321904,-3.11557330989,3.33473851245,0.0,0.0,0.0,1.0
1609060379223832035,3048,1609060379223832035,-3.5319753954,-3.14270099696,3.34579366002,0.0,0.0,0.0,1.0
1609060379278740072,3049,1609060379278740072,-3.51252713502,-3.19974431715,3.36641769804,0.0,0.0,0.0,1.0
1609060379324427032,3050,1609060379324427032,-3.50133920367,-3.22823445744,3.37547117473,0.0,0.0,0.0,1.0
1609060379373706007,3051,1609060379373706007,-3.49068869639,-3.25636384371,3.38369916413,0.0,0.0,0.0,1.0
1609060379424789094,3052,1609060379424789094,-3.48019903766,-3.28375489449,3.3919486607,0.0,0.0,0.0,1.0
1609060379477307939,3053,1609060379477307939,-3.46962618129,-3.31271980041,3.39987535022,0.0,0.0,0.0,1.0
1609060379527546072,3054,1609060379527546072,-3.44547390917,-3.36849989182,3.41418832356,0.0,0.0,0.0,1.0
1609060379574175024,3055,1609060379574175024,-3.43383444885,-3.39777342105,3.41986387745,0.0,0.0,0.0,1.0
1609060379624489927,3056,1609060379624489927,-3.42199647368,-3.42486585773,3.42519784506,0.0,0.0,0.0,1.0
1609060379676283025,3057,1609060379676283025,-3.40904172382,-3.45320154484,3.43121015685,0.0,0.0,0.0,1.0
1609060379725443983,3058,1609060379725443983,-3.39567259941,-3.48163816718,3.43611940835,0.0,0.0,0.0,1.0
1609060379778114938,3059,1609060379778114938,-3.38297950402,-3.50990034111,3.44036135913,0.0,0.0,0.0,1.0
1609060379825517082,3060,1609060379825517082,-3.35537742382,-3.56490804177,3.44771304588,0.0,0.0,0.0,1.0
1609060379876507902,3061,1609060379876507902,-3.34089030763,-3.59394644129,3.45134516062,0.0,0.0,0.0,1.0
1609060379924851083,3062,1609060379924851083,-3.32634939304,-3.62201131753,3.45454453747,0.0,0.0,0.0,1.0
1609060379976314926,3063,1609060379976314926,-3.31143657747,-3.64917314481,3.45796910008,0.0,0.0,0.0,1.0
1609060380025951051,3064,1609060380025951051,-3.29622939662,-3.67721665959,3.4611865839,0.0,0.0,0.0,1.0
1609060380076279067,3065,1609060380076279067,-3.26398116948,-3.73279160953,3.46714527828,0.0,0.0,0.0,1.0
1609060380126964950,3066,1609060380126964950,-3.24762690988,-3.75922881086,3.4698134663,0.0,0.0,0.0,1.0
1609060380175324106,3067,1609060380175324106,-3.23042705246,-3.78759350362,3.47291217161,0.0,0.0,0.0,1.0
1609060380224295043,3068,1609060380224295043,-3.21279366568,-3.81350572532,3.4757504151,0.0,0.0,0.0,1.0
1609060380282178068,3069,1609060380282178068,-3.17708328307,-3.8689312744,3.48087793402,0.0,0.0,0.0,1.0
1609060380327114009,3070,1609060380327114009,-3.15876684855,-3.89359602472,3.48302045912,0.0,0.0,0.0,1.0
1609060380418755912,3071,1609060380418755912,-3.11887758337,-3.94807004057,3.48778821648,0.0,0.0,0.0,1.0
1609060380497652912,3072,1609060380497652912,-3.0778271587,-4.00112624939,3.49217500543,0.0,0.0,0.0,1.0
1609060380579474115,3073,1609060380579474115,-3.03366603707,-4.05530244476,3.4966005712,0.0,0.0,0.0,1.0
1609060380613731050,3074,1609060380613731050,-3.01245970359,-4.08014187606,3.49797917478,0.0,0.0,0.0,1.0
1609060380665153884,3075,1609060380665153884,-2.98945152598,-4.10679248179,3.50000643084,0.0,0.0,0.0,1.0
1609060380732619905,3076,1609060380732619905,-2.94322128173,-4.15844740385,3.50430188808,0.0,0.0,0.0,1.0
1609060380775574111,3077,1609060380775574111,-2.91892517415,-4.1848429919,3.50679451447,0.0,0.0,0.0,1.0
1609060380818601036,3078,1609060380818601036,-2.89561024325,-4.20941030578,3.50916869183,0.0,0.0,0.0,1.0
1609060380869969987,3079,1609060380869969987,-2.86974428419,-4.23572065814,3.51162834648,0.0,0.0,0.0,1.0
1609060380919371032,3080,1609060380919371032,-2.84375778853,-4.2610595353,3.51456562511,0.0,0.0,0.0,1.0
1609060380983446025,3081,1609060380983446025,-2.79239089044,-4.31107412118,3.52028242306,0.0,0.0,0.0,1.0
1609060381026141071,3082,1609060381026141071,-2.76370819001,-4.3382020908,3.52403963321,0.0,0.0,0.0,1.0
1609060381072177076,3083,1609060381072177076,-2.73903810667,-4.36103613352,3.52731010046,0.0,0.0,0.0,1.0
1609060381118996047,3084,1609060381118996047,-2.71272634874,-4.3852754584,3.53065753423,0.0,0.0,0.0,1.0
1609060381169764900,3085,1609060381169764900,-2.68474827031,-4.41016957266,3.53381109882,0.0,0.0,0.0,1.0
1609060381224285030,3086,1609060381224285030,-2.65759947082,-4.43379002122,3.53717377741,0.0,0.0,0.0,1.0
1609060381276951932,3087,1609060381276951932,-2.62938216234,-4.45819369418,3.54157580078,0.0,0.0,0.0,1.0
1609060381325169944,3088,1609060381325169944,-2.57174985322,-4.5053010219,3.549664122,0.0,0.0,0.0,1.0
1609060381373531007,3089,1609060381373531007,-2.54296947341,-4.5279678147,3.55340142365,0.0,0.0,0.0,1.0
1609060381423968935,3090,1609060381423968935,-2.5157372706,-4.55004609442,3.5575545006,0.0,0.0,0.0,1.0
1609060381474559926,3091,1609060381474559926,-2.48587004763,-4.57265852383,3.56121715636,0.0,0.0,0.0,1.0
1609060381525917911,3092,1609060381525917911,-2.45665641251,-4.59442489827,3.5650905224,0.0,0.0,0.0,1.0
1609060381576167011,3093,1609060381576167011,-2.39712621034,-4.63991797577,3.57334863788,0.0,0.0,0.0,1.0
1609060381623407030,3094,1609060381623407030,-2.36973905851,-4.65900671709,3.57611042685,0.0,0.0,0.0,1.0
1609060381675835990,3095,1609060381675835990,-2.33899091845,-4.68071916261,3.57974262961,0.0,0.0,0.0,1.0
1609060381724457883,3096,1609060381724457883,-2.3116216408,-4.69989877315,3.58215020659,0.0,0.0,0.0,1.0
1609060381777620935,3097,1609060381777620935,-2.28160023628,-4.72066862097,3.5852770938,0.0,0.0,0.0,1.0
1609060381825805091,3098,1609060381825805091,-2.22422824279,-4.75881772095,3.59044060524,0.0,0.0,0.0,1.0
1609060381875913047,3099,1609060381875913047,-2.19459361981,-4.77861004688,3.59286021779,0.0,0.0,0.0,1.0
1609060381926109933,3100,1609060381926109933,-2.16492535111,-4.79651730381,3.59518611965,0.0,0.0,0.0,1.0
1609060381974574947,3101,1609060381974574947,-2.13552915262,-4.81462206657,3.59736328979,0.0,0.0,0.0,1.0
1609060382023908042,3102,1609060382023908042,-2.10670312736,-4.83250030344,3.59881883863,0.0,0.0,0.0,1.0
1609060382077840948,3103,1609060382077840948,-2.07624403481,-4.85005941909,3.60006192015,0.0,0.0,0.0,1.0
1609060382126087093,3104,1609060382126087093,-2.01736472926,-4.88319129401,3.60161648215,0.0,0.0,0.0,1.0
1609060382172864103,3105,1609060382172864103,-1.98754442943,-4.90007945946,3.60129122173,0.0,0.0,0.0,1.0
1609060382224690103,3106,1609060382224690103,-1.95606854668,-4.91504353814,3.60145112314,0.0,0.0,0.0,1.0
1609060382276548051,3107,1609060382276548051,-1.92679916598,-4.92988203635,3.6019922388,0.0,0.0,0.0,1.0
1609060382326167011,3108,1609060382326167011,-1.89727279405,-4.94447744238,3.60157472667,0.0,0.0,0.0,1.0
1609060382376545095,3109,1609060382376545095,-1.86681288145,-4.95893205819,3.60173178037,0.0,0.0,0.0,1.0
1609060382423994922,3110,1609060382423994922,-1.80679997469,-4.98394770651,3.60162159738,0.0,0.0,0.0,1.0
1609060382475164079,3111,1609060382475164079,-1.77714545717,-4.99634351552,3.60034221666,0.0,0.0,0.0,1.0
1609060382524758958,3112,1609060382524758958,-1.74763886876,-5.00735953052,3.59990290085,0.0,0.0,0.0,1.0
1609060382573063039,3113,1609060382573063039,-1.71731251798,-5.01760017344,3.59955076165,0.0,0.0,0.0,1.0
1609060382623972082,3114,1609060382623972082,-1.68769164754,-5.02754701819,3.59831421311,0.0,0.0,0.0,1.0
1609060382680236005,3115,1609060382680236005,-1.62687638934,-5.04547612035,3.59685233119,0.0,0.0,0.0,1.0
1609060382726361894,3116,1609060382726361894,-1.59627816077,-5.0530087025,3.59680458919,0.0,0.0,0.0,1.0
1609060382773457908,3117,1609060382773457908,-1.56662730814,-5.06070968176,3.59669808975,0.0,0.0,0.0,1.0
1609060382823676967,3118,1609060382823676967,-1.53686650572,-5.06772153162,3.59637972394,0.0,0.0,0.0,1.0
1609060382877391004,3119,1609060382877391004,-1.50693090202,-5.07191573355,3.59612488148,0.0,0.0,0.0,1.0
1609060382927017116,3120,1609060382927017116,-1.44368391065,-5.08178771181,3.5975297221,0.0,0.0,0.0,1.0
1609060382974919939,3121,1609060382974919939,-1.4436841633,-5.081784511,3.59753547649,0.0,0.0,0.0,1.0
1609060383024443054,3122,1609060383024443054,-1.37612681002,-5.08746383806,3.59870860279,0.0,0.0,0.0,1.0
1609060383076413059,3123,1609060383076413059,-1.3440228009,-5.09045685251,3.60012921464,0.0,0.0,0.0,1.0
1609060383125964069,3124,1609060383125964069,-1.31182694516,-5.09301850995,3.60094990562,0.0,0.0,0.0,1.0
1609060383175228977,3125,1609060383175228977,-1.24913914229,-5.09443749843,3.60336966201,0.0,0.0,0.0,1.0
1609060383222527885,3126,1609060383222527885,-1.21740246398,-5.09280168932,3.60419936102,0.0,0.0,0.0,1.0
1609060383276116991,3127,1609060383276116991,-1.18389184122,-5.09214128812,3.60571900376,0.0,0.0,0.0,1.0
1609060383323568010,3128,1609060383323568010,-1.15061952914,-5.0907758355,3.60760232683,0.0,0.0,0.0,1.0
1609060383377740049,3129,1609060383377740049,-1.11508141132,-5.08661711901,3.60991123301,0.0,0.0,0.0,1.0
1609060383424260997,3130,1609060383424260997,-1.04543416518,-5.0797854667,3.61408676149,0.0,0.0,0.0,1.0
1609060383476529979,3131,1609060383476529979,-1.01041144867,-5.07532187687,3.61590433886,0.0,0.0,0.0,1.0
1609060383524500989,3132,1609060383524500989,-0.974428694014,-5.06892985627,3.61815981992,0.0,0.0,0.0,1.0
1609060383580219888,3133,1609060383580219888,-0.936789178019,-5.06241291263,3.61949908696,0.0,0.0,0.0,1.0
1609060383625110054,3134,1609060383625110054,-0.901807043221,-5.05638420061,3.62129111231,0.0,0.0,0.0,1.0
1609060383677712106,3135,1609060383677712106,-0.825106099621,-5.03996224103,3.62093297468,0.0,0.0,0.0,1.0
1609060383726247930,3136,1609060383726247930,-0.789548505935,-5.03205538407,3.62114057516,0.0,0.0,0.0,1.0
1609060383775643968,3137,1609060383775643968,-0.752495275168,-5.023039522,3.62064300313,0.0,0.0,0.0,1.0
1609060383826225900,3138,1609060383826225900,-0.717050131467,-5.01458527724,3.62112596163,0.0,0.0,0.0,1.0
1609060383877562904,3139,1609060383877562904,-0.64254650339,-4.993610409,3.62180155926,0.0,0.0,0.0,1.0
1609060383925773048,3140,1609060383925773048,-0.604845982938,-4.9826751209,3.62153994884,0.0,0.0,0.0,1.0
1609060383977313899,3141,1609060383977313899,-0.565821007266,-4.97128048483,3.62146814192,0.0,0.0,0.0,1.0
1609060384025890016,3142,1609060384025890016,-0.529310210694,-4.96002991781,3.62291463613,0.0,0.0,0.0,1.0
1609060384082065963,3143,1609060384082065963,-0.487529747211,-4.9458787526,3.62401542637,0.0,0.0,0.0,1.0
1609060384127350950,3144,1609060384127350950,-0.409261543288,-4.92028280432,3.62760452026,0.0,0.0,0.0,1.0
1609060384179015064,3145,1609060384179015064,-0.368093866774,-4.90571329634,3.62967698109,0.0,0.0,0.0,1.0
1609060384225046062,3146,1609060384225046062,-0.327854838396,-4.89166072951,3.63207176655,0.0,0.0,0.0,1.0
1609060384277572059,3147,1609060384277572059,-0.288070222307,-4.87747230434,3.63400316346,0.0,0.0,0.0,1.0
1609060384326673889,3148,1609060384326673889,-0.247175736559,-4.86293599755,3.63580284091,0.0,0.0,0.0,1.0
1609060384378116035,3149,1609060384378116035,-0.206330605337,-4.84669040991,3.63755121753,0.0,0.0,0.0,1.0
1609060384426213884,3150,1609060384426213884,-0.126514289967,-4.81488851585,3.64192735549,0.0,0.0,0.0,1.0
1609060384477639102,3151,1609060384477639102,-0.0867279941525,-4.79860780456,3.64366644627,0.0,0.0,0.0,1.0
1609060384526019954,3152,1609060384526019954,-0.0471442128203,-4.78233995726,3.64530800878,0.0,0.0,0.0,1.0
1609060384577697896,3153,1609060384577697896,-0.00624838553797,-4.76423015202,3.64693582198,0.0,0.0,0.0,1.0
1609060384627103948,3154,1609060384627103948,0.0311131794647,-4.7477407375,3.64867672036,0.0,0.0,0.0,1.0
1609060384679547929,3155,1609060384679547929,0.111394154784,-4.71207541081,3.65108448684,0.0,0.0,0.0,1.0
1609060384725042963,3156,1609060384725042963,0.151738759981,-4.69300360159,3.65203177523,0.0,0.0,0.0,1.0
1609060384780750894,3157,1609060384780750894,0.190024737966,-4.67475536525,3.65358397205,0.0,0.0,0.0,1.0
1609060384825978899,3158,1609060384825978899,0.227295921139,-4.6568993143,3.65429546047,0.0,0.0,0.0,1.0
1609060384879726076,3159,1609060384879726076,0.264216776576,-4.63810788084,3.65600883322,0.0,0.0,0.0,1.0
1609060384927287006,3160,1609060384927287006,0.341314470994,-4.59889715026,3.66104091797,0.0,0.0,0.0,1.0
1609060384978001022,3161,1609060384978001022,0.379321240335,-4.57813116195,3.66287240821,0.0,0.0,0.0,1.0
1609060385025215053,3162,1609060385025215053,0.414480397213,-4.55926110098,3.66497528872,0.0,0.0,0.0,1.0
1609060385078049087,3163,1609060385078049087,0.452318445654,-4.53745054747,3.66692501196,0.0,0.0,0.0,1.0
1609060385128671073,3164,1609060385128671073,0.486790870491,-4.51702063267,3.6687908539,0.0,0.0,0.0,1.0
1609060385178465032,3165,1609060385178465032,0.560219358007,-4.47369336865,3.67130641184,0.0,0.0,0.0,1.0
1609060385225788021,3166,1609060385225788021,0.595879481996,-4.45284943062,3.67022942898,0.0,0.0,0.0,1.0
1609060385277276897,3167,1609060385277276897,0.632087112103,-4.42940346279,3.66967194701,0.0,0.0,0.0,1.0
1609060385324550056,3168,1609060385324550056,0.666601722608,-4.40761487693,3.66817109573,0.0,0.0,0.0,1.0
1609060385378527069,3169,1609060385378527069,0.701512870891,-4.38511738035,3.66700931985,0.0,0.0,0.0,1.0
1609060385428065919,3170,1609060385428065919,0.735816357272,-4.36217257683,3.66563737054,0.0,0.0,0.0,1.0
1609060385478852891,3171,1609060385478852891,0.80638887122,-4.31392634332,3.6637859167,0.0,0.0,0.0,1.0
1609060385527403974,3172,1609060385527403974,0.841749469105,-4.28904263048,3.66211813559,0.0,0.0,0.0,1.0
1609060385578270101,3173,1609060385578270101,0.873842456401,-4.26630910728,3.6607032312,0.0,0.0,0.0,1.0
1609060385624524974,3174,1609060385624524974,0.907968452754,-4.2416278056,3.65913968731,0.0,0.0,0.0,1.0
1609060385679278993,3175,1609060385679278993,0.938842372925,-4.21892951856,3.65734641688,0.0,0.0,0.0,1.0
1609060385728085899,3176,1609060385728085899,1.00042331259,-4.17264234587,3.6536970801,0.0,0.0,0.0,1.0
1609060385780770921,3177,1609060385780770921,1.03356113449,-4.14784829878,3.6512317176,0.0,0.0,0.0,1.0
1609060385825529956,3178,1609060385825529956,1.06532940091,-4.12302854791,3.64953677322,0.0,0.0,0.0,1.0
1609060385878072881,3179,1609060385878072881,1.09626817632,-4.09734971252,3.64790962423,0.0,0.0,0.0,1.0
1609060385927164936,3180,1609060385927164936,1.12849620408,-4.07236518164,3.64565874289,0.0,0.0,0.0,1.0
1609060385979854965,3181,1609060385979854965,1.1599844927,-4.04725369569,3.64375888778,0.0,0.0,0.0,1.0
1609060386026208066,3182,1609060386026208066,1.22358002489,-3.99518836925,3.64035083459,0.0,0.0,0.0,1.0
1609060386077978992,3183,1609060386077978992,1.25503659918,-3.96900739983,3.63857536639,0.0,0.0,0.0,1.0
1609060386127557897,3184,1609060386127557897,1.28306732973,-3.94500717921,3.6367975989,0.0,0.0,0.0,1.0
1609060386179339075,3185,1609060386179339075,1.31480918617,-3.91786719621,3.63465443434,0.0,0.0,0.0,1.0
1609060386225567960,3186,1609060386225567960,1.3471090128,-3.89086878396,3.63214832408,0.0,0.0,0.0,1.0
1609060386277291917,3187,1609060386277291917,1.37840884331,-3.86310274028,3.62977389958,0.0,0.0,0.0,1.0
1609060386327005052,3188,1609060386327005052,1.43952683103,-3.80638986324,3.62531603318,0.0,0.0,0.0,1.0
1609060386378152036,3189,1609060386378152036,1.46979821873,-3.77832063083,3.62301505974,0.0,0.0,0.0,1.0
1609060386426437044,3190,1609060386426437044,1.49927065304,-3.75046303342,3.62076266227,0.0,0.0,0.0,1.0
1609060386479035043,3191,1609060386479035043,1.52872794533,-3.72205370655,3.61866770351,0.0,0.0,0.0,1.0
1609060386526904010,3192,1609060386526904010,1.55883702705,-3.69300825394,3.61675470751,0.0,0.0,0.0,1.0
1609060386578626060,3193,1609060386578626060,1.58761172079,-3.66372246655,3.61541145069,0.0,0.0,0.0,1.0
1609060386626855993,3194,1609060386626855993,1.64443194996,-3.60533894384,3.61198908159,0.0,0.0,0.0,1.0
1609060386678795003,3195,1609060386678795003,1.67441383259,-3.57410153168,3.61007653065,0.0,0.0,0.0,1.0
1609060386726828002,3196,1609060386726828002,1.70320732378,-3.54377772122,3.60937029104,0.0,0.0,0.0,1.0
1609060386777305984,3197,1609060386777305984,1.7333997841,-3.51179406592,3.60782930948,0.0,0.0,0.0,1.0
1609060386826636934,3198,1609060386826636934,1.76241178102,-3.48048380103,3.60718724771,0.0,0.0,0.0,1.0
1609060386879197025,3199,1609060386879197025,1.81888711913,-3.41787174532,3.60508351717,0.0,0.0,0.0,1.0
1609060386927595996,3200,1609060386927595996,1.84839963551,-3.38394254626,3.60336848477,0.0,0.0,0.0,1.0
1609060386977253103,3201,1609060386977253103,1.87655042054,-3.35025817597,3.60233348255,0.0,0.0,0.0,1.0
1609060387024797105,3202,1609060387024797105,1.90535716151,-3.31552951294,3.60153461458,0.0,0.0,0.0,1.0
1609060387077081108,3203,1609060387077081108,1.93239181958,-3.28223455932,3.60097443186,0.0,0.0,0.0,1.0
1609060387128638887,3204,1609060387128638887,1.96028989384,-3.2481174351,3.60047254232,0.0,0.0,0.0,1.0
1609060387178960943,3205,1609060387178960943,1.9876038489,-3.21258825593,3.59928500198,0.0,0.0,0.0,1.0
1609060387228383922,3206,1609060387228383922,2.04314201147,-3.1392473424,3.59695802699,0.0,0.0,0.0,1.0
1609060387279007101,3207,1609060387279007101,2.06990385641,-3.10240553758,3.59563028097,0.0,0.0,0.0,1.0
1609060387325956964,3208,1609060387325956964,2.09467576726,-3.06667345231,3.59390293966,0.0,0.0,0.0,1.0
1609060387378003978,3209,1609060387378003978,2.12163652928,-3.02857281237,3.5922348295,0.0,0.0,0.0,1.0
1609060387428512954,3210,1609060387428512954,2.14705023811,-2.99019183104,3.59046264671,0.0,0.0,0.0,1.0
1609060387478979969,3211,1609060387478979969,2.17268002176,-2.94959170659,3.58923778189,0.0,0.0,0.0,1.0
1609060387526018047,3212,1609060387526018047,2.21662787402,-2.87160166348,3.58736933861,0.0,0.0,0.0,1.0
1609060387578428888,3213,1609060387578428888,2.23933205279,-2.8306649584,3.58663099022,0.0,0.0,0.0,1.0
1609060387626721048,3214,1609060387626721048,2.26021733923,-2.79033541052,3.58542750801,0.0,0.0,0.0,1.0
1609060387678171062,3215,1609060387678171062,2.27995636531,-2.75005940663,3.58418723982,0.0,0.0,0.0,1.0
1609060387728655004,3216,1609060387728655004,2.29952353841,-2.70867619112,3.58264626274,0.0,0.0,0.0,1.0
1609060387779019021,3217,1609060387779019021,2.33523532563,-2.62585857815,3.578332674,0.0,0.0,0.0,1.0
1609060387827759885,3218,1609060387827759885,2.35135594715,-2.58456702811,3.57555058489,0.0,0.0,0.0,1.0
1609060387878028059,3219,1609060387878028059,2.3667549042,-2.54275567428,3.57325098148,0.0,0.0,0.0,1.0
1609060387927400970,3220,1609060387927400970,2.38093902382,-2.49942305702,3.57048349707,0.0,0.0,0.0,1.0
1609060387978938007,3221,1609060387978938007,2.39544390019,-2.4550513494,3.56814755243,0.0,0.0,0.0,1.0
1609060388028402948,3222,1609060388028402948,2.40752007953,-2.41245342632,3.56529171173,0.0,0.0,0.0,1.0
1609060388080016994,3223,1609060388080016994,2.41856251993,-2.36901450976,3.56217245339,0.0,0.0,0.0,1.0
1609060388127521896,3224,1609060388127521896,2.43824963856,-2.28333470514,3.55659086952,0.0,0.0,0.0,1.0
1609060388177268886,3225,1609060388177268886,2.44735541807,-2.24013309398,3.55365429717,0.0,0.0,0.0,1.0
1609060388226025009,3226,1609060388226025009,2.45633964945,-2.19635304439,3.55154297866,0.0,0.0,0.0,1.0
1609060388279821062,3227,1609060388279821062,2.46119639332,-2.15451224646,3.547389592,0.0,0.0,0.0,1.0
1609060388327994012,3228,1609060388327994012,2.46801201618,-2.11416838844,3.54497854395,0.0,0.0,0.0,1.0
1609060388378303909,3229,1609060388378303909,2.48030992313,-2.02311750175,3.53972204154,0.0,0.0,0.0,1.0
1609060388427662038,3230,1609060388427662038,2.48340588196,-1.98087764024,3.53672749472,0.0,0.0,0.0,1.0
1609060388479194068,3231,1609060388479194068,2.48736618294,-1.94095723012,3.53498625449,0.0,0.0,0.0,1.0
1609060388525288963,3232,1609060388525288963,2.49014930746,-1.89812614021,3.53335822275,0.0,0.0,0.0,1.0
1609060388588790082,3233,1609060388588790082,2.49377889854,-1.81485708947,3.53148702167,0.0,0.0,0.0,1.0
1609060388632841014,3234,1609060388632841014,2.49537210535,-1.77126648492,3.53118263993,0.0,0.0,0.0,1.0
1609060388684895896,3235,1609060388684895896,2.4962576146,-1.72974265889,3.53054605739,0.0,0.0,0.0,1.0
1609060388727122926,3236,1609060388727122926,2.49606784887,-1.68946657207,3.52935192833,0.0,0.0,0.0,1.0
1609060388777593994,3237,1609060388777593994,2.49600221994,-1.64784332737,3.52890946999,0.0,0.0,0.0,1.0
1609060388826026105,3238,1609060388826026105,2.49631980879,-1.60891198408,3.52907280576,0.0,0.0,0.0,1.0
1609060388879712963,3239,1609060388879712963,2.49485760829,-1.56913443305,3.52833442529,0.0,0.0,0.0,1.0
1609060388928492927,3240,1609060388928492927,2.49327298368,-1.52906094552,3.52835635511,0.0,0.0,0.0,1.0
1609060388978851938,3241,1609060388978851938,2.49027268544,-1.44677812355,3.52898019486,0.0,0.0,0.0,1.0
1609060389026794099,3242,1609060389026794099,2.48712747751,-1.4075710528,3.52907994894,0.0,0.0,0.0,1.0
1609060389078282022,3243,1609060389078282022,2.48398941531,-1.36890813731,3.52989806767,0.0,0.0,0.0,1.0
1609060389127646112,3244,1609060389127646112,2.48196726703,-1.33205714432,3.53063030117,0.0,0.0,0.0,1.0
1609060389177091979,3245,1609060389177091979,2.47795774994,-1.29427204186,3.53111138357,0.0,0.0,0.0,1.0
1609060389227483892,3246,1609060389227483892,2.46914284751,-1.21970336707,3.53518368523,0.0,0.0,0.0,1.0
1609060389277998113,3247,1609060389277998113,2.46506673528,-1.18251503816,3.53668672637,0.0,0.0,0.0,1.0
1609060389327522897,3248,1609060389327522897,2.4604054612,-1.14438701723,3.5375102933,0.0,0.0,0.0,1.0
1609060389378243112,3249,1609060389378243112,2.4539387586,-1.10447906178,3.53801127567,0.0,0.0,0.0,1.0
1609060389425644063,3250,1609060389425644063,2.44945866545,-1.06830615991,3.53836012095,0.0,0.0,0.0,1.0
1609060389480804109,3251,1609060389480804109,2.44363736847,-1.02855682109,3.53859231945,0.0,0.0,0.0,1.0
1609060389530208015,3252,1609060389530208015,2.43005420925,-0.951871000286,3.5379628676,0.0,0.0,0.0,1.0
1609060389578667068,3253,1609060389578667068,2.42292938325,-0.913661744368,3.53858746464,0.0,0.0,0.0,1.0
1609060389625934028,3254,1609060389625934028,2.41679605197,-0.879063619669,3.53897632373,0.0,0.0,0.0,1.0
1609060389678423070,3255,1609060389678423070,2.40881296142,-0.840848079978,3.53944419571,0.0,0.0,0.0,1.0
1609060389727276945,3256,1609060389727276945,2.40114365001,-0.806133502517,3.53944206271,0.0,0.0,0.0,1.0
1609060389779801034,3257,1609060389779801034,2.38297727433,-0.725363481613,3.53939420136,0.0,0.0,0.0,1.0
1609060389824540996,3258,1609060389824540996,2.37434101247,-0.689962895873,3.53921391845,0.0,0.0,0.0,1.0
1609060389877240085,3259,1609060389877240085,2.36439668301,-0.651866224599,3.53891056209,0.0,0.0,0.0,1.0
1609060389926560068,3260,1609060389926560068,2.35536231241,-0.614141597838,3.53907417009,0.0,0.0,0.0,1.0
1609060389978195095,3261,1609060389978195095,2.34544754232,-0.577189880644,3.53852905907,0.0,0.0,0.0,1.0
1609060390027326011,3262,1609060390027326011,2.3246467295,-0.503072839753,3.53834992533,0.0,0.0,0.0,1.0
1609060390076764011,3263,1609060390076764011,2.31536101354,-0.466552582899,3.53802857841,0.0,0.0,0.0,1.0
1609060390127235078,3264,1609060390127235078,2.30441606191,-0.428608567522,3.53647996758,0.0,0.0,0.0,1.0
1609060390177085065,3265,1609060390177085065,2.29297492984,-0.391536743874,3.5345651752,0.0,0.0,0.0,1.0
1609060390226591014,3266,1609060390226591014,2.2815883735,-0.353040110316,3.53266212303,0.0,0.0,0.0,1.0
1609060390280388975,3267,1609060390280388975,2.27046702639,-0.314987945862,3.53007111436,0.0,0.0,0.0,1.0
1609060390326570892,3268,1609060390326570892,2.24674177338,-0.24224067699,3.52483085086,0.0,0.0,0.0,1.0
1609060390378979110,3269,1609060390378979110,2.23501280732,-0.204070402393,3.52224707019,0.0,0.0,0.0,1.0
1609060390426268005,3270,1609060390426268005,2.22356217573,-0.167638001272,3.51864235322,0.0,0.0,0.0,1.0
1609060390477883958,3271,1609060390477883958,2.2106035866,-0.130276164624,3.51363628085,0.0,0.0,0.0,1.0
1609060390528004074,3272,1609060390528004074,2.18622116068,-0.0581225233392,3.50402669971,0.0,0.0,0.0,1.0
1609060390577237987,3273,1609060390577237987,2.17412302991,-0.0235923171846,3.49945513311,0.0,0.0,0.0,1.0
1609060390625013017,3274,1609060390625013017,2.16043839717,0.0130428413309,3.49442011095,0.0,0.0,0.0,1.0
1609060390676634931,3275,1609060390676634931,2.14720959506,0.049302018714,3.48884579289,0.0,0.0,0.0,1.0
1609060390726636075,3276,1609060390726636075,2.13431164887,0.0867832080871,3.48356598838,0.0,0.0,0.0,1.0
1609060390780335092,3277,1609060390780335092,2.10539709776,0.162159932548,3.47253767791,0.0,0.0,0.0,1.0
1609060390825441980,3278,1609060390825441980,2.09127443352,0.196874402873,3.46649019284,0.0,0.0,0.0,1.0
1609060390878333950,3279,1609060390878333950,2.07763101514,0.230117693528,3.46202627944,0.0,0.0,0.0,1.0
1609060390928623104,3280,1609060390928623104,2.06117958812,0.270057505542,3.45687678406,0.0,0.0,0.0,1.0
1609060390978664064,3281,1609060390978664064,2.04337835172,0.311812398157,3.45193870665,0.0,0.0,0.0,1.0
1609060391025667095,3282,1609060391025667095,2.02682638322,0.348986029845,3.44696075094,0.0,0.0,0.0,1.0
1609060391085714006,3283,1609060391085714006,1.99347365002,0.420492549053,3.43876768663,0.0,0.0,0.0,1.0
1609060391125485086,3284,1609060391125485086,1.97690665564,0.454493306303,3.43510024951,0.0,0.0,0.0,1.0
1609060391175954961,3285,1609060391175954961,1.96002866373,0.489411792645,3.4326791138,0.0,0.0,0.0,1.0
1609060391225903892,3286,1609060391225903892,1.94153541754,0.523617197182,3.43104827227,0.0,0.0,0.0,1.0
1609060391278138065,3287,1609060391278138065,1.92302693899,0.55831248368,3.4283761982,0.0,0.0,0.0,1.0
1609060391328148984,3288,1609060391328148984,1.9042857677,0.592502415427,3.42678423633,0.0,0.0,0.0,1.0
1609060391378518962,3289,1609060391378518962,1.86460468122,0.661542419408,3.42459350127,0.0,0.0,0.0,1.0
1609060391420210981,3290,1609060391420210981,1.84353268259,0.695955606227,3.42325320235,0.0,0.0,0.0,1.0
1609060391470527076,3291,1609060391470527076,1.82048834136,0.731209048758,3.42271609778,0.0,0.0,0.0,1.0
