%time,field.header.seq,field.header.stamp,field.pose.position.x,field.pose.position.y,field.pose.position.z,field.pose.orientation.x,field.pose.orientation.y,field.pose.orientation.z,field.pose.orientation.w
1609054445749662886,1093,1609054445749662886,-0.123290798513,0.0903310227729,0.54506809777,0.0,0.0,0.0,1.0
1609054445801212082,1094,1609054445801212082,-0.130418298589,0.0941685980809,0.548815346903,0.0,0.0,0.0,1.0
1609054445851631890,1095,1609054445851631890,-0.138386438659,0.0973614924554,0.549736286349,0.0,0.0,0.0,1.0
1609054445904046069,1096,1609054445904046069,-0.144661657526,0.101686800503,0.551229563737,0.0,0.0,0.0,1.0
1609054445951586018,1097,1609054445951586018,-0.159843567486,0.108617291131,0.555170143686,0.0,0.0,0.0,1.0
1609054446002191077,1098,1609054446002191077,-0.167719726414,0.110726274341,0.554369894607,0.0,0.0,0.0,1.0
1609054446049490939,1099,1609054446049490939,-0.174727604343,0.113304194511,0.55669251011,0.0,0.0,0.0,1.0
1609054446103566895,1100,1609054446103566895,-0.180904566091,0.115263982899,0.560807166475,0.0,0.0,0.0,1.0
1609054446151346932,1101,1609054446151346932,-0.188367771185,0.115478624836,0.568834214334,0.0,0.0,0.0,1.0
1609054446202811966,1102,1609054446202811966,-0.194457097553,0.115175412025,0.57670925365,0.0,0.0,0.0,1.0
1609054446250984917,1103,1609054446250984917,-0.207003262155,0.112509226719,0.602328045699,0.0,0.0,0.0,1.0
1609054446302902947,1104,1609054446302902947,-0.21379745847,0.109642109347,0.620423897163,0.0,0.0,0.0,1.0
1609054446350205908,1105,1609054446350205908,-0.218202235563,0.106413797755,0.641083450481,0.0,0.0,0.0,1.0
1609054446403277884,1106,1609054446403277884,-0.224289763922,0.102397796431,0.664981678129,0.0,0.0,0.0,1.0
1609054446451832066,1107,1609054446451832066,-0.229376440642,0.0969767019178,0.688515554012,0.0,0.0,0.0,1.0
1609054446508017073,1108,1609054446508017073,-0.238244428808,0.0835396747006,0.749139172502,0.0,0.0,0.0,1.0
1609054446557130108,1109,1609054446557130108,-0.241473687488,0.0761099381809,0.780310130817,0.0,0.0,0.0,1.0
1609054446601309071,1110,1609054446601309071,-0.243928970322,0.0673470739901,0.811618699373,0.0,0.0,0.0,1.0
1609054446650310050,1111,1609054446650310050,-0.248664195086,0.0572637236597,0.844951847882,0.0,0.0,0.0,1.0
1609054446703242074,1112,1609054446703242074,-0.250602286143,0.0488730662012,0.883662646464,0.0,0.0,0.0,1.0
1609054446751405011,1113,1609054446751405011,-0.255215561982,0.0380189317935,0.919000086276,0.0,0.0,0.0,1.0
1609054446804074059,1114,1609054446804074059,-0.25675674151,0.0271906640165,0.9529946073,0.0,0.0,0.0,1.0
1609054446851569901,1115,1609054446851569901,-0.262298745793,0.00406210394074,1.02365972263,0.0,0.0,0.0,1.0
1609054446902118931,1116,1609054446902118931,-0.264311271913,-0.0081634611787,1.06224769265,0.0,0.0,0.0,1.0
1609054446950675021,1117,1609054446950675021,-0.267901090274,-0.0212601245054,1.10066912293,0.0,0.0,0.0,1.0
1609054447001306067,1118,1609054447001306067,-0.271384662843,-0.0345402213559,1.134286955,0.0,0.0,0.0,1.0
1609054447051965962,1119,1609054447051965962,-0.273375503987,-0.0471556881323,1.17017630282,0.0,0.0,0.0,1.0
1609054447173711072,1120,1609054447173711072,-0.279286394852,-0.0750401414571,1.23615000383,0.0,0.0,0.0,1.0
1609054447250675927,1121,1609054447250675927,-0.28805838642,-0.118979839587,1.33106918393,0.0,0.0,0.0,1.0
1609054447301676999,1122,1609054447301676999,-0.290411124963,-0.133640587051,1.36276034125,0.0,0.0,0.0,1.0
1609054447351809989,1123,1609054447351809989,-0.293092840399,-0.149075797324,1.39032356982,0.0,0.0,0.0,1.0
1609054447403629075,1124,1609054447403629075,-0.296264598183,-0.164150943707,1.41926157667,0.0,0.0,0.0,1.0
1609054447451961051,1125,1609054447451961051,-0.303000096453,-0.195594058284,1.4736246888,0.0,0.0,0.0,1.0
1609054447502443085,1126,1609054447502443085,-0.307105951339,-0.212090800537,1.50097745393,0.0,0.0,0.0,1.0
1609054447551069985,1127,1609054447551069985,-0.310609167542,-0.228232416811,1.52644710641,0.0,0.0,0.0,1.0
1609054447602700005,1128,1609054447602700005,-0.314446614945,-0.244683668724,1.55219888746,0.0,0.0,0.0,1.0
1609054447652213107,1129,1609054447652213107,-0.318228965245,-0.261532758628,1.57951777604,0.0,0.0,0.0,1.0
1609054447710479985,1130,1609054447710479985,-0.326051683516,-0.29599743614,1.6299068364,0.0,0.0,0.0,1.0
1609054447756175051,1131,1609054447756175051,-0.329228375076,-0.312943384773,1.65517803685,0.0,0.0,0.0,1.0
1609054447802277098,1132,1609054447802277098,-0.33526703119,-0.330271472544,1.67968440974,0.0,0.0,0.0,1.0
1609054447849590073,1133,1609054447849590073,-0.338011337332,-0.346837922677,1.70554982864,0.0,0.0,0.0,1.0
1609054447902256022,1134,1609054447902256022,-0.342608865795,-0.364318710418,1.73037702934,0.0,0.0,0.0,1.0
1609054447952739010,1135,1609054447952739010,-0.347692840265,-0.381398345649,1.75579205086,0.0,0.0,0.0,1.0
1609054448004067908,1136,1609054448004067908,-0.35151870139,-0.398482138606,1.7799625138,0.0,0.0,0.0,1.0
1609054448052248965,1137,1609054448052248965,-0.35935240318,-0.431964500608,1.82876899823,0.0,0.0,0.0,1.0
1609054448106120120,1138,1609054448106120120,-0.363220129394,-0.448805920629,1.85393291276,0.0,0.0,0.0,1.0
1609054448150232087,1139,1609054448150232087,-0.366043174035,-0.465102729804,1.87761994049,0.0,0.0,0.0,1.0
1609054448202461968,1140,1609054448202461968,-0.370788216429,-0.481753259281,1.90242992511,0.0,0.0,0.0,1.0
1609054448251456986,1141,1609054448251456986,-0.3747110263,-0.497605102272,1.92734149827,0.0,0.0,0.0,1.0
1609054448305720101,1142,1609054448305720101,-0.377970639047,-0.512388348682,1.95243202416,0.0,0.0,0.0,1.0
1609054448351552973,1143,1609054448351552973,-0.386251145586,-0.541249236179,2.00042872439,0.0,0.0,0.0,1.0
1609054448403937111,1144,1609054448403937111,-0.391350995443,-0.554581035268,2.02524960553,0.0,0.0,0.0,1.0
1609054448450354109,1145,1609054448450354109,-0.395181623099,-0.566748999756,2.05023592086,0.0,0.0,0.0,1.0
1609054448504457961,1146,1609054448504457961,-0.399884434766,-0.578733865903,2.07459437448,0.0,0.0,0.0,1.0
1609054448552188883,1147,1609054448552188883,-0.404247919282,-0.589855493994,2.09924131889,0.0,0.0,0.0,1.0
1609054448603898058,1148,1609054448603898058,-0.406313752901,-0.600159850815,2.12325128972,0.0,0.0,0.0,1.0
1609054448652442942,1149,1609054448652442942,-0.414656081227,-0.619446229346,2.17289436675,0.0,0.0,0.0,1.0
1609054448704056035,1150,1609054448704056035,-0.419320574744,-0.62763113792,2.19465887176,0.0,0.0,0.0,1.0
1609054448752074967,1151,1609054448752074967,-0.423081454633,-0.634549928522,2.21827184715,0.0,0.0,0.0,1.0
1609054448802949915,1152,1609054448802949915,-0.427539216402,-0.640901431335,2.24444628689,0.0,0.0,0.0,1.0
1609054448852358113,1153,1609054448852358113,-0.429769189616,-0.645165136049,2.26878686744,0.0,0.0,0.0,1.0
1609054448904462109,1154,1609054448904462109,-0.43378469465,-0.649749333708,2.29422248136,0.0,0.0,0.0,1.0
1609054448951982985,1155,1609054448951982985,-0.441159149616,-0.65543990362,2.34530446543,0.0,0.0,0.0,1.0
1609054449002563010,1156,1609054449002563010,-0.444914481541,-0.656914361329,2.37217892095,0.0,0.0,0.0,1.0
1609054449051723967,1157,1609054449051723967,-0.449746373957,-0.658157743341,2.39857736557,0.0,0.0,0.0,1.0
1609054449101496945,1158,1609054449101496945,-0.453651041799,-0.658349122127,2.42356978109,0.0,0.0,0.0,1.0
1609054449151798974,1159,1609054449151798974,-0.459009478916,-0.65832468801,2.45138561105,0.0,0.0,0.0,1.0
1609054449202168952,1160,1609054449202168952,-0.46347083051,-0.657162940295,2.47763630902,0.0,0.0,0.0,1.0
1609054449251776944,1161,1609054449251776944,-0.472540051354,-0.65244370956,2.52923525433,0.0,0.0,0.0,1.0
1609054449303689013,1162,1609054449303689013,-0.478464790237,-0.650090286439,2.55253695262,0.0,0.0,0.0,1.0
1609054449350327979,1163,1609054449350327979,-0.482775115898,-0.646221439219,2.57803345408,0.0,0.0,0.0,1.0
1609054449402832041,1164,1609054449402832041,-0.489319219425,-0.642999022298,2.60194991946,0.0,0.0,0.0,1.0
1609054449453411112,1165,1609054449453411112,-0.493846584847,-0.638265613293,2.62755574198,0.0,0.0,0.0,1.0
1609054449504992018,1166,1609054449504992018,-0.507245246513,-0.630232264191,2.67449658447,0.0,0.0,0.0,1.0
1609054449550060998,1167,1609054449550060998,-0.513731414323,-0.625068818911,2.6976370771,0.0,0.0,0.0,1.0
1609054449602844010,1168,1609054449602844010,-0.519481616324,-0.619438689883,2.7210655724,0.0,0.0,0.0,1.0
1609054449650675068,1169,1609054449650675068,-0.527107918352,-0.614521826662,2.74325371445,0.0,0.0,0.0,1.0
1609054449705127011,1170,1609054449705127011,-0.533703615475,-0.60864209451,2.76530304807,0.0,0.0,0.0,1.0
1609054449754227887,1171,1609054449754227887,-0.549757660591,-0.596541865124,2.81571437044,0.0,0.0,0.0,1.0
1609054449802501927,1172,1609054449802501927,-0.557623154081,-0.59150265693,2.8383603604,0.0,0.0,0.0,1.0
1609054450057700882,1174,1609054450057700882,-0.609380301587,-0.560374768462,2.97929457565,0.0,0.0,0.0,1.0
1609054450104228030,1175,1609054450104228030,-0.617871356542,-0.555635138522,3.00148895069,0.0,0.0,0.0,1.0
1609054450151731978,1176,1609054450151731978,-0.625465581884,-0.551344536036,3.02175247165,0.0,0.0,0.0,1.0
1609054450202091942,1177,1609054450202091942,-0.63357736822,-0.547069225713,3.04309863163,0.0,0.0,0.0,1.0
1609054450251636992,1178,1609054450251636992,-0.643079752472,-0.543552483872,3.06316563561,0.0,0.0,0.0,1.0
1609054450307920943,1179,1609054450307920943,-0.659182519234,-0.536844945546,3.10112256847,0.0,0.0,0.0,1.0
1609054450357527028,1180,1609054450357527028,-0.666650412633,-0.533524228976,3.12090827786,0.0,0.0,0.0,1.0
1609054450403632889,1181,1609054450403632889,-0.674851414758,-0.530544066093,3.13715384632,0.0,0.0,0.0,1.0
1609054450454145918,1182,1609054450454145918,-0.683871040752,-0.527280564759,3.15406689531,0.0,0.0,0.0,1.0
1609054450502305041,1183,1609054450502305041,-0.692088070549,-0.523845042661,3.16728097793,0.0,0.0,0.0,1.0
1609054450564157019,1184,1609054450564157019,-0.708783122971,-0.517502785538,3.18764275327,0.0,0.0,0.0,1.0
1609054450608406077,1185,1609054450608406077,-0.717006153326,-0.514452008001,3.19583941683,0.0,0.0,0.0,1.0
1609054450655912886,1186,1609054450655912886,-0.724801961392,-0.511387743942,3.20161397935,0.0,0.0,0.0,1.0
1609054450702992926,1187,1609054450702992926,-0.73298024843,-0.508325187069,3.20980992432,0.0,0.0,0.0,1.0
1609054450751516114,1188,1609054450751516114,-0.741607680293,-0.505494259297,3.21454551671,0.0,0.0,0.0,1.0
1609054450801892052,1189,1609054450801892052,-0.750082946524,-0.501916904713,3.2204499477,0.0,0.0,0.0,1.0
1609054450852546940,1190,1609054450852546940,-0.758860240252,-0.498825377475,3.22512252842,0.0,0.0,0.0,1.0
1609054450903616915,1191,1609054450903616915,-0.76710779361,-0.494672300065,3.23051021966,0.0,0.0,0.0,1.0
1609054450953109990,1192,1609054450953109990,-0.786366812153,-0.485994873368,3.23807707634,0.0,0.0,0.0,1.0
1609054451002491961,1193,1609054451002491961,-0.786366800761,-0.485994910465,3.23807629935,0.0,0.0,0.0,1.0
1609054451051367054,1194,1609054451051367054,-0.80314101815,-0.477861393452,3.24349932343,0.0,0.0,0.0,1.0
1609054451106286059,1195,1609054451106286059,-0.810797064369,-0.472778372412,3.24476236437,0.0,0.0,0.0,1.0
1609054451152373086,1196,1609054451152373086,-0.820118401106,-0.467703061004,3.24858877574,0.0,0.0,0.0,1.0
1609054451203118096,1197,1609054451203118096,-0.829537886482,-0.462088870954,3.25125035119,0.0,0.0,0.0,1.0
1609054451252124081,1198,1609054451252124081,-0.846701607427,-0.450432213504,3.25394666157,0.0,0.0,0.0,1.0
1609054451302217017,1199,1609054451302217017,-0.854278589631,-0.444826025398,3.25666960551,0.0,0.0,0.0,1.0
1609054451351082097,1200,1609054451351082097,-0.862889156345,-0.439464868756,3.25940993703,0.0,0.0,0.0,1.0
1609054451403527031,1201,1609054451403527031,-0.871888844196,-0.432818178863,3.26096672296,0.0,0.0,0.0,1.0
1609054451453341017,1202,1609054451453341017,-0.881218401118,-0.426268909729,3.26484144946,0.0,0.0,0.0,1.0
1609054451504309903,1203,1609054451504309903,-0.891340778473,-0.419126376365,3.26703113682,0.0,0.0,0.0,1.0
1609054451552505026,1204,1609054451552505026,-0.909665062245,-0.405009708076,3.27192954062,0.0,0.0,0.0,1.0
1609054451601979981,1205,1609054451601979981,-0.916476069309,-0.397470175168,3.27436924609,0.0,0.0,0.0,1.0
1609054451650678883,1206,1609054451650678883,-0.927227672769,-0.390220377189,3.2767005527,0.0,0.0,0.0,1.0
1609054451703552018,1207,1609054451703552018,-0.935902502725,-0.381964976668,3.28072348805,0.0,0.0,0.0,1.0
1609054451751321087,1208,1609054451751321087,-0.946234252353,-0.37408502088,3.28025292508,0.0,0.0,0.0,1.0
1609054451802896987,1209,1609054451802896987,-0.956193965832,-0.366880775453,3.28267603925,0.0,0.0,0.0,1.0
1609054451853147040,1210,1609054451853147040,-0.966948339493,-0.359591279545,3.28382578434,0.0,0.0,0.0,1.0
1609054451902616034,1211,1609054451902616034,-0.990491674292,-0.344577346181,3.28551496544,0.0,0.0,0.0,1.0
1609054451949678908,1212,1609054451949678908,-1.00391172003,-0.33670156437,3.28701562037,0.0,0.0,0.0,1.0
1609054452025119076,1213,1609054452025119076,-1.03168562819,-0.31980833238,3.285632183,0.0,0.0,0.0,1.0
1609054452064908038,1214,1609054452064908038,-1.04755599366,-0.310471420957,3.28462598107,0.0,0.0,0.0,1.0
1609054452109982977,1215,1609054452109982977,-1.06241843045,-0.30162001453,3.28397642295,0.0,0.0,0.0,1.0
1609054452156389008,1216,1609054452156389008,-1.08068879863,-0.291374906383,3.28375635759,0.0,0.0,0.0,1.0
1609054452202384959,1217,1609054452202384959,-1.09798614234,-0.282978642872,3.28029172048,0.0,0.0,0.0,1.0
1609054452251324902,1218,1609054452251324902,-1.11662540043,-0.272524707289,3.28052832358,0.0,0.0,0.0,1.0
1609054452303135882,1219,1609054452303135882,-1.13649986697,-0.263580975622,3.27620624362,0.0,0.0,0.0,1.0
1609054452353163968,1220,1609054452353163968,-1.15673819851,-0.252598764268,3.27488972753,0.0,0.0,0.0,1.0
1609054452404973994,1221,1609054452404973994,-1.17606276314,-0.241898238158,3.27033496164,0.0,0.0,0.0,1.0
1609054452453449975,1222,1609054452453449975,-1.22025877125,-0.220567233706,3.26216577307,0.0,0.0,0.0,1.0
1609054452503781090,1223,1609054452503781090,-1.24228358491,-0.208196860095,3.2589555931,0.0,0.0,0.0,1.0
1609054452550648938,1224,1609054452550648938,-1.26713098566,-0.19739905611,3.25448449918,0.0,0.0,0.0,1.0
1609054452603578101,1225,1609054452603578101,-1.29199862598,-0.18457322562,3.2505681356,0.0,0.0,0.0,1.0
1609054452652201901,1226,1609054452652201901,-1.31652536605,-0.171880251245,3.24602468711,0.0,0.0,0.0,1.0
1609054452703479062,1227,1609054452703479062,-1.34341801825,-0.158969040138,3.24316757585,0.0,0.0,0.0,1.0
1609054452751837979,1228,1609054452751837979,-1.3955385981,-0.129268486179,3.23817622403,0.0,0.0,0.0,1.0
1609054452801567088,1229,1609054452801567088,-1.42399945336,-0.115985553121,3.23294930711,0.0,0.0,0.0,1.0
1609054452850338946,1230,1609054452850338946,-1.44933754189,-0.100985819537,3.22984299064,0.0,0.0,0.0,1.0
1609054452904061089,1231,1609054452904061089,-1.47729142394,-0.0845700145279,3.22670551253,0.0,0.0,0.0,1.0
1609054452954809914,1232,1609054452954809914,-1.50409032127,-0.0687661494995,3.22256879108,0.0,0.0,0.0,1.0
1609054453003489981,1233,1609054453003489981,-1.53137780962,-0.0521261402617,3.21752838465,0.0,0.0,0.0,1.0
1609054453053078900,1234,1609054453053078900,-1.58389890766,-0.0157582726563,3.21258164568,0.0,0.0,0.0,1.0
1609054453111191044,1235,1609054453111191044,-1.61045398443,0.00234142469152,3.21061534291,0.0,0.0,0.0,1.0
1609054453152335892,1236,1609054453152335892,-1.63418317944,0.0220625206299,3.20671423288,0.0,0.0,0.0,1.0
1609054453202374945,1237,1609054453202374945,-1.6597341346,0.0421800805737,3.20437479151,0.0,0.0,0.0,1.0
1609054453252974043,1238,1609054453252974043,-1.68453306286,0.0623277951236,3.20173288674,0.0,0.0,0.0,1.0
1609054453304073105,1239,1609054453304073105,-1.70709276303,0.0836908244423,3.20132002046,0.0,0.0,0.0,1.0
1609054453350811968,1240,1609054453350811968,-1.75007671269,0.128200901266,3.19818674362,0.0,0.0,0.0,1.0
1609054453403702984,1241,1609054453403702984,-1.77056242284,0.148591849087,3.19590195971,0.0,0.0,0.0,1.0
1609054453452847014,1242,1609054453452847014,-1.79015472612,0.170721344138,3.19452964466,0.0,0.0,0.0,1.0
1609054453503541956,1243,1609054453503541956,-1.80946624531,0.192947727537,3.19316238269,0.0,0.0,0.0,1.0
1609054453551907073,1244,1609054453551907073,-1.8257972888,0.215919300282,3.1941622817,0.0,0.0,0.0,1.0
1609054453607034932,1245,1609054453607034932,-1.84278495869,0.239112823542,3.19370308521,0.0,0.0,0.0,1.0
1609054453653795968,1246,1609054453653795968,-1.87174533832,0.286786154759,3.19589156975,0.0,0.0,0.0,1.0
1609054453703996907,1247,1609054453703996907,-1.88296177761,0.311071100416,3.19784049403,0.0,0.0,0.0,1.0
1609054453752218972,1248,1609054453752218972,-1.89514424366,0.335295015824,3.1990367041,0.0,0.0,0.0,1.0
1609054453801541100,1249,1609054453801541100,-1.90482335656,0.360509859387,3.20033007056,0.0,0.0,0.0,1.0
1609054453850236903,1250,1609054453850236903,-1.91380035082,0.384998625529,3.20128881269,0.0,0.0,0.0,1.0
1609054453903083096,1251,1609054453903083096,-1.92170655182,0.40967396839,3.20267651955,0.0,0.0,0.0,1.0
1609054453946053038,1252,1609054453946053038,-1.93291815997,0.459107250249,3.20251205461,0.0,0.0,0.0,1.0
1609054453998436938,1253,1609054453998436938,-1.93842178456,0.481766502321,3.20197935884,0.0,0.0,0.0,1.0
1609054454047798882,1254,1609054454047798882,-1.94137092302,0.506009588716,3.20441971232,0.0,0.0,0.0,1.0
1609054454100548039,1255,1609054454100548039,-1.94433398449,0.529612419371,3.20689761113,0.0,0.0,0.0,1.0
1609054454152565012,1256,1609054454152565012,-1.94694156308,0.555155894784,3.21367355949,0.0,0.0,0.0,1.0
1609054454203101883,1257,1609054454203101883,-1.94810155232,0.57888540706,3.21664691881,0.0,0.0,0.0,1.0
1609054454252947102,1258,1609054454252947102,-1.94670986933,0.625821851383,3.22225168267,0.0,0.0,0.0,1.0
1609054454303736935,1259,1609054454303736935,-1.94501901687,0.64934005999,3.22444597344,0.0,0.0,0.0,1.0
1609054454351588021,1260,1609054454351588021,-1.94155916694,0.672996394866,3.2276073455,0.0,0.0,0.0,1.0
1609054454403193961,1261,1609054454403193961,-1.9394338912,0.696789435178,3.23223056821,0.0,0.0,0.0,1.0
1609054454463425885,1262,1609054454463425885,-1.93252722627,0.744142939929,3.23758301798,0.0,0.0,0.0,1.0
1609054454507756959,1263,1609054454507756959,-1.93021361387,0.766674246638,3.23920766332,0.0,0.0,0.0,1.0
1609054454552886973,1264,1609054454552886973,-1.92515255766,0.791059677187,3.24173978172,0.0,0.0,0.0,1.0
1609054454602664004,1265,1609054454602664004,-1.92053560485,0.814380862587,3.24314735231,0.0,0.0,0.0,1.0
1609054454651793013,1266,1609054454651793013,-1.91627899212,0.837651198306,3.24605374902,0.0,0.0,0.0,1.0
1609054454702997933,1267,1609054454702997933,-1.91196192857,0.861719457948,3.24761632112,0.0,0.0,0.0,1.0
1609054454751334916,1268,1609054454751334916,-1.90709987843,0.885336921471,3.25119486952,0.0,0.0,0.0,1.0
1609054454803811083,1269,1609054454803811083,-1.90350571931,0.907162589846,3.25125061729,0.0,0.0,0.0,1.0
1609054454853364001,1270,1609054454853364001,-1.89488249162,0.9538567129,3.2514390468,0.0,0.0,0.0,1.0
1609054454903296004,1271,1609054454903296004,-1.8891781342,0.977710755565,3.25203034292,0.0,0.0,0.0,1.0
1609054454951633940,1272,1609054454951633940,-1.8851759791,1.00061339425,3.24980133295,0.0,0.0,0.0,1.0
1609054455002211104,1273,1609054455002211104,-1.88213143973,1.0231700602,3.24941980749,0.0,0.0,0.0,1.0
1609054455052879105,1274,1609054455052879105,-1.87864241944,1.04642374171,3.24725096806,0.0,0.0,0.0,1.0
1609054455105892907,1275,1609054455105892907,-1.87433719444,1.09070793769,3.24462330991,0.0,0.0,0.0,1.0
1609054455150602112,1276,1609054455150602112,-1.87161164515,1.11385900544,3.24364683577,0.0,0.0,0.0,1.0
1609054455202243100,1277,1609054455202243100,-1.87148976223,1.13636764263,3.24158514914,0.0,0.0,0.0,1.0
1609054455250623951,1278,1609054455250623951,-1.8695867411,1.15877750099,3.24209872783,0.0,0.0,0.0,1.0
1609054455305018912,1279,1609054455305018912,-1.8692506137,1.18282195132,3.23964698577,0.0,0.0,0.0,1.0
1609054455354352007,1280,1609054455354352007,-1.87067802044,1.23259172968,3.23630439478,0.0,0.0,0.0,1.0
1609054455404004107,1281,1609054455404004107,-1.87126289813,1.25710884586,3.23488028272,0.0,0.0,0.0,1.0
1609054455451194058,1282,1609054455451194058,-1.87317614273,1.28051413282,3.23315374891,0.0,0.0,0.0,1.0
1609054455503787051,1283,1609054455503787051,-1.8758638473,1.30628264616,3.23109900575,0.0,0.0,0.0,1.0
1609054455564934025,1284,1609054455564934025,-1.88152449376,1.35688275014,3.22720025834,0.0,0.0,0.0,1.0
1609054455607944022,1285,1609054455607944022,-1.88542174287,1.38276861553,3.22529028753,0.0,0.0,0.0,1.0
1609054455655638943,1286,1609054455655638943,-1.89105082228,1.41000093001,3.2241330549,0.0,0.0,0.0,1.0
1609054455703227053,1287,1609054455703227053,-1.89462664285,1.43559450477,3.22263037957,0.0,0.0,0.0,1.0
1609054455749602089,1288,1609054455749602089,-1.90094212934,1.46210849321,3.22036604028,0.0,0.0,0.0,1.0
1609054455802293072,1289,1609054455802293072,-1.90807642135,1.48988316187,3.21928271452,0.0,0.0,0.0,1.0
1609054455850727091,1290,1609054455850727091,-1.91486066593,1.51763923762,3.2175473351,0.0,0.0,0.0,1.0
1609054455900039921,1291,1609054455900039921,-1.92136028197,1.54548903758,3.21366566213,0.0,0.0,0.0,1.0
1609054455946904908,1292,1609054455946904908,-1.93635056454,1.6037675098,3.21381417579,0.0,0.0,0.0,1.0
1609054455998558054,1293,1609054455998558054,-1.94520121103,1.63276354256,3.21300130931,0.0,0.0,0.0,1.0
1609054456052550087,1294,1609054456052550087,-1.95466377601,1.66228306133,3.21618382005,0.0,0.0,0.0,1.0
1609054456103350888,1295,1609054456103350888,-1.96502092112,1.69162668043,3.2157718803,0.0,0.0,0.0,1.0
1609054456151856909,1296,1609054456151856909,-1.9735079269,1.7217614095,3.21819250911,0.0,0.0,0.0,1.0
1609054456202996979,1297,1609054456202996979,-1.98300280264,1.75099800475,3.21815062204,0.0,0.0,0.0,1.0
1609054456252471934,1298,1609054456252471934,-2.00218083762,1.8083676682,3.22054285685,0.0,0.0,0.0,1.0
1609054456302912961,1299,1609054456302912961,-2.01246791277,1.83962125674,3.22179967377,0.0,0.0,0.0,1.0
1609054456346425066,1300,1609054456346425066,-2.02356243009,1.86786312289,3.21932478686,0.0,0.0,0.0,1.0
1609054456396291981,1301,1609054456396291981,-2.03322739429,1.897682569,3.22147842104,0.0,0.0,0.0,1.0
1609054456446616898,1302,1609054456446616898,-2.04591107709,1.92627457586,3.22208752994,0.0,0.0,0.0,1.0
1609054456498555909,1303,1609054456498555909,-2.0571320475,1.95551324327,3.22339640392,0.0,0.0,0.0,1.0
1609054456546420107,1304,1609054456546420107,-2.07959476519,2.01080173756,3.22594355463,0.0,0.0,0.0,1.0
1609054456599205981,1305,1609054456599205981,-2.0909820563,2.03679318831,3.22494253459,0.0,0.0,0.0,1.0
1609054456646152030,1306,1609054456646152030,-2.1029117736,2.06398865959,3.22630743665,0.0,0.0,0.0,1.0
1609054456699018965,1307,1609054456699018965,-2.11509775495,2.08957754964,3.22698658859,0.0,0.0,0.0,1.0
1609054456746439944,1308,1609054456746439944,-2.12645248512,2.1136018302,3.22666397683,0.0,0.0,0.0,1.0
1609054456798238049,1309,1609054456798238049,-2.1534301399,2.1656073977,3.22870565134,0.0,0.0,0.0,1.0
1609054456854048977,1310,1609054456854048977,-2.16903200763,2.19083476585,3.23303428168,0.0,0.0,0.0,1.0
1609054456903402100,1311,1609054456903402100,-2.18279333586,2.21592775378,3.23470891509,0.0,0.0,0.0,1.0
1609054456950958977,1312,1609054456950958977,-2.19847803432,2.23960451376,3.23411914711,0.0,0.0,0.0,1.0
1609054457004339943,1313,1609054457004339943,-2.21276377939,2.26233281693,3.23454269683,0.0,0.0,0.0,1.0
1609054457053693066,1314,1609054457053693066,-2.24623847145,2.30711577047,3.23683002598,0.0,0.0,0.0,1.0
1609054457106146107,1315,1609054457106146107,-2.26240617589,2.32794003282,3.23558756034,0.0,0.0,0.0,1.0
1609054457154722939,1316,1609054457154722939,-2.28152313587,2.34723763793,3.2369702538,0.0,0.0,0.0,1.0
1609054457204221974,1317,1609054457204221974,-2.29646465808,2.36717025131,3.2369786252,0.0,0.0,0.0,1.0
1609054457251827965,1318,1609054457251827965,-2.31422969765,2.38565258219,3.23817846361,0.0,0.0,0.0,1.0
1609054457304743062,1319,1609054457304743062,-2.33256774861,2.40313172184,3.23817619182,0.0,0.0,0.0,1.0
1609054457354091893,1320,1609054457354091893,-2.37189965799,2.43632004247,3.2362104354,0.0,0.0,0.0,1.0
1609054457405776034,1321,1609054457405776034,-2.39068701973,2.45066339115,3.23610757508,0.0,0.0,0.0,1.0
1609054457454020033,1322,1609054457454020033,-2.41114768335,2.46369102749,3.23622669146,0.0,0.0,0.0,1.0
1609054457503983031,1323,1609054457503983031,-2.43051131518,2.47760318965,3.23796863329,0.0,0.0,0.0,1.0
1609054457551091919,1324,1609054457551091919,-2.45101752454,2.48966086248,3.2361142947,0.0,0.0,0.0,1.0
1609054457604027043,1325,1609054457604027043,-2.47063107568,2.50154206854,3.23727416516,0.0,0.0,0.0,1.0
1609054457653215895,1326,1609054457653215895,-2.51297679758,2.5237272537,3.23640923595,0.0,0.0,0.0,1.0
1609054457703679095,1327,1609054457703679095,-2.53352314071,2.53354779139,3.23702275976,0.0,0.0,0.0,1.0
1609054457753196011,1328,1609054457753196011,-2.55450352942,2.54319137555,3.23721431271,0.0,0.0,0.0,1.0
1609054457803808938,1329,1609054457803808938,-2.57224849215,2.55285831386,3.23652793287,0.0,0.0,0.0,1.0
1609054457851281891,1330,1609054457851281891,-2.5931678335,2.56177760225,3.23680517733,0.0,0.0,0.0,1.0
1609054457905211936,1331,1609054457905211936,-2.61277100819,2.56976715032,3.23482212842,0.0,0.0,0.0,1.0
1609054457952739964,1332,1609054457952739964,-2.65119999794,2.58433679684,3.23559595907,0.0,0.0,0.0,1.0
1609054458001143942,1333,1609054458001143942,-2.67153373164,2.59098929749,3.23555622923,0.0,0.0,0.0,1.0
1609054458050708066,1334,1609054458050708066,-2.68882266984,2.59817393622,3.23334599692,0.0,0.0,0.0,1.0
1609054458104496966,1335,1609054458104496966,-2.70812570841,2.6041783739,3.23235995589,0.0,0.0,0.0,1.0
1609054458152424107,1336,1609054458152424107,-2.72686463015,2.60932834682,3.22951098684,0.0,0.0,0.0,1.0
1609054458203432093,1337,1609054458203432093,-2.7428177404,2.61562340258,3.22788435155,0.0,0.0,0.0,1.0
1609054458253824006,1338,1609054458253824006,-2.77793033682,2.62488531044,3.2191027929,0.0,0.0,0.0,1.0
1609054458304745923,1339,1609054458304745923,-2.79372081388,2.62884434025,3.21440230725,0.0,0.0,0.0,1.0
1609054458351552020,1340,1609054458351552020,-2.80868845596,2.63279343447,3.21011750629,0.0,0.0,0.0,1.0
1609054458403353940,1341,1609054458403353940,-2.82450067233,2.63559499028,3.20379828278,0.0,0.0,0.0,1.0
1609054458466763030,1342,1609054458466763030,-2.85444359254,2.64109409557,3.19223634574,0.0,0.0,0.0,1.0
1609054458508977900,1343,1609054458508977900,-2.8703933594,2.64345412103,3.18465533593,0.0,0.0,0.0,1.0
1609054458557974110,1344,1609054458557974110,-2.88414836267,2.64688570091,3.18290574951,0.0,0.0,0.0,1.0
1609054458694653998,1345,1609054458694653998,-2.9265942868,2.65070499814,3.16543448768,0.0,0.0,0.0,1.0
1609054458765898953,1346,1609054458765898953,-2.95341828907,2.65263189113,3.15664341872,0.0,0.0,0.0,1.0
1609054458805989991,1347,1609054458805989991,-2.96610433405,2.65358707934,3.15334108259,0.0,0.0,0.0,1.0
1609054458852916012,1348,1609054458852916012,-2.97959653387,2.6547516894,3.15145663917,0.0,0.0,0.0,1.0
1609054458902420054,1349,1609054458902420054,-2.99183798128,2.65544932738,3.14842025082,0.0,0.0,0.0,1.0
1609054458950566063,1350,1609054458950566063,-3.0036788196,2.65577862107,3.14581896067,0.0,0.0,0.0,1.0
1609054459002904902,1351,1609054459002904902,-3.01472608062,2.65661989028,3.14358188916,0.0,0.0,0.0,1.0
1609054459053602944,1352,1609054459053602944,-3.02599110808,2.65742664343,3.14220811394,0.0,0.0,0.0,1.0
1609054459113754044,1353,1609054459113754044,-3.04746387847,2.65961811001,3.14138708092,0.0,0.0,0.0,1.0
1609054459152350913,1354,1609054459152350913,-3.05742876437,2.66126823318,3.14127934729,0.0,0.0,0.0,1.0
1609054459203099976,1355,1609054459203099976,-3.06666843438,2.66340715046,3.14153251111,0.0,0.0,0.0,1.0
1609054459250468979,1356,1609054459250468979,-3.07892182935,2.6653657593,3.14061278886,0.0,0.0,0.0,1.0
1609054459303961049,1357,1609054459303961049,-3.08821573498,2.66845592524,3.14323419648,0.0,0.0,0.0,1.0
1609054459352732907,1358,1609054459352732907,-3.10710928835,2.67521501232,3.1453848559,0.0,0.0,0.0,1.0
1609054459403471957,1359,1609054459403471957,-3.11797535275,2.67752362486,3.1458649506,0.0,0.0,0.0,1.0
1609054459451667080,1360,1609054459451667080,-3.12532963662,2.68147990457,3.14985153771,0.0,0.0,0.0,1.0
1609054459502808104,1361,1609054459502808104,-3.13558277614,2.68449715511,3.15161809518,0.0,0.0,0.0,1.0
1609054459550277958,1362,1609054459550277958,-3.14291034048,2.68966839061,3.15633033471,0.0,0.0,0.0,1.0
1609054459603152047,1363,1609054459603152047,-3.15279119076,2.69370186804,3.15669623736,0.0,0.0,0.0,1.0
1609054459654963980,1364,1609054459654963980,-3.17040012962,2.70266887709,3.16621242858,0.0,0.0,0.0,1.0
1609054459704540978,1365,1609054459704540978,-3.17580767549,2.70781969138,3.17169888325,0.0,0.0,0.0,1.0
1609054459793946991,1366,1609054459793946991,-3.19021876228,2.71625116451,3.17964396584,0.0,0.0,0.0,1.0
1609054459864031086,1367,1609054459864031086,-3.20412770336,2.72580632648,3.18737931248,0.0,0.0,0.0,1.0
1609054459910187016,1368,1609054459910187016,-3.21440662807,2.72865718009,3.19041031511,0.0,0.0,0.0,1.0
1609054459957643996,1369,1609054459957643996,-3.21894429991,2.73353217313,3.19487165146,0.0,0.0,0.0,1.0
1609054460046794901,1370,1609054460046794901,-3.23395895371,2.74186254437,3.20315790067,0.0,0.0,0.0,1.0
1609054460095088969,1371,1609054460095088969,-3.24222185635,2.7454247862,3.20392450118,0.0,0.0,0.0,1.0
1609054460167511950,1372,1609054460167511950,-3.255590515,2.75245119975,3.21268662932,0.0,0.0,0.0,1.0
1609054460211879025,1373,1609054460211879025,-3.26138984373,2.75534915389,3.21651659903,0.0,0.0,0.0,1.0
1609054460259269963,1374,1609054460259269963,-3.27008293197,2.75775265826,3.22061696991,0.0,0.0,0.0,1.0
1609054460305681000,1375,1609054460305681000,-3.2763909316,2.75986222933,3.22300958453,0.0,0.0,0.0,1.0
1609054460351424943,1376,1609054460351424943,-3.28437454789,2.7617247572,3.22612743222,0.0,0.0,0.0,1.0
1609054460403100977,1377,1609054460403100977,-3.29224847303,2.76282187001,3.23018182407,0.0,0.0,0.0,1.0
1609054460451817999,1378,1609054460451817999,-3.30109980758,2.76319566932,3.23320865818,0.0,0.0,0.0,1.0
1609054460504613886,1379,1609054460504613886,-3.30747665435,2.76388736484,3.23757397183,0.0,0.0,0.0,1.0
1609054460552916060,1380,1609054460552916060,-3.32889407517,2.76185407809,3.24465495492,0.0,0.0,0.0,1.0
1609054460602345000,1381,1609054460602345000,-3.33846509718,2.76035948075,3.24752001684,0.0,0.0,0.0,1.0
1609054460651737938,1382,1609054460651737938,-3.34878071065,2.75899270793,3.25408300594,0.0,0.0,0.0,1.0
1609054460703598986,1383,1609054460703598986,-3.3604805039,2.75649365194,3.2565290579,0.0,0.0,0.0,1.0
1609054460753504048,1384,1609054460753504048,-3.37257950174,2.75417188019,3.26119368079,0.0,0.0,0.0,1.0
1609054460804677973,1385,1609054460804677973,-3.38651579901,2.75095626907,3.26341454839,0.0,0.0,0.0,1.0
1609054460853570948,1386,1609054460853570948,-3.41496256078,2.74317357914,3.27286635227,0.0,0.0,0.0,1.0
1609054460901742945,1387,1609054460901742945,-3.42884296507,2.73891883049,3.27752989778,0.0,0.0,0.0,1.0
1609054460952308903,1388,1609054460952308903,-3.44488049926,2.73380984851,3.27863179303,0.0,0.0,0.0,1.0
1609054461003927002,1389,1609054461003927002,-3.4609731176,2.72860527031,3.28258859271,0.0,0.0,0.0,1.0
1609054461052742014,1390,1609054461052742014,-3.47904469735,2.72263398885,3.28348790717,0.0,0.0,0.0,1.0
1609054461106276045,1391,1609054461106276045,-3.49870603963,2.71650712171,3.28654994362,0.0,0.0,0.0,1.0
1609054461152689944,1392,1609054461152689944,-3.53993353955,2.70475397782,3.29133787377,0.0,0.0,0.0,1.0
1609054461203065882,1393,1609054461203065882,-3.56115219624,2.69871056483,3.2928615467,0.0,0.0,0.0,1.0
1609054461254008065,1394,1609054461254008065,-3.58214482491,2.69317124357,3.29444219511,0.0,0.0,0.0,1.0
1609054461303901921,1395,1609054461303901921,-3.60448122104,2.68787880949,3.29597874496,0.0,0.0,0.0,1.0
1609054461350346098,1396,1609054461350346098,-3.62980767921,2.68162809512,3.29820501195,0.0,0.0,0.0,1.0
1609054461404556046,1397,1609054461404556046,-3.65444707864,2.67614478664,3.29813968472,0.0,0.0,0.0,1.0
1609054461453782092,1398,1609054461453782092,-3.70521662311,2.66489066853,3.29948677108,0.0,0.0,0.0,1.0
1609054461504395972,1399,1609054461504395972,-3.73055503756,2.65964573589,3.30137738355,0.0,0.0,0.0,1.0
1609054461550894986,1400,1609054461550894986,-3.75638068972,2.65450751256,3.30060601579,0.0,0.0,0.0,1.0
1609054461623071919,1401,1609054461623071919,-3.81096025742,2.64312069284,3.30332240371,0.0,0.0,0.0,1.0
1609054461709820042,1402,1609054461709820042,-3.86281278461,2.63296288755,3.30499784458,0.0,0.0,0.0,1.0
1609054461756973992,1403,1609054461756973992,-3.89323167063,2.62601251886,3.30506529376,0.0,0.0,0.0,1.0
1609054461802300940,1404,1609054461802300940,-3.91448357046,2.62214003343,3.30562856884,0.0,0.0,0.0,1.0
1609054461851242075,1405,1609054461851242075,-3.93987481369,2.6167778733,3.30716653085,0.0,0.0,0.0,1.0
1609054461904557953,1406,1609054461904557953,-3.96591761882,2.6114339049,3.30766952748,0.0,0.0,0.0,1.0
1609054461951795111,1407,1609054461951795111,-3.988578773,2.60680874984,3.30836142869,0.0,0.0,0.0,1.0
1609054462002415905,1408,1609054462002415905,-4.01283389571,2.60135548182,3.30874128982,0.0,0.0,0.0,1.0
1609054462053945075,1409,1609054462053945075,-4.05955291771,2.59070322118,3.31036355406,0.0,0.0,0.0,1.0
1609054462104649077,1410,1609054462104649077,-4.08013957842,2.58505918118,3.31221690355,0.0,0.0,0.0,1.0
1609054462151917944,1411,1609054462151917944,-4.10082167695,2.57884716118,3.31207112011,0.0,0.0,0.0,1.0
1609054462202331076,1412,1609054462202331076,-4.1198954671,2.57281151801,3.31214902265,0.0,0.0,0.0,1.0
1609054462250576983,1413,1609054462250576983,-4.13754749421,2.56647498567,3.31282313762,0.0,0.0,0.0,1.0
1609054462305351029,1414,1609054462305351029,-4.15628778762,2.55946248618,3.3124680245,0.0,0.0,0.0,1.0
1609054462353192101,1415,1609054462353192101,-4.18923148097,2.54546197796,3.31071506356,0.0,0.0,0.0,1.0
1609054462403050910,1416,1609054462403050910,-4.20372798036,2.53919256193,3.31089671136,0.0,0.0,0.0,1.0
1609054462451934109,1417,1609054462451934109,-4.21871376332,2.53262171314,3.31092385536,0.0,0.0,0.0,1.0
1609054462504554043,1418,1609054462504554043,-4.23164840718,2.52583945444,3.31066822426,0.0,0.0,0.0,1.0
1609054462551003943,1419,1609054462551003943,-4.24564449162,2.51803136156,3.31075288037,0.0,0.0,0.0,1.0
1609054462603164921,1420,1609054462603164921,-4.2580070767,2.50980801641,3.30957715498,0.0,0.0,0.0,1.0
1609054462653791914,1421,1609054462653791914,-4.28056997698,2.49213398055,3.30725861629,0.0,0.0,0.0,1.0
1609054462704354058,1422,1609054462704354058,-4.28056995872,2.49213392094,3.3072572694,0.0,0.0,0.0,1.0
1609054462751565943,1423,1609054462751565943,-4.30007236471,2.47455866025,3.30768408701,0.0,0.0,0.0,1.0
1609054462802571068,1424,1609054462802571068,-4.30919453568,2.4648872293,3.30693454352,0.0,0.0,0.0,1.0
1609054462851253043,1425,1609054462851253043,-4.31802237927,2.45448852761,3.3065858475,0.0,0.0,0.0,1.0
1609054462904077063,1426,1609054462904077063,-4.32606723677,2.44374531943,3.30416523988,0.0,0.0,0.0,1.0
1609054462953547965,1427,1609054462953547965,-4.34212073477,2.42003923805,3.3018772704,0.0,0.0,0.0,1.0
1609054463003099928,1428,1609054463003099928,-4.34750795045,2.40952360001,3.30122040905,0.0,0.0,0.0,1.0
1609054463052538882,1429,1609054463052538882,-4.35494645827,2.39652477045,3.30063937132,0.0,0.0,0.0,1.0
1609054463105612050,1430,1609054463105612050,-4.36036715593,2.38393371993,3.29943614677,0.0,0.0,0.0,1.0
1609054463154227028,1431,1609054463154227028,-4.36627891207,2.37009894424,3.29849832898,0.0,0.0,0.0,1.0
1609054463202734957,1432,1609054463202734957,-4.37143985304,2.35608743132,3.29910032612,0.0,0.0,0.0,1.0
1609054463252432118,1433,1609054463252432118,-4.3793613178,2.3266676162,3.30140456512,0.0,0.0,0.0,1.0
1609054463303997050,1434,1609054463303997050,-4.38345173863,2.31121144388,3.3014819005,0.0,0.0,0.0,1.0
1609054463351564894,1435,1609054463351564894,-4.38608968894,2.29495145291,3.30235418341,0.0,0.0,0.0,1.0
1609054463403523932,1436,1609054463403523932,-4.38951824891,2.27792089824,3.30453477077,0.0,0.0,0.0,1.0
1609054463451581011,1437,1609054463451581011,-4.39233729779,2.26027439412,3.30693622036,0.0,0.0,0.0,1.0
1609054463505526076,1438,1609054463505526076,-4.39475017241,2.24248348668,3.30766307611,0.0,0.0,0.0,1.0
1609054463554171095,1439,1609054463554171095,-4.3978046846,2.20515733791,3.31228812663,0.0,0.0,0.0,1.0
1609054463603499899,1440,1609054463603499899,-4.39835520302,2.18799993654,3.31377616203,0.0,0.0,0.0,1.0
1609054463650873909,1441,1609054463650873909,-4.39991867565,2.16939276137,3.31754354706,0.0,0.0,0.0,1.0
1609054463703698884,1442,1609054463703698884,-4.39981890849,2.15119629719,3.31904319001,0.0,0.0,0.0,1.0
1609054463750394116,1443,1609054463750394116,-4.40217167845,2.13177008769,3.32100221552,0.0,0.0,0.0,1.0
1609054463803096066,1444,1609054463803096066,-4.40205227376,2.11358862847,3.32268479698,0.0,0.0,0.0,1.0
1609054463852523098,1445,1609054463852523098,-4.40103784392,2.07705327567,3.32964353592,0.0,0.0,0.0,1.0
1609054463902827034,1446,1609054463902827034,-4.39990478909,2.05857246536,3.33485893829,0.0,0.0,0.0,1.0
1609054463953401099,1447,1609054463953401099,-4.3997425364,2.03898968442,3.33607400726,0.0,0.0,0.0,1.0
1609054464001800070,1448,1609054464001800070,-4.39692809934,2.02069305739,3.33860308394,0.0,0.0,0.0,1.0
1609054464051260005,1449,1609054464051260005,-4.39627414188,2.00180564443,3.34146741806,0.0,0.0,0.0,1.0
1609054464105400095,1450,1609054464105400095,-4.39400052103,1.98341990011,3.34637978401,0.0,0.0,0.0,1.0
1609054464153644095,1451,1609054464153644095,-4.38959849247,1.94411810102,3.35381480407,0.0,0.0,0.0,1.0
1609054464203212986,1452,1609054464203212986,-4.38773477021,1.92678212385,3.35713516419,0.0,0.0,0.0,1.0
1609054464254055987,1453,1609054464254055987,-4.38344925852,1.90895584255,3.36225562027,0.0,0.0,0.0,1.0
1609054464302728901,1454,1609054464302728901,-4.38244239965,1.89003176662,3.36387752533,0.0,0.0,0.0,1.0
1609054464351110945,1455,1609054464351110945,-4.37886499593,1.87186385476,3.36753535823,0.0,0.0,0.0,1.0
1609054464409678946,1456,1609054464409678946,-4.37087624151,1.83480790974,3.37555436255,0.0,0.0,0.0,1.0
1609054464457736979,1457,1609054464457736979,-4.36666877736,1.81704810974,3.37828544561,0.0,0.0,0.0,1.0
1609054464504398118,1458,1609054464504398118,-4.36257033583,1.79951282812,3.379885058,0.0,0.0,0.0,1.0
1609054464547563086,1459,1609054464547563086,-4.35761429928,1.78097693721,3.37843500091,0.0,0.0,0.0,1.0
1609054464597230921,1460,1609054464597230921,-4.35111168179,1.76286820095,3.38245147434,0.0,0.0,0.0,1.0
1609054464650621901,1461,1609054464650621901,-4.34494771869,1.74450405833,3.38827362739,0.0,0.0,0.0,1.0
1609054464704104910,1462,1609054464704104910,-4.33811221953,1.72661292842,3.38976224975,0.0,0.0,0.0,1.0
1609054464753273020,1463,1609054464753273020,-4.32320852284,1.68961146956,3.39325895279,0.0,0.0,0.0,1.0
1609054464804099093,1464,1609054464804099093,-4.31455556255,1.67079493535,3.39452751509,0.0,0.0,0.0,1.0
1609054464850785027,1465,1609054464850785027,-4.30555278108,1.652633264,3.39551070594,0.0,0.0,0.0,1.0
1609054464903882990,1466,1609054464903882990,-4.29438842805,1.63393689606,3.39941476687,0.0,0.0,0.0,1.0
1609054464947485934,1467,1609054464947485934,-4.2827403973,1.61508627687,3.39636559292,0.0,0.0,0.0,1.0
1609054464999255906,1468,1609054464999255906,-4.27149085703,1.59542924549,3.39747759643,0.0,0.0,0.0,1.0
1609054465047106038,1469,1609054465047106038,-4.25870031959,1.57724054706,3.39690930056,0.0,0.0,0.0,1.0
1609054465110362063,1470,1609054465110362063,-4.23160906713,1.53938236994,3.40198791941,0.0,0.0,0.0,1.0
1609054465150917063,1471,1609054465150917063,-4.21716114773,1.52013419779,3.40194035159,0.0,0.0,0.0,1.0
1609054465201927910,1472,1609054465201927910,-4.20316428605,1.49927074119,3.40084573702,0.0,0.0,0.0,1.0
1609054465252311001,1473,1609054465252311001,-4.18573038923,1.48004226823,3.39992179319,0.0,0.0,0.0,1.0
1609054465304934035,1474,1609054465304934035,-4.17047086362,1.45911836368,3.39876149335,0.0,0.0,0.0,1.0
1609054465352088938,1475,1609054465352088938,-4.13583613482,1.41688279753,3.39602548985,0.0,0.0,0.0,1.0
1609054465403968106,1476,1609054465403968106,-4.11846911506,1.39510609558,3.39397205444,0.0,0.0,0.0,1.0
1609054465451155911,1477,1609054465451155911,-4.10182351723,1.37171129963,3.39072395545,0.0,0.0,0.0,1.0
1609054465503098975,1478,1609054465503098975,-4.08249314245,1.34765948919,3.38827418454,0.0,0.0,0.0,1.0
1609054465551418076,1479,1609054465551418076,-4.06412996518,1.32321748052,3.3831928268,0.0,0.0,0.0,1.0
1609054465604239951,1480,1609054465604239951,-4.04518877563,1.2983541518,3.38036485687,0.0,0.0,0.0,1.0
1609054465654043923,1481,1609054465654043923,-4.00657522027,1.24278797665,3.37449439655,0.0,0.0,0.0,1.0
1609054465704319964,1482,1609054465704319964,-3.98678030524,1.21329830924,3.37123113516,0.0,0.0,0.0,1.0
1609054465751614104,1483,1609054465751614104,-3.96643547094,1.18209350003,3.36589855408,0.0,0.0,0.0,1.0
1609054465804313908,1484,1609054465804313908,-3.94637875103,1.15032623865,3.36224900842,0.0,0.0,0.0,1.0
1609054465851964961,1485,1609054465851964961,-3.92561705467,1.11748369711,3.35962375736,0.0,0.0,0.0,1.0
1609054465904968987,1486,1609054465904968987,-3.90567554393,1.08251488855,3.35708551978,0.0,0.0,0.0,1.0
1609054465952604065,1487,1609054465952604065,-3.88466679732,1.04558884222,3.35444230121,0.0,0.0,0.0,1.0
1609054466004226933,1488,1609054466004226933,-3.84263176698,0.969608262456,3.34931773991,0.0,0.0,0.0,1.0
1609054466050560961,1489,1609054466050560961,-3.82401246437,0.930204899888,3.34519094297,0.0,0.0,0.0,1.0
1609054466104645024,1490,1609054466104645024,-3.80156418771,0.891353960626,3.34461751983,0.0,0.0,0.0,1.0
1609054466152828942,1491,1609054466152828942,-3.78109305626,0.848969990524,3.34182902802,0.0,0.0,0.0,1.0
1609054466204413901,1492,1609054466204413901,-3.75960783355,0.804990572751,3.34014898252,0.0,0.0,0.0,1.0
1609054466254230986,1493,1609054466254230986,-3.73832769775,0.76249869724,3.33768142248,0.0,0.0,0.0,1.0
1609054466302845011,1494,1609054466302845011,-3.69404396877,0.671271645498,3.33188272942,0.0,0.0,0.0,1.0
1609054466352251063,1495,1609054466352251063,-3.67095963556,0.629683953422,3.336028281,0.0,0.0,0.0,1.0
1609054466401681910,1496,1609054466401681910,-3.65017752602,0.584361102467,3.33423561858,0.0,0.0,0.0,1.0
1609054466450985919,1497,1609054466450985919,-3.62723891907,0.539561990096,3.3352074685,0.0,0.0,0.0,1.0
1609054466505230914,1498,1609054466505230914,-3.60580549336,0.494104482217,3.33437992932,0.0,0.0,0.0,1.0
1609054466552450905,1499,1609054466552450905,-3.56280494901,0.405331290526,3.3360316985,0.0,0.0,0.0,1.0
1609054466603152047,1500,1609054466603152047,-3.54205405605,0.365738315014,3.33569882316,0.0,0.0,0.0,1.0
1609054466651506911,1501,1609054466651506911,-3.52192100713,0.324029917004,3.33622153287,0.0,0.0,0.0,1.0
1609054466703780900,1502,1609054466703780900,-3.50130430981,0.280821618622,3.33733534013,0.0,0.0,0.0,1.0
1609054466751344929,1503,1609054466751344929,-3.48156399897,0.239842044193,3.33616853894,0.0,0.0,0.0,1.0
1609054466803095112,1504,1609054466803095112,-3.46070824971,0.200525254188,3.33632145846,0.0,0.0,0.0,1.0
1609054466853938113,1505,1609054466853938113,-3.41806994515,0.12389281703,3.33761100246,0.0,0.0,0.0,1.0
1609054466904437075,1506,1609054466904437075,-3.40024068451,0.0891829663207,3.33930044969,0.0,0.0,0.0,1.0
1609054466952064047,1507,1609054466952064047,-3.3806162641,0.0555470802194,3.34043115323,0.0,0.0,0.0,1.0
1609054467003964911,1508,1609054467003964911,-3.36228086964,0.0209500848045,3.34061022544,0.0,0.0,0.0,1.0
1609054467052017937,1509,1609054467052017937,-3.34315029279,-0.0115048097511,3.34129555238,0.0,0.0,0.0,1.0
1609054467109786044,1510,1609054467109786044,-3.32350778707,-0.0424909254437,3.33975360202,0.0,0.0,0.0,1.0
1609054467153933058,1511,1609054467153933058,-3.28643508549,-0.101157843091,3.34025224556,0.0,0.0,0.0,1.0
1609054467202565918,1512,1609054467202565918,-3.2674385865,-0.130000761194,3.341519786,0.0,0.0,0.0,1.0
1609054467325687895,1513,1609054467325687895,-3.21481122235,-0.209959718332,3.33648181678,0.0,0.0,0.0,1.0
1609054467364631901,1514,1609054467364631901,-3.19597876326,-0.234507395024,3.33519591749,0.0,0.0,0.0,1.0
1609054467411103020,1515,1609054467411103020,-3.17839686007,-0.25809948322,3.3346068171,0.0,0.0,0.0,1.0
1609054467460609923,1516,1609054467460609923,-3.15727893682,-0.281683712143,3.3333888004,0.0,0.0,0.0,1.0
1609054467504728089,1517,1609054467504728089,-3.1393708096,-0.30536398176,3.33082879334,0.0,0.0,0.0,1.0
1609054467550940047,1518,1609054467550940047,-3.11969343643,-0.326810544588,3.32976827051,0.0,0.0,0.0,1.0
1609054467601888905,1519,1609054467601888905,-3.09999131119,-0.348488904319,3.32821262136,0.0,0.0,0.0,1.0
1609054467650775919,1520,1609054467650775919,-3.08066406499,-0.370083366269,3.32689481216,0.0,0.0,0.0,1.0
1609054467702419053,1521,1609054467702419053,-3.0618068786,-0.3906120748,3.32481033915,0.0,0.0,0.0,1.0
1609054467752959977,1522,1609054467752959977,-3.02084888192,-0.432785146213,3.32123537229,0.0,0.0,0.0,1.0
1609054467803428898,1523,1609054467803428898,-3.02084890325,-0.432785076597,3.32123688223,0.0,0.0,0.0,1.0
1609054467851001034,1524,1609054467851001034,-2.98227436381,-0.469883547651,3.31744534284,0.0,0.0,0.0,1.0
1609054467904416094,1525,1609054467904416094,-2.96202685777,-0.489374655097,3.31942481063,0.0,0.0,0.0,1.0
1609054467951854001,1526,1609054467951854001,-2.94039556964,-0.508174978699,3.31448412778,0.0,0.0,0.0,1.0
1609054468003885994,1527,1609054468003885994,-2.91876127406,-0.526974573428,3.31374428997,0.0,0.0,0.0,1.0
1609054468054331074,1528,1609054468054331074,-2.87548076368,-0.566713327384,3.31021849666,0.0,0.0,0.0,1.0
1609054468104750882,1529,1609054468104750882,-2.85672610657,-0.585016361179,3.30895680326,0.0,0.0,0.0,1.0
1609054468152646075,1530,1609054468152646075,-2.83615242074,-0.604647006135,3.30824064737,0.0,0.0,0.0,1.0
1609054468203968058,1531,1609054468203968058,-2.81423328004,-0.62308679929,3.30855611548,0.0,0.0,0.0,1.0
1609054468251420031,1532,1609054468251420031,-2.79411182649,-0.642401905991,3.30902565092,0.0,0.0,0.0,1.0
1609054468312054883,1533,1609054468312054883,-2.75144315471,-0.682342809802,3.31073415219,0.0,0.0,0.0,1.0
1609054468358798991,1534,1609054468358798991,-2.73034571217,-0.70437008811,3.31177981472,0.0,0.0,0.0,1.0
1609054468566535006,1536,1609054468566535006,-2.63019953512,-0.806570767227,3.31939438349,0.0,0.0,0.0,1.0
1609054468609270106,1537,1609054468609270106,-2.611438031,-0.828693293101,3.32108101244,0.0,0.0,0.0,1.0
1609054468658425103,1538,1609054468658425103,-2.59010579942,-0.851951787367,3.32376563406,0.0,0.0,0.0,1.0
1609054468702965031,1539,1609054468702965031,-2.57092665836,-0.873146943949,3.32603022495,0.0,0.0,0.0,1.0
1609054468750931035,1540,1609054468750931035,-2.5522616039,-0.896448426519,3.32840175645,0.0,0.0,0.0,1.0
1609054468802773963,1541,1609054468802773963,-2.53215743879,-0.918946407099,3.33196361612,0.0,0.0,0.0,1.0
1609054468867470036,1542,1609054468867470036,-2.49474350987,-0.966538969037,3.33568476571,0.0,0.0,0.0,1.0
1609054468909251938,1543,1609054468909251938,-2.47548107044,-0.9897824513,3.33710205411,0.0,0.0,0.0,1.0
1609054468959145079,1544,1609054468959145079,-2.45650253239,-1.01423193111,3.3378736323,0.0,0.0,0.0,1.0
1609054469001622925,1545,1609054469001622925,-2.43831648097,-1.03849789986,3.33960484988,0.0,0.0,0.0,1.0
1609054469051366101,1546,1609054469051366101,-2.41773349324,-1.06290760282,3.3401106931,0.0,0.0,0.0,1.0
1609054469107438098,1547,1609054469107438098,-2.39958294378,-1.08823013809,3.3402728451,0.0,0.0,0.0,1.0
1609054469150444041,1548,1609054469150444041,-2.38108425405,-1.11331927601,3.34043605815,0.0,0.0,0.0,1.0
1609054469204180012,1549,1609054469204180012,-2.36187353038,-1.13808238541,3.34187709627,0.0,0.0,0.0,1.0
1609054469253916035,1550,1609054469253916035,-2.32564654485,-1.19004186963,3.34221179939,0.0,0.0,0.0,1.0
1609054469304346095,1551,1609054469304346095,-2.30764570253,-1.21614910605,3.34280487522,0.0,0.0,0.0,1.0
1609054469350836049,1552,1609054469350836049,-2.28940868342,-1.24212707773,3.34218113066,0.0,0.0,0.0,1.0
1609054469404366980,1553,1609054469404366980,-2.27088839105,-1.2685476255,3.34132377687,0.0,0.0,0.0,1.0
1609054469453622113,1554,1609054469453622113,-2.25319664981,-1.29588699985,3.34095727317,0.0,0.0,0.0,1.0
1609054469505599032,1555,1609054469505599032,-2.23550033341,-1.32221870951,3.34150473374,0.0,0.0,0.0,1.0
1609054469556339036,1556,1609054469556339036,-2.21730923611,-1.3486670109,3.34044065007,0.0,0.0,0.0,1.0
1609054469603723059,1557,1609054469603723059,-2.18226756605,-1.40251375731,3.3397834761,0.0,0.0,0.0,1.0
1609054469695729981,1558,1609054469695729981,-2.14738764464,-1.45781682399,3.3369202105,0.0,0.0,0.0,1.0
1609054469766092072,1559,1609054469766092072,-2.11367393116,-1.51308903879,3.33266126942,0.0,0.0,0.0,1.0
1609054469808110009,1560,1609054469808110009,-2.0969045822,-1.5405936618,3.33164695352,0.0,0.0,0.0,1.0
1609054469859049092,1561,1609054469859049092,-2.07975041841,-1.56781626591,3.32927423967,0.0,0.0,0.0,1.0
1609054469904148112,1562,1609054469904148112,-2.0621739726,-1.59586090614,3.32863730893,0.0,0.0,0.0,1.0
1609054469951941977,1563,1609054469951941977,-2.04549525332,-1.62460576528,3.32700068895,0.0,0.0,0.0,1.0
1609054470002232085,1564,1609054470002232085,-2.02869492729,-1.65308311874,3.32556904515,0.0,0.0,0.0,1.0
1609054470051831017,1565,1609054470051831017,-2.01224048533,-1.68138075163,3.32388577448,0.0,0.0,0.0,1.0
1609054470105645905,1566,1609054470105645905,-1.9948554191,-1.7088700128,3.32303558163,0.0,0.0,0.0,1.0
1609054470153985034,1567,1609054470153985034,-1.96175599649,-1.76431117,3.32213322912,0.0,0.0,0.0,1.0
1609054470204214106,1568,1609054470204214106,-1.94490740276,-1.79129620944,3.32044510422,0.0,0.0,0.0,1.0
1609054470251437912,1569,1609054470251437912,-1.92821293565,-1.8184314619,3.31901001907,0.0,0.0,0.0,1.0
1609054470304377089,1570,1609054470304377089,-1.9110746831,-1.84562847112,3.31739684729,0.0,0.0,0.0,1.0
1609054470352343092,1571,1609054470352343092,-1.89518616508,-1.87316359969,3.31599025623,0.0,0.0,0.0,1.0
1609054470405801068,1572,1609054470405801068,-1.87852407087,-1.8996963556,3.314125451,0.0,0.0,0.0,1.0
1609054470453435908,1573,1609054470453435908,-1.84480952028,-1.95275968254,3.31183545102,0.0,0.0,0.0,1.0
1609054470504277001,1574,1609054470504277001,-1.82932457533,-1.97935932514,3.31080057325,0.0,0.0,0.0,1.0
1609054470553294907,1575,1609054470553294907,-1.81262036766,-2.00484419017,3.31039555525,0.0,0.0,0.0,1.0
1609054470603966008,1576,1609054470603966008,-1.79639630576,-2.03034112057,3.30904639648,0.0,0.0,0.0,1.0
1609054470654726992,1577,1609054470654726992,-1.77903423074,-2.05503398956,3.30906173835,0.0,0.0,0.0,1.0
1609054470703955899,1578,1609054470703955899,-1.74496191741,-2.10428460312,3.30611110958,0.0,0.0,0.0,1.0
1609054470751302968,1579,1609054470751302968,-1.72733316122,-2.1279629798,3.30340738227,0.0,0.0,0.0,1.0
1609054470804013978,1580,1609054470804013978,-1.71087728401,-2.14942380488,3.30236257783,0.0,0.0,0.0,1.0
1609054470851499091,1581,1609054470851499091,-1.6937338872,-2.17269712226,3.30062078306,0.0,0.0,0.0,1.0
1609054470905996094,1582,1609054470905996094,-1.67617557818,-2.19533270161,3.29605461252,0.0,0.0,0.0,1.0
1609054470953829060,1583,1609054470953829060,-1.64004303494,-2.24031285927,3.29556821857,0.0,0.0,0.0,1.0
1609054471003571997,1584,1609054471003571997,-1.62238943803,-2.26093530039,3.29425141396,0.0,0.0,0.0,1.0
1609054471051626931,1585,1609054471051626931,-1.60455965392,-2.28287247736,3.29307059568,0.0,0.0,0.0,1.0
1609054471111330996,1586,1609054471111330996,-1.58588227842,-2.30438150678,3.29220581122,0.0,0.0,0.0,1.0
1609054471151957999,1587,1609054471151957999,-1.56738889013,-2.3246078323,3.2907223055,0.0,0.0,0.0,1.0
1609054471204899083,1588,1609054471204899083,-1.54916781402,-2.34441733818,3.29094531949,0.0,0.0,0.0,1.0
1609054471253428946,1589,1609054471253428946,-1.50959102946,-2.38578815703,3.2893424265,0.0,0.0,0.0,1.0
1609054471303709994,1590,1609054471303709994,-1.4917301903,-2.40445258027,3.28764041835,0.0,0.0,0.0,1.0
1609054471351878891,1591,1609054471351878891,-1.47235188068,-2.42333074026,3.28767286233,0.0,0.0,0.0,1.0
1609054471404372941,1592,1609054471404372941,-1.4515108143,-2.44292646877,3.28637433183,0.0,0.0,0.0,1.0
1609054471451807986,1593,1609054471451807986,-1.43152818117,-2.4629246635,3.28536699823,0.0,0.0,0.0,1.0
1609054471504865895,1594,1609054471504865895,-1.41102999966,-2.48232954653,3.28407450674,0.0,0.0,0.0,1.0
1609054471552196990,1595,1609054471552196990,-1.36689987673,-2.52289209711,3.2835148893,0.0,0.0,0.0,1.0
1609054471603915940,1596,1609054471603915940,-1.34635590462,-2.54154979592,3.28212151435,0.0,0.0,0.0,1.0
1609054471653300057,1597,1609054471653300057,-1.32564686015,-2.5615098283,3.28117774524,0.0,0.0,0.0,1.0
1609054471704035054,1598,1609054471704035054,-1.30484511802,-2.58233211419,3.27945645778,0.0,0.0,0.0,1.0
1609054471750806103,1599,1609054471750806103,-1.28192392508,-2.60217720927,3.27788167033,0.0,0.0,0.0,1.0
1609054471803514967,1600,1609054471803514967,-1.2590667181,-2.62247417222,3.27828297441,0.0,0.0,0.0,1.0
1609054471852950106,1601,1609054471852950106,-1.21479168516,-2.66501730992,3.27436633252,0.0,0.0,0.0,1.0
1609054471904618989,1602,1609054471904618989,-1.19181965997,-2.68642633061,3.27329068002,0.0,0.0,0.0,1.0
1609054471953957091,1603,1609054471953957091,-1.16977433601,-2.70926104275,3.2716935592,0.0,0.0,0.0,1.0
1609054472003621111,1604,1609054472003621111,-1.14483432949,-2.73110556886,3.27132857955,0.0,0.0,0.0,1.0
1609054472052397023,1605,1609054472052397023,-1.12127575841,-2.75417739259,3.27121399056,0.0,0.0,0.0,1.0
1609054472105963955,1606,1609054472105963955,-1.09727648012,-2.77824692356,3.26946743991,0.0,0.0,0.0,1.0
1609054472153461943,1607,1609054472153461943,-1.04690426904,-2.82914283141,3.2663977926,0.0,0.0,0.0,1.0
1609054472204253922,1608,1609054472204253922,-1.0238512819,-2.85359477549,3.26400713798,0.0,0.0,0.0,1.0
1609054472253946076,1609,1609054472253946076,-0.999495621894,-2.87903169268,3.26240997108,0.0,0.0,0.0,1.0
1609054472304317008,1610,1609054472304317008,-0.975984879856,-2.90473155237,3.26155824788,0.0,0.0,0.0,1.0
1609054472352777014,1611,1609054472352777014,-0.950158789717,-2.93193887658,3.25896843002,0.0,0.0,0.0,1.0
1609054472404428969,1612,1609054472404428969,-0.924713980598,-2.96056926085,3.25621427491,0.0,0.0,0.0,1.0
1609054472453010092,1613,1609054472453010092,-0.875601922487,-3.01967670526,3.25001486616,0.0,0.0,0.0,1.0
1609054472503963004,1614,1609054472503963004,-0.849666318799,-3.0487511025,3.24781349959,0.0,0.0,0.0,1.0
1609054472555171977,1615,1609054472555171977,-0.82506093403,-3.08060898043,3.24417174541,0.0,0.0,0.0,1.0
1609054472603734980,1616,1609054472603734980,-0.799941357564,-3.11206548558,3.2407181702,0.0,0.0,0.0,1.0
1609054472650991927,1617,1609054472650991927,-0.774489587345,-3.14445884871,3.23746631301,0.0,0.0,0.0,1.0
1609054472704122077,1618,1609054472704122077,-0.749850245516,-3.17744121458,3.23456976787,0.0,0.0,0.0,1.0
1609054472753187905,1619,1609054472753187905,-0.69901803829,-3.24712592892,3.2285584183,0.0,0.0,0.0,1.0
1609054472803318034,1620,1609054472803318034,-0.699018053191,-3.24712588015,3.22855939639,0.0,0.0,0.0,1.0
1609054472852699051,1621,1609054472852699051,-0.649509192815,-3.31717591296,3.22457612235,0.0,0.0,0.0,1.0
1609054472903805981,1622,1609054472903805981,-0.625040568879,-3.3546273141,3.22282672603,0.0,0.0,0.0,1.0
1609054472951561938,1623,1609054472951561938,-0.59966500737,-3.39328679336,3.22229081417,0.0,0.0,0.0,1.0
1609054473004323016,1624,1609054473004323016,-0.574192497616,-3.43151013696,3.21947598153,0.0,0.0,0.0,1.0
1609054473053842078,1625,1609054473053842078,-0.5246664003,-3.51140792057,3.21813581967,0.0,0.0,0.0,1.0
1609054473105101119,1626,1609054473105101119,-0.499644608375,-3.55079900615,3.21827770387,0.0,0.0,0.0,1.0
1609054473154742013,1627,1609054473154742013,-0.475080806222,-3.59166317714,3.21775488537,0.0,0.0,0.0,1.0
1609054473202162991,1628,1609054473202162991,-0.449905481973,-3.63368994975,3.21730671938,0.0,0.0,0.0,1.0
1609054473250725995,1629,1609054473250725995,-0.425736542834,-3.67565420674,3.21672466428,0.0,0.0,0.0,1.0
1609054473306471119,1630,1609054473306471119,-0.401564946738,-3.71825292615,3.21619124109,0.0,0.0,0.0,1.0
1609054473353815089,1631,1609054473353815089,-0.352541001466,-3.80469818627,3.21518639875,0.0,0.0,0.0,1.0
1609054473403356085,1632,1609054473403356085,-0.329592211615,-3.8442062757,3.2150390052,0.0,0.0,0.0,1.0
1609054473454129944,1633,1609054473454129944,-0.307177624101,-3.88666458831,3.21482525029,0.0,0.0,0.0,1.0
1609054473505016099,1634,1609054473505016099,-0.284880215255,-3.92953138308,3.21375037723,0.0,0.0,0.0,1.0
1609054473551981936,1635,1609054473551981936,-0.263328882827,-3.9718372038,3.21410367662,0.0,0.0,0.0,1.0
1609054473604322920,1636,1609054473604322920,-0.241790153606,-4.01367250696,3.21348242522,0.0,0.0,0.0,1.0
1609054473652463923,1637,1609054473652463923,-0.2003333411,-4.09679960202,3.21315190575,0.0,0.0,0.0,1.0
1609054473704785119,1638,1609054473704785119,-0.179543996221,-4.13870550954,3.21408218545,0.0,0.0,0.0,1.0
1609054473751215945,1639,1609054473751215945,-0.159702225277,-4.18068108653,3.21400830738,0.0,0.0,0.0,1.0
1609054473803406964,1640,1609054473803406964,-0.13975465235,-4.22176547695,3.21404528083,0.0,0.0,0.0,1.0
1609054473851941119,1641,1609054473851941119,-0.120117701673,-4.26258769874,3.21502047829,0.0,0.0,0.0,1.0
1609054473905158053,1642,1609054473905158053,-0.101490756923,-4.3028873124,3.21647197006,0.0,0.0,0.0,1.0
1609054473952682028,1643,1609054473952682028,-0.064326804519,-4.38467852753,3.21761853452,0.0,0.0,0.0,1.0
1609054474004200945,1644,1609054474004200945,-0.0473494829068,-4.42338017561,3.21812826399,0.0,0.0,0.0,1.0
1609054474053101073,1645,1609054474053101073,-0.0293147841164,-4.46024327704,3.21838222839,0.0,0.0,0.0,1.0
1609054474106477032,1646,1609054474106477032,-0.0122771765618,-4.49673468421,3.21823324426,0.0,0.0,0.0,1.0
1609054474153321038,1647,1609054474153321038,0.00401385708502,-4.53386946214,3.21881354252,0.0,0.0,0.0,1.0
1609054474204003106,1648,1609054474204003106,0.0391900644036,-4.6099982296,3.21988835493,0.0,0.0,0.0,1.0
1609054474253779898,1649,1609054474253779898,0.0548936827984,-4.64641296682,3.21995532313,0.0,0.0,0.0,1.0
1609054474303941021,1650,1609054474303941021,0.0733055574193,-4.68212357454,3.21955772602,0.0,0.0,0.0,1.0
1609054474353058110,1651,1609054474353058110,0.0898744570786,-4.71664306012,3.21969762851,0.0,0.0,0.0,1.0
1609054474405121098,1652,1609054474405121098,0.107992052526,-4.75284042196,3.22188909733,0.0,0.0,0.0,1.0
1609054474453667889,1653,1609054474453667889,0.142828660231,-4.8255888964,3.22115995884,0.0,0.0,0.0,1.0
1609054474504402886,1654,1609054474504402886,0.161658725304,-4.86229266031,3.2212972508,0.0,0.0,0.0,1.0
1609054474551287900,1655,1609054474551287900,0.179663497993,-4.8985039241,3.2202350506,0.0,0.0,0.0,1.0
1609054474604728947,1656,1609054474604728947,0.198698405108,-4.93536675331,3.21821204133,0.0,0.0,0.0,1.0
1609054474653446923,1657,1609054474653446923,0.217914587505,-4.97049400455,3.21764927261,0.0,0.0,0.0,1.0
1609054474709137927,1658,1609054474709137927,0.256098114658,-5.03862219338,3.21633234893,0.0,0.0,0.0,1.0
1609054474756397973,1659,1609054474756397973,0.274081629459,-5.07364635294,3.21397416118,0.0,0.0,0.0,1.0
1609054474803591023,1660,1609054474803591023,0.293395885655,-5.10789780877,3.21336235419,0.0,0.0,0.0,1.0
1609054474852120886,1661,1609054474852120886,0.312315761868,-5.14196626376,3.2127978387,0.0,0.0,0.0,1.0
1609054474904228936,1662,1609054474904228936,0.331572332334,-5.17588819921,3.21276894993,0.0,0.0,0.0,1.0
1609054474954094897,1663,1609054474954094897,0.351735977736,-5.2083623695,3.21404011977,0.0,0.0,0.0,1.0
