%time,field.header.seq,field.header.stamp,field.pose.position.x,field.pose.position.y,field.pose.position.z,field.pose.orientation.x,field.pose.orientation.y,field.pose.orientation.z,field.pose.orientation.w
1609055161771800994,1408,1609055161771800994,-0.000212998044624,0.000443351102987,0.00575194394639,0.0,0.0,0.0,1.0
1609055161825618982,1409,1609055161825618982,-0.000101108997541,0.000579927656517,0.00577783017768,0.0,0.0,0.0,1.0
1609055161870771884,1410,1609055161870771884,-0.000265717105041,0.000624310136139,0.00562776836156,0.0,0.0,0.0,1.0
1609055161925839900,1411,1609055161925839900,-0.000101117757367,0.000599069554013,0.00596017451265,0.0,0.0,0.0,1.0
1609055161972537040,1412,1609055161972537040,-0.000382143855159,0.00045491379128,0.00728260368627,0.0,0.0,0.0,1.0
1609055162026913881,1413,1609055162026913881,-0.000544212889228,0.00049526412004,0.0080787343908,0.0,0.0,0.0,1.0
1609055162071383953,1414,1609055162071383953,-0.000727894308177,0.000603957126806,0.00858985300172,0.0,0.0,0.0,1.0
1609055162126074075,1415,1609055162126074075,-0.00077628138142,0.000626756141791,0.00893004106552,0.0,0.0,0.0,1.0
1609055162175967931,1416,1609055162175967931,-0.000518737454787,0.000440383743602,0.00749114636349,0.0,0.0,0.0,1.0
1609055162223965883,1417,1609055162223965883,-0.000226053095798,0.000663058946223,0.00688701376897,0.0,0.0,0.0,1.0
1609055162273426055,1418,1609055162273426055,-0.000518904722682,0.000508535841348,0.00615886208428,0.0,0.0,0.0,1.0
1609055162325767040,1419,1609055162325767040,-0.000185906004031,0.000600337493729,0.00618758080501,0.0,0.0,0.0,1.0
1609055162374504089,1420,1609055162374504089,-0.000433180896422,0.000814308238638,0.00786303863105,0.0,0.0,0.0,1.0
1609055162426486015,1421,1609055162426486015,-0.00083870864815,0.00115580447877,0.0111565844449,0.0,0.0,0.0,1.0
1609055162472940921,1422,1609055162472940921,-0.000589266363693,0.00119696672319,0.0109149732233,0.0,0.0,0.0,1.0
1609055162526171922,1423,1609055162526171922,-0.00110427906445,0.00117046091043,0.0119713394961,0.0,0.0,0.0,1.0
1609055162572316884,1424,1609055162572316884,-0.000823687615245,0.00119161593766,0.0114597831682,0.0,0.0,0.0,1.0
1609055162625437974,1425,1609055162625437974,-0.000950121666719,0.00130272704568,0.0118487069897,0.0,0.0,0.0,1.0
1609055162673861026,1426,1609055162673861026,-0.000269491534915,0.00148144310711,0.0118224039208,0.0,0.0,0.0,1.0
1609055162724740028,1427,1609055162724740028,-0.000227174568295,0.00158621711296,0.0117219802125,0.0,0.0,0.0,1.0
1609055162774164915,1428,1609055162774164915,-8.80417605131e-05,0.00147149924324,0.0112664170835,0.0,0.0,0.0,1.0
1609055162822983980,1429,1609055162822983980,-0.000330441315992,0.00176305877527,0.011686937699,0.0,0.0,0.0,1.0
1609055162874090909,1430,1609055162874090909,-0.000338402199404,0.00169161529214,0.0120177920282,0.0,0.0,0.0,1.0
1609055162925708055,1431,1609055162925708055,-0.000129606046603,0.00181421531242,0.0116641508722,0.0,0.0,0.0,1.0
1609055162975071907,1432,1609055162975071907,2.52336919644e-05,0.00177326540797,0.0118719054198,0.0,0.0,0.0,1.0
1609055163026032924,1433,1609055163026032924,-0.000418953384106,0.00164039729484,0.0117342535812,0.0,0.0,0.0,1.0
1609055163073262929,1434,1609055163073262929,-0.00016243333091,0.00181710850136,0.0117751718899,0.0,0.0,0.0,1.0
1609055163132020950,1435,1609055163132020950,-0.000334000034382,0.00190145949111,0.012023702477,0.0,0.0,0.0,1.0
1609055163176297903,1436,1609055163176297903,-0.000161679269588,0.00194120075885,0.0119645654823,0.0,0.0,0.0,1.0
1609055163223916053,1437,1609055163223916053,-0.000141491474807,0.00194934472962,0.0119908931434,0.0,0.0,0.0,1.0
1609055163271766901,1438,1609055163271766901,-0.000168059123261,0.0019711352711,0.0112744590629,0.0,0.0,0.0,1.0
1609055163325434923,1439,1609055163325434923,0.00016407923497,0.00208109198996,0.0114784946962,0.0,0.0,0.0,1.0
1609055163379823923,1440,1609055163379823923,0.000228700899207,0.00232890790205,0.011693343053,0.0,0.0,0.0,1.0
1609055163429549932,1441,1609055163429549932,-5.56998163219e-05,0.00236097565523,0.0117302146637,0.0,0.0,0.0,1.0
1609055163472450971,1442,1609055163472450971,0.000110846496405,0.00224913287038,0.0112323862727,0.0,0.0,0.0,1.0
1609055163524684906,1443,1609055163524684906,-2.38434547271e-05,0.00233045438515,0.0113582817825,0.0,0.0,0.0,1.0
1609055163573478937,1444,1609055163573478937,0.000226899363273,0.0025236796231,0.0115713357677,0.0,0.0,0.0,1.0
1609055163625802040,1445,1609055163625802040,0.000126183506971,0.00257803657637,0.0113538276,0.0,0.0,0.0,1.0
1609055163668715000,1446,1609055163668715000,0.000340031771437,0.00224850278588,0.00568799096836,0.0,0.0,0.0,1.0
1609055163718709945,1447,1609055163718709945,0.000281990366474,0.00245090435997,0.00677247552464,0.0,0.0,0.0,1.0
1609055163767532110,1448,1609055163767532110,7.70596257667e-05,0.00237229148562,0.00753509966307,0.0,0.0,0.0,1.0
1609055163817043066,1449,1609055163817043066,-9.57490470164e-05,0.00205981614814,0.00797028105295,0.0,0.0,0.0,1.0
1609055163868911981,1450,1609055163868911981,-0.000928421917873,0.001247229859,0.00630815011409,0.0,0.0,0.0,1.0
1609055163918495893,1451,1609055163918495893,-0.00176552976466,-0.000277022411915,0.00679686121082,0.0,0.0,0.0,1.0
1609055163969249963,1452,1609055163969249963,-0.00212322228039,-0.000988056545772,0.00588703634581,0.0,0.0,0.0,1.0
1609055164018028020,1453,1609055164018028020,-0.00251160873756,-0.00178670478719,0.00521165499697,0.0,0.0,0.0,1.0
1609055164067142963,1454,1609055164067142963,-0.00245512879762,-0.00171511803111,0.0067408504369,0.0,0.0,0.0,1.0
1609055164124062061,1455,1609055164124062061,-0.00269061132046,-0.00168353839712,0.00664891676367,0.0,0.0,0.0,1.0
1609055164166399002,1456,1609055164166399002,-0.00252445992221,-0.000991877888815,0.0068698023189,0.0,0.0,0.0,1.0
1609055164217529058,1457,1609055164217529058,-0.00210206856066,-0.000822111123291,0.00741404284463,0.0,0.0,0.0,1.0
1609055164267257928,1458,1609055164267257928,-0.00212949404386,-0.000177609031432,0.00767749736121,0.0,0.0,0.0,1.0
1609055164321590900,1459,1609055164321590900,-0.00189657829068,0.000231948855784,0.00801447616241,0.0,0.0,0.0,1.0
1609055164369072914,1460,1609055164369072914,-0.00182632374884,0.000486620916291,0.00728905226513,0.0,0.0,0.0,1.0
1609055164416491985,1461,1609055164416491985,-0.00165561549496,0.000620856491501,0.00813428790934,0.0,0.0,0.0,1.0
1609055164468535900,1462,1609055164468535900,-0.00143198446478,0.000849329331729,0.0087518869228,0.0,0.0,0.0,1.0
1609055164518395900,1463,1609055164518395900,-0.00142099263578,0.000889973384041,0.00911126284671,0.0,0.0,0.0,1.0
1609055164569422960,1464,1609055164569422960,-0.000710765285028,0.00137361865589,0.00993295333339,0.0,0.0,0.0,1.0
1609055164617685079,1465,1609055164617685079,-8.5506506931e-05,0.00243455077157,0.00953260791098,0.0,0.0,0.0,1.0
1609055164667293071,1466,1609055164667293071,-0.000317263143526,0.00342629742927,0.00965919055856,0.0,0.0,0.0,1.0
1609055164717880010,1467,1609055164717880010,-4.90714572479e-05,0.004845170827,0.00961193780556,0.0,0.0,0.0,1.0
1609055164766736984,1468,1609055164766736984,-0.000734404314578,0.00673369622847,0.00952364101964,0.0,0.0,0.0,1.0
1609055164821127891,1469,1609055164821127891,-0.00016852605231,0.0092596259959,0.00836539821931,0.0,0.0,0.0,1.0
1609055164868484973,1470,1609055164868484973,0.000364203075474,0.0161550990954,0.0132468999889,0.0,0.0,0.0,1.0
1609055164920645952,1471,1609055164920645952,0.00127370728606,0.0202066706649,0.0138606616388,0.0,0.0,0.0,1.0
1609055164967175006,1472,1609055164967175006,0.00249446151939,0.0243404971888,0.0154610562719,0.0,0.0,0.0,1.0
1609055165017117977,1473,1609055165017117977,0.00357269776559,0.0282104934108,0.0129225418721,0.0,0.0,0.0,1.0
1609055165069375991,1474,1609055165069375991,0.00558165288485,0.0321080832681,0.0092760579109,0.0,0.0,0.0,1.0
1609055165119402885,1475,1609055165119402885,0.00985585956292,0.0365317140351,0.00787030349344,0.0,0.0,0.0,1.0
1609055165168226957,1476,1609055165168226957,0.0116858797177,0.0363059709111,0.00801367947081,0.0,0.0,0.0,1.0
1609055165222382068,1477,1609055165222382068,0.0129113197783,0.0355033581032,0.0170896490915,0.0,0.0,0.0,1.0
1609055165275429964,1478,1609055165275429964,0.014244551705,0.0330117143153,0.0177175591059,0.0,0.0,0.0,1.0
1609055165326024055,1479,1609055165326024055,0.0123525565644,0.0253153461793,0.0165770185294,0.0,0.0,0.0,1.0
1609055165372649908,1480,1609055165372649908,0.0123518507416,0.022524745345,0.0157565290494,0.0,0.0,0.0,1.0
1609055165427653074,1481,1609055165427653074,0.0117030444524,0.0202928451791,0.0159593047959,0.0,0.0,0.0,1.0
1609055165470710992,1482,1609055165470710992,0.0103207878796,0.0180247141206,0.0156957908423,0.0,0.0,0.0,1.0
1609055165521398067,1483,1609055165521398067,0.0100595720151,0.0162065043953,0.0109230474739,0.0,0.0,0.0,1.0
1609055165568147897,1484,1609055165568147897,0.00948735544197,0.0154927653766,0.0115220082616,0.0,0.0,0.0,1.0
1609055165616328001,1485,1609055165616328001,0.00932923364628,0.0158955034654,0.0117964796216,0.0,0.0,0.0,1.0
1609055165668061017,1486,1609055165668061017,0.00951246785421,0.0174007876229,0.0127903315793,0.0,0.0,0.0,1.0
1609055165735162019,1487,1609055165735162019,0.00946784308032,0.0219092002715,0.0132432553023,0.0,0.0,0.0,1.0
1609055165777194023,1488,1609055165777194023,0.0092089920345,0.0250943621763,0.0145174076413,0.0,0.0,0.0,1.0
1609055165832822084,1489,1609055165832822084,0.00892388998318,0.0290056606398,0.017825399384,0.0,0.0,0.0,1.0
1609055165876351118,1490,1609055165876351118,0.00846402598135,0.0334908008263,0.0211000891324,0.0,0.0,0.0,1.0
1609055165920639991,1491,1609055165920639991,0.00802176363598,0.038803572868,0.0252833426228,0.0,0.0,0.0,1.0
1609055165967994928,1492,1609055165967994928,0.0074645547589,0.0452834205661,0.0279924136502,0.0,0.0,0.0,1.0
1609055166022439002,1493,1609055166022439002,0.00706766824757,0.0533583424092,0.0375987947016,0.0,0.0,0.0,1.0
1609055166068830966,1494,1609055166068830966,0.00656538179049,0.07161702027,0.0543932449821,0.0,0.0,0.0,1.0
1609055166120656013,1495,1609055166120656013,0.00613735268745,0.0813369418407,0.0639426399959,0.0,0.0,0.0,1.0
1609055166167114019,1496,1609055166167114019,0.00515933419557,0.0911710775973,0.0760209475288,0.0,0.0,0.0,1.0
1609055166216790914,1497,1609055166216790914,0.00425316209786,0.102066688343,0.0861393125932,0.0,0.0,0.0,1.0
1609055166270279884,1498,1609055166270279884,0.00302521287064,0.113509199326,0.0973658594763,0.0,0.0,0.0,1.0
1609055166317511081,1499,1609055166317511081,-0.00102120410349,0.13770305434,0.123582296079,0.0,0.0,0.0,1.0
1609055166368424892,1500,1609055166368424892,-0.00360380251527,0.150928417162,0.135504848223,0.0,0.0,0.0,1.0
1609055166418057918,1501,1609055166418057918,-0.00697668650344,0.165637928981,0.147752939782,0.0,0.0,0.0,1.0
1609055166473848104,1502,1609055166473848104,-0.0126808831477,0.179744986866,0.164272319785,0.0,0.0,0.0,1.0
1609055166525928974,1503,1609055166525928974,-0.0199935613184,0.210476530916,0.190027626083,0.0,0.0,0.0,1.0
1609055166573168039,1504,1609055166573168039,-0.0285390197315,0.224097229643,0.201139356579,0.0,0.0,0.0,1.0
1609055166625103950,1505,1609055166625103950,-0.0335980693349,0.239812680578,0.213531779686,0.0,0.0,0.0,1.0
1609055166671196937,1506,1609055166671196937,-0.0427568295314,0.255220350218,0.22547706409,0.0,0.0,0.0,1.0
1609055166725730895,1507,1609055166725730895,-0.0509155855941,0.269956713265,0.237436789765,0.0,0.0,0.0,1.0
1609055166768920898,1508,1609055166768920898,-0.0716955960511,0.299149130828,0.257042913159,0.0,0.0,0.0,1.0
1609055166818176031,1509,1609055166818176031,-0.0833082232384,0.311928515299,0.268089578707,0.0,0.0,0.0,1.0
1609055166871879100,1510,1609055166871879100,-0.0939717419456,0.326828631057,0.285361168148,0.0,0.0,0.0,1.0
1609055166924720048,1511,1609055166924720048,-0.109231204646,0.338898340717,0.298085880773,0.0,0.0,0.0,1.0
1609055166976691007,1512,1609055166976691007,-0.121592796087,0.351396531406,0.310526821925,0.0,0.0,0.0,1.0
1609055167024938106,1513,1609055167024938106,-0.15091413626,0.373231111768,0.335974017573,0.0,0.0,0.0,1.0
1609055167073731899,1514,1609055167073731899,-0.166489249692,0.382462618993,0.347349267555,0.0,0.0,0.0,1.0
1609055167134360074,1515,1609055167134360074,-0.181450165058,0.391546650096,0.360880324513,0.0,0.0,0.0,1.0
1609055167178284883,1516,1609055167178284883,-0.197899186102,0.399405398511,0.374525656108,0.0,0.0,0.0,1.0
1609055167225986957,1517,1609055167225986957,-0.214835821157,0.406188356083,0.388145208144,0.0,0.0,0.0,1.0
1609055167272978067,1518,1609055167272978067,-0.251240903564,0.417435414263,0.41691617261,0.0,0.0,0.0,1.0
1609055167325146913,1519,1609055167325146913,-0.269382250956,0.421851811159,0.432205342105,0.0,0.0,0.0,1.0
1609055167373003959,1520,1609055167373003959,-0.28704246658,0.424847669075,0.447683977642,0.0,0.0,0.0,1.0
1609055167425410032,1521,1609055167425410032,-0.306392901638,0.426349317368,0.463265679695,0.0,0.0,0.0,1.0
1609055167474941968,1522,1609055167474941968,-0.343432141671,0.426731548437,0.498477859182,0.0,0.0,0.0,1.0
1609055167525135040,1523,1609055167525135040,-0.36229432658,0.425087011207,0.515967701478,0.0,0.0,0.0,1.0
1609055167574816942,1524,1609055167574816942,-0.379676913217,0.422823368765,0.533780783178,0.0,0.0,0.0,1.0
1609055167623697996,1525,1609055167623697996,-0.39836170603,0.419200862198,0.554232383817,0.0,0.0,0.0,1.0
1609055167675417900,1526,1609055167675417900,-0.418035050826,0.414181889649,0.573894379262,0.0,0.0,0.0,1.0
1609055167725187063,1527,1609055167725187063,-0.453636597963,0.401541359811,0.617127889934,0.0,0.0,0.0,1.0
1609055167774772882,1528,1609055167774772882,-0.473259364191,0.393172258288,0.641242545657,0.0,0.0,0.0,1.0
1609055167824608087,1529,1609055167824608087,-0.49093099266,0.383875939102,0.664395006167,0.0,0.0,0.0,1.0
1609055167871040105,1530,1609055167871040105,-0.508152961128,0.373849764925,0.689706511555,0.0,0.0,0.0,1.0
1609055167926676034,1531,1609055167926676034,-0.527907327251,0.36233139785,0.715534947591,0.0,0.0,0.0,1.0
1609055167972825050,1532,1609055167972825050,-0.562918003233,0.338930340109,0.764002441672,0.0,0.0,0.0,1.0
1609055168025754928,1533,1609055168025754928,-0.579799590135,0.326305195259,0.787886299994,0.0,0.0,0.0,1.0
1609055168073133945,1534,1609055168073133945,-0.599950763541,0.311940759955,0.814105782823,0.0,0.0,0.0,1.0
1609055168127067089,1535,1609055168127067089,-0.616843581497,0.297837252542,0.839272409117,0.0,0.0,0.0,1.0
1609055168178337097,1536,1609055168178337097,-0.635742635251,0.282147763109,0.865839174441,0.0,0.0,0.0,1.0
1609055168223239898,1537,1609055168223239898,-0.672273027862,0.249602827171,0.916624324316,0.0,0.0,0.0,1.0
1609055168272608041,1538,1609055168272608041,-0.688898042468,0.232630184376,0.939891888144,0.0,0.0,0.0,1.0
1609055168324628114,1539,1609055168324628114,-0.708899225684,0.214646188492,0.963626078852,0.0,0.0,0.0,1.0
1609055168378288030,1540,1609055168378288030,-0.726486326055,0.197046789522,0.986696616191,0.0,0.0,0.0,1.0
1609055168426032066,1541,1609055168426032066,-0.743809371876,0.179519450436,1.00992128411,0.0,0.0,0.0,1.0
1609055168474751949,1542,1609055168474751949,-0.78081878671,0.142377349045,1.05484062475,0.0,0.0,0.0,1.0
1609055168524095058,1543,1609055168524095058,-0.798691489171,0.124070078812,1.07618860931,0.0,0.0,0.0,1.0
1609055168571348905,1544,1609055168571348905,-0.818673756583,0.104888015511,1.09681091497,0.0,0.0,0.0,1.0
1609055168623812913,1545,1609055168623812913,-0.837112786771,0.0858659257171,1.11688859448,0.0,0.0,0.0,1.0
1609055168674288034,1546,1609055168674288034,-0.873301235296,0.0480341225524,1.15774427148,0.0,0.0,0.0,1.0
1609055168725236892,1547,1609055168725236892,-0.890358091156,0.030304274554,1.17670985452,0.0,0.0,0.0,1.0
1609055168773432016,1548,1609055168773432016,-0.9060706269,0.0129871618738,1.19501489375,0.0,0.0,0.0,1.0
1609055168823348045,1549,1609055168823348045,-0.925708488069,-0.00607990467238,1.21320587621,0.0,0.0,0.0,1.0
1609055168883411884,1550,1609055168883411884,-0.960263556448,-0.0405028186566,1.24620167601,0.0,0.0,0.0,1.0
1609055168929580926,1551,1609055168929580926,-0.978705266203,-0.058832209829,1.26219454847,0.0,0.0,0.0,1.0
1609055168971740007,1552,1609055168971740007,-0.99730173887,-0.0768753076773,1.27730112322,0.0,0.0,0.0,1.0
1609055169024280071,1553,1609055169024280071,-1.0126211005,-0.0938258245355,1.29202802124,0.0,0.0,0.0,1.0
1609055169122054100,1554,1609055169122054100,-1.03107588114,-0.111714984606,1.30749918098,0.0,0.0,0.0,1.0
1609055169171477079,1555,1609055169171477079,-1.08214938773,-0.164995026482,1.3510154326,0.0,0.0,0.0,1.0
1609055169225501060,1556,1609055169225501060,-1.09967916488,-0.182424892749,1.36436215229,0.0,0.0,0.0,1.0
1609055169272291898,1557,1609055169272291898,-1.11387930062,-0.199450765384,1.37629490631,0.0,0.0,0.0,1.0
1609055169326203107,1558,1609055169326203107,-1.12908999994,-0.216537676787,1.38853808015,0.0,0.0,0.0,1.0
1609055169377218961,1559,1609055169377218961,-1.14590008324,-0.234095857775,1.40195765055,0.0,0.0,0.0,1.0
1609055169423672914,1560,1609055169423672914,-1.17691628315,-0.271013696739,1.43239784337,0.0,0.0,0.0,1.0
1609055169472542047,1561,1609055169472542047,-1.19322625728,-0.290984656972,1.44679809162,0.0,0.0,0.0,1.0
1609055169526247978,1562,1609055169526247978,-1.20805513427,-0.310399901137,1.46036904535,0.0,0.0,0.0,1.0
1609055169571793079,1563,1609055169571793079,-1.22443596395,-0.330414738761,1.47344614853,0.0,0.0,0.0,1.0
1609055169626030921,1564,1609055169626030921,-1.24176022462,-0.351543947017,1.48527169118,0.0,0.0,0.0,1.0
1609055169672347068,1565,1609055169672347068,-1.27336192972,-0.395086785075,1.50835943668,0.0,0.0,0.0,1.0
1609055169725198030,1566,1609055169725198030,-1.2929078687,-0.41969870182,1.52154515181,0.0,0.0,0.0,1.0
1609055169772710084,1567,1609055169772710084,-1.30940876676,-0.443719035265,1.53389606556,0.0,0.0,0.0,1.0
1609055169825923919,1568,1609055169825923919,-1.32602283424,-0.469892823689,1.5472593725,0.0,0.0,0.0,1.0
1609055169874108076,1569,1609055169874108076,-1.3620869944,-0.525207553931,1.57371394477,0.0,0.0,0.0,1.0
1609055169923685073,1570,1609055169923685073,-1.37871563802,-0.552000349943,1.58634804584,0.0,0.0,0.0,1.0
1609055169974145889,1571,1609055169974145889,-1.3978517885,-0.580420900508,1.59964747226,0.0,0.0,0.0,1.0
1609055170023583889,1572,1609055170023583889,-1.41688129346,-0.610944030428,1.61386193873,0.0,0.0,0.0,1.0
1609055170074068069,1573,1609055170074068069,-1.43390636444,-0.641220728335,1.62923035586,0.0,0.0,0.0,1.0
1609055170127136945,1574,1609055170127136945,-1.47487094439,-0.705378905264,1.66424484902,0.0,0.0,0.0,1.0
1609055170180922031,1575,1609055170180922031,-1.4925883098,-0.737359639311,1.68361728787,0.0,0.0,0.0,1.0
1609055170223390102,1576,1609055170223390102,-1.51338842458,-0.77043729193,1.70342192462,0.0,0.0,0.0,1.0
1609055170272099018,1577,1609055170272099018,-1.53492651305,-0.804735235333,1.72400382749,0.0,0.0,0.0,1.0
1609055170324990034,1578,1609055170324990034,-1.55258514674,-0.839091175523,1.74417499781,0.0,0.0,0.0,1.0
1609055170379154920,1579,1609055170379154920,-1.59829588725,-0.910048002379,1.78642781997,0.0,0.0,0.0,1.0
1609055170424837112,1580,1609055170424837112,-1.61593331916,-0.943226996232,1.80487240831,0.0,0.0,0.0,1.0
1609055170472449064,1581,1609055170472449064,-1.63574052258,-0.977539117831,1.82395836227,0.0,0.0,0.0,1.0
1609055170536664009,1582,1609055170536664009,-1.6801247332,-1.04927377774,1.86127582012,0.0,0.0,0.0,1.0
1609055170578975915,1583,1609055170578975915,-1.70217578023,-1.08506385636,1.8787441208,0.0,0.0,0.0,1.0
1609055170626743078,1584,1609055170626743078,-1.72598763158,-1.1216475045,1.89571637573,0.0,0.0,0.0,1.0
1609055170674420118,1585,1609055170674420118,-1.74768399675,-1.15766087743,1.91213373468,0.0,0.0,0.0,1.0
1609055170726618051,1586,1609055170726618051,-1.76747578933,-1.19205256532,1.92746438048,0.0,0.0,0.0,1.0
1609055170774192094,1587,1609055170774192094,-1.79051124204,-1.22779215128,1.94223736727,0.0,0.0,0.0,1.0
1609055170825079917,1588,1609055170825079917,-1.81206650135,-1.26200282256,1.95635858031,0.0,0.0,0.0,1.0
1609055170872961044,1589,1609055170872961044,-1.85637803618,-1.33054451487,1.98712313504,0.0,0.0,0.0,1.0
1609055170926791906,1590,1609055170926791906,-1.88096764655,-1.36553108585,2.00385529852,0.0,0.0,0.0,1.0
1609055170972302913,1591,1609055170972302913,-1.90314585667,-1.40120806751,2.02007822472,0.0,0.0,0.0,1.0
1609055171034887075,1592,1609055171034887075,-1.95497326549,-1.47236754966,2.0512787706,0.0,0.0,0.0,1.0
1609055171079890012,1593,1609055171079890012,-1.97922063932,-1.50810308089,2.06757342974,0.0,0.0,0.0,1.0
1609055171127765893,1594,1609055171127765893,-2.00388619422,-1.54190030694,2.08233174916,0.0,0.0,0.0,1.0
1609055171216083049,1595,1609055171216083049,-2.05350179591,-1.61397322256,2.11429816442,0.0,0.0,0.0,1.0
1609055171283876895,1596,1609055171283876895,-2.10572950151,-1.68572113095,2.14571435219,0.0,0.0,0.0,1.0
1609055171329318046,1597,1609055171329318046,-2.12993961286,-1.72107000039,2.16320728957,0.0,0.0,0.0,1.0
1609055171373501062,1598,1609055171373501062,-2.15552183487,-1.75693604962,2.18117043316,0.0,0.0,0.0,1.0
1609055171428045034,1599,1609055171428045034,-2.18113585854,-1.79260393284,2.19799216929,0.0,0.0,0.0,1.0
1609055171471906900,1600,1609055171471906900,-2.20513127123,-1.82626217422,2.21421140478,0.0,0.0,0.0,1.0
1609055171527044057,1601,1609055171527044057,-2.22727900607,-1.86052445077,2.23039145054,0.0,0.0,0.0,1.0
1609055171572870016,1602,1609055171572870016,-2.27633631544,-1.9281811197,2.26416879499,0.0,0.0,0.0,1.0
1609055171625327110,1603,1609055171625327110,-2.29870446753,-1.96058384096,2.28173287642,0.0,0.0,0.0,1.0
1609055171671638011,1604,1609055171671638011,-2.32017095695,-1.99389631456,2.29758032079,0.0,0.0,0.0,1.0
1609055171724813938,1605,1609055171724813938,-2.34665688921,-2.02965373101,2.31325856822,0.0,0.0,0.0,1.0
1609055171776967048,1606,1609055171776967048,-2.3663955756,-2.06171822312,2.32626119822,0.0,0.0,0.0,1.0
1609055171824300050,1607,1609055171824300050,-2.3914820792,-2.09556997732,2.33949161937,0.0,0.0,0.0,1.0
1609055171872813940,1608,1609055171872813940,-2.4337424299,-2.16006065851,2.36504382072,0.0,0.0,0.0,1.0
1609055171924464941,1609,1609055171924464941,-2.45644475754,-2.19263750002,2.37904173652,0.0,0.0,0.0,1.0
1609055171976569890,1610,1609055171976569890,-2.47818031103,-2.22485058076,2.39262397705,0.0,0.0,0.0,1.0
1609055172026660919,1611,1609055172026660919,-2.49910389097,-2.25709565344,2.40682781305,0.0,0.0,0.0,1.0
1609055172086128950,1612,1609055172086128950,-2.54122907084,-2.32125266857,2.42991090079,0.0,0.0,0.0,1.0
1609055172128694057,1613,1609055172128694057,-2.56186130564,-2.35350472208,2.44035088949,0.0,0.0,0.0,1.0
1609055172172980070,1614,1609055172172980070,-2.58152592382,-2.38460901067,2.44944927945,0.0,0.0,0.0,1.0
1609055172225627899,1615,1609055172225627899,-2.60370825158,-2.41748482727,2.45694517076,0.0,0.0,0.0,1.0
1609055172275103092,1616,1609055172275103092,-2.64485123351,-2.48086691504,2.47677437842,0.0,0.0,0.0,1.0
1609055172324702024,1617,1609055172324702024,-2.66611630714,-2.51136231092,2.48775286945,0.0,0.0,0.0,1.0
1609055172375415086,1618,1609055172375415086,-2.6877523432,-2.54207073116,2.49913371275,0.0,0.0,0.0,1.0
1609055172423540115,1619,1609055172423540115,-2.70696144375,-2.57289152195,2.50998514428,0.0,0.0,0.0,1.0
1609055172474520921,1620,1609055172474520921,-2.72994272061,-2.60406310881,2.52140820657,0.0,0.0,0.0,1.0
1609055172526186943,1621,1609055172526186943,-2.77021282393,-2.66347072449,2.54716045622,0.0,0.0,0.0,1.0
1609055172574785947,1622,1609055172574785947,-2.79314425742,-2.69280573674,2.5613324307,0.0,0.0,0.0,1.0
1609055172624152898,1623,1609055172624152898,-2.81587504895,-2.72296011347,2.5767238571,0.0,0.0,0.0,1.0
1609055172671190023,1624,1609055172671190023,-2.83417211334,-2.75050797068,2.59246090808,0.0,0.0,0.0,1.0
1609055172726763010,1625,1609055172726763010,-2.85574191698,-2.77975247974,2.61002686123,0.0,0.0,0.0,1.0
1609055172773335933,1626,1609055172773335933,-2.89654056721,-2.83595586921,2.6466761295,0.0,0.0,0.0,1.0
1609055172824215888,1627,1609055172824215888,-2.91768806739,-2.86238697812,2.66407829706,0.0,0.0,0.0,1.0
1609055172872700929,1628,1609055172872700929,-2.93889206065,-2.88931248282,2.68252880304,0.0,0.0,0.0,1.0
1609055172924510955,1629,1609055172924510955,-2.95811540837,-2.9153021624,2.70078633981,0.0,0.0,0.0,1.0
1609055172977201938,1630,1609055172977201938,-2.97865765184,-2.94118062348,2.7179465995,0.0,0.0,0.0,1.0
1609055173023879051,1631,1609055173023879051,-3.0195482961,-2.99178522171,2.7503044181,0.0,0.0,0.0,1.0
1609055173072557926,1632,1609055173072557926,-3.04008168936,-3.01535356233,2.76638304448,0.0,0.0,0.0,1.0
1609055173138650894,1633,1609055173138650894,-3.06221111901,-3.03897600238,2.78351131835,0.0,0.0,0.0,1.0
1609055173172075033,1634,1609055173172075033,-3.08236867296,-3.06193181259,2.80112618422,0.0,0.0,0.0,1.0
1609055173225503921,1635,1609055173225503921,-3.10248379545,-3.08431052144,2.81954732688,0.0,0.0,0.0,1.0
1609055173273014068,1636,1609055173273014068,-3.1422834592,-3.12867700035,2.85440470656,0.0,0.0,0.0,1.0
1609055173325588941,1637,1609055173325588941,-3.16255753414,-3.15118495738,2.87238290139,0.0,0.0,0.0,1.0
1609055173392066955,1638,1609055173392066955,-3.20345426872,-3.19470300556,2.90283673434,0.0,0.0,0.0,1.0
1609055173477720022,1639,1609055173477720022,-3.2458592878,-3.23827282461,2.92963824747,0.0,0.0,0.0,1.0
1609055173525299072,1640,1609055173525299072,-3.2660369475,-3.25822841432,2.94179197468,0.0,0.0,0.0,1.0
1609055173573935985,1641,1609055173573935985,-3.28470130092,-3.27750179165,2.95526428916,0.0,0.0,0.0,1.0
1609055173622236013,1642,1609055173622236013,-3.30736511804,-3.29803363057,2.97033993993,0.0,0.0,0.0,1.0
1609055173675481081,1643,1609055173675481081,-3.32764335087,-3.31793615673,2.98456817077,0.0,0.0,0.0,1.0
1609055173727571010,1644,1609055173727571010,-3.36711151282,-3.35632609411,3.01007655027,0.0,0.0,0.0,1.0
1609055173774179935,1645,1609055173774179935,-3.38700712853,-3.37555418712,3.02175528069,0.0,0.0,0.0,1.0
1609055173824048042,1646,1609055173824048042,-3.40520032297,-3.3939166072,3.0331799244,0.0,0.0,0.0,1.0
1609055173871661901,1647,1609055173871661901,-3.42660153663,-3.41280291773,3.0453560443,0.0,0.0,0.0,1.0
1609055173926466941,1648,1609055173926466941,-3.44595886116,-3.43098537624,3.05793155176,0.0,0.0,0.0,1.0
1609055173972738027,1649,1609055173972738027,-3.48550713045,-3.46880289001,3.08537683147,0.0,0.0,0.0,1.0
1609055174024467945,1650,1609055174024467945,-3.5031999293,-3.48629395698,3.09889269358,0.0,0.0,0.0,1.0
1609055174071816921,1651,1609055174071816921,-3.52162804451,-3.50408783896,3.11350381318,0.0,0.0,0.0,1.0
1609055174126280069,1652,1609055174126280069,-3.54162889805,-3.52260791342,3.12870331407,0.0,0.0,0.0,1.0
1609055174177242040,1653,1609055174177242040,-3.56033430393,-3.53999735036,3.14323441145,0.0,0.0,0.0,1.0
1609055174237909078,1654,1609055174237909078,-3.59673522343,-3.57494815583,3.17312563567,0.0,0.0,0.0,1.0
1609055174279783010,1655,1609055174279783010,-3.61601894551,-3.59259278037,3.18731411879,0.0,0.0,0.0,1.0
1609055174324932098,1656,1609055174324932098,-3.63270961319,-3.6090543447,3.19945495398,0.0,0.0,0.0,1.0
1609055174373388051,1657,1609055174373388051,-3.65030229471,-3.62587439038,3.21092710306,0.0,0.0,0.0,1.0
1609055174426533937,1658,1609055174426533937,-3.67085483084,-3.64340460028,3.22242161387,0.0,0.0,0.0,1.0
1609055174472939968,1659,1609055174472939968,-3.7025790569,-3.67640195389,3.24591197081,0.0,0.0,0.0,1.0
1609055174526281118,1660,1609055174526281118,-3.72151053189,-3.69466563365,3.25947189331,0.0,0.0,0.0,1.0
1609055174573142051,1661,1609055174573142051,-3.73738673379,-3.71179922337,3.27267588384,0.0,0.0,0.0,1.0
1609055174625667095,1662,1609055174625667095,-3.75268061257,-3.72872925528,3.28608734451,0.0,0.0,0.0,1.0
1609055174674521923,1663,1609055174674521923,-3.78640566219,-3.76400448353,3.31514673805,0.0,0.0,0.0,1.0
1609055174724334001,1664,1609055174724334001,-3.80189339957,-3.78106397693,3.32798334755,0.0,0.0,0.0,1.0
1609055174774270057,1665,1609055174774270057,-3.81881864493,-3.79886098522,3.34052739765,0.0,0.0,0.0,1.0
1609055174822154998,1666,1609055174822154998,-3.83309355728,-3.81613447332,3.35371178727,0.0,0.0,0.0,1.0
1609055174875543117,1667,1609055174875543117,-3.8487257572,-3.83410358214,3.36686249169,0.0,0.0,0.0,1.0
1609055174926300048,1668,1609055174926300048,-3.87560500229,-3.86895244987,3.39338558716,0.0,0.0,0.0,1.0
1609055174973730087,1669,1609055174973730087,-3.89024211646,-3.88687580773,3.40734412711,0.0,0.0,0.0,1.0
1609055175025697946,1670,1609055175025697946,-3.90451903495,-3.90534516807,3.42082591882,0.0,0.0,0.0,1.0
1609055175073563098,1671,1609055175073563098,-3.91757809142,-3.92307524402,3.43437848393,0.0,0.0,0.0,1.0
1609055175130748033,1672,1609055175130748033,-3.93052163311,-3.94122524879,3.44741971592,0.0,0.0,0.0,1.0
1609055175172293901,1673,1609055175172293901,-3.95619475806,-3.97766539912,3.47588072022,0.0,0.0,0.0,1.0
1609055175225720882,1674,1609055175225720882,-3.96711211351,-3.99456095162,3.48961134562,0.0,0.0,0.0,1.0
1609055175273180961,1675,1609055175273180961,-3.98026478171,-4.01311842635,3.50496860908,0.0,0.0,0.0,1.0
1609055175326464891,1676,1609055175326464891,-3.99090484765,-4.03154787387,3.52025233006,0.0,0.0,0.0,1.0
1609055175378529071,1677,1609055175378529071,-4.00145720644,-4.04984128096,3.53566828267,0.0,0.0,0.0,1.0
1609055175424951076,1678,1609055175424951076,-4.02198822756,-4.0865199992,3.56538862209,0.0,0.0,0.0,1.0
1609055175473351955,1679,1609055175473351955,-4.03141099063,-4.10392577124,3.57840501827,0.0,0.0,0.0,1.0
1609055175527601003,1680,1609055175527601003,-4.04192068977,-4.12248355685,3.59106563519,0.0,0.0,0.0,1.0
1609055175580178022,1681,1609055175580178022,-4.05070639326,-4.13987240773,3.60234872101,0.0,0.0,0.0,1.0
1609055175626846075,1682,1609055175626846075,-4.06058517867,-4.1570970312,3.61205937486,0.0,0.0,0.0,1.0
1609055175684761047,1683,1609055175684761047,-4.07719954713,-4.19055699835,3.62727922322,0.0,0.0,0.0,1.0
1609055175727673053,1684,1609055175727673053,-4.08700899344,-4.20791752259,3.63412843619,0.0,0.0,0.0,1.0
1609055175773685932,1685,1609055175773685932,-4.09571611791,-4.22530094622,3.63919732681,0.0,0.0,0.0,1.0
1609055175824923038,1686,1609055175824923038,-4.10214294071,-4.24200660285,3.64383300845,0.0,0.0,0.0,1.0
1609055175874509096,1687,1609055175874509096,-4.11697147445,-4.27641222728,3.65169021204,0.0,0.0,0.0,1.0
1609055175923727989,1688,1609055175923727989,-4.1238446872,-4.29232495784,3.65430357025,0.0,0.0,0.0,1.0
1609055175973803997,1689,1609055175973803997,-4.13122415759,-4.30927345687,3.65685875152,0.0,0.0,0.0,1.0
1609055176025207996,1690,1609055176025207996,-4.1370149183,-4.32630707983,3.65920555806,0.0,0.0,0.0,1.0
1609055176074162960,1691,1609055176074162960,-4.14343333223,-4.34306936734,3.66087862438,0.0,0.0,0.0,1.0
1609055176128125905,1692,1609055176128125905,-4.15432218824,-4.3765863721,3.66547709911,0.0,0.0,0.0,1.0
1609055176182933092,1693,1609055176182933092,-4.16025104392,-4.39384742209,3.66867225517,0.0,0.0,0.0,1.0
1609055176227384090,1694,1609055176227384090,-4.16548012419,-4.4114663573,3.67250524791,0.0,0.0,0.0,1.0
1609055176271470069,1695,1609055176271470069,-4.17104786144,-4.42892041356,3.67572840779,0.0,0.0,0.0,1.0
1609055176326185941,1696,1609055176326185941,-4.17797298696,-4.4469757545,3.68090799241,0.0,0.0,0.0,1.0
1609055176378691911,1697,1609055176378691911,-4.18924292301,-4.48242173535,3.68841831099,0.0,0.0,0.0,1.0
1609055176426490068,1698,1609055176426490068,-4.19482594117,-4.49974626031,3.69239416788,0.0,0.0,0.0,1.0
1609055176475265026,1699,1609055176475265026,-4.20154640528,-4.51831303005,3.6967379885,0.0,0.0,0.0,1.0
1609055176526139974,1700,1609055176526139974,-4.20613646018,-4.5362373852,3.70083554456,0.0,0.0,0.0,1.0
1609055176575902938,1701,1609055176575902938,-4.2124950367,-4.55463742479,3.70601943123,0.0,0.0,0.0,1.0
1609055176623174905,1702,1609055176623174905,-4.22521767296,-4.5910733169,3.71749798862,0.0,0.0,0.0,1.0
1609055176673006057,1703,1609055176673006057,-4.2336468423,-4.60951315704,3.72205408785,0.0,0.0,0.0,1.0
1609055176726689100,1704,1609055176726689100,-4.2401117359,-4.62784527009,3.72534213169,0.0,0.0,0.0,1.0
1609055176774918079,1705,1609055176774918079,-4.2470081823,-4.64578507283,3.72899758659,0.0,0.0,0.0,1.0
1609055176826128005,1706,1609055176826128005,-4.25755015587,-4.66546859988,3.73048208492,0.0,0.0,0.0,1.0
1609055176873121023,1707,1609055176873121023,-4.27440457561,-4.70061391419,3.73870145404,0.0,0.0,0.0,1.0
1609055176926362991,1708,1609055176926362991,-4.28496166974,-4.7185721998,3.74099615947,0.0,0.0,0.0,1.0
1609055176972676992,1709,1609055176972676992,-4.29405647815,-4.73603657499,3.7426862782,0.0,0.0,0.0,1.0
1609055177025973081,1710,1609055177025973081,-4.30404526668,-4.75316384792,3.74488394867,0.0,0.0,0.0,1.0
1609055177073342084,1711,1609055177073342084,-4.31560049812,-4.77066409555,3.74678018947,0.0,0.0,0.0,1.0
1609055177128844022,1712,1609055177128844022,-4.33723556,-4.80512392648,3.74883989427,0.0,0.0,0.0,1.0
1609055177175987005,1713,1609055177175987005,-4.34876494099,-4.82272964111,3.74870960042,0.0,0.0,0.0,1.0
1609055177222470998,1714,1609055177222470998,-4.35918704748,-4.83983997251,3.74841167467,0.0,0.0,0.0,1.0
1609055177274344921,1715,1609055177274344921,-4.37244821972,-4.85756954021,3.74792582869,0.0,0.0,0.0,1.0
1609055177325350999,1716,1609055177325350999,-4.39447759535,-4.89085881748,3.74519860324,0.0,0.0,0.0,1.0
1609055177373941898,1717,1609055177373941898,-4.40670754479,-4.90777348188,3.74316008736,0.0,0.0,0.0,1.0
1609055177425725936,1718,1609055177425725936,-4.4182322525,-4.92498278245,3.74084569042,0.0,0.0,0.0,1.0
1609055177471533060,1719,1609055177471533060,-4.42856463522,-4.94155068525,3.73849251888,0.0,0.0,0.0,1.0
1609055177526808977,1720,1609055177526808977,-4.44058553746,-4.95898750764,3.73544274673,0.0,0.0,0.0,1.0
1609055177572212934,1721,1609055177572212934,-4.46041293616,-4.99222914781,3.72933636088,0.0,0.0,0.0,1.0
1609055177625524044,1722,1609055177625524044,-4.47000498662,-5.00799827741,3.72722047188,0.0,0.0,0.0,1.0
1609055177672451972,1723,1609055177672451972,-4.48059692126,-5.02460671173,3.72637210058,0.0,0.0,0.0,1.0
1609055177724493980,1724,1609055177724493980,-4.4895647812,-5.03958728054,3.72281816525,0.0,0.0,0.0,1.0
1609055177775562047,1725,1609055177775562047,-4.49976382473,-5.05546896378,3.7209929121,0.0,0.0,0.0,1.0
1609055177824311971,1726,1609055177824311971,-4.51505058038,-5.08593654678,3.71872799974,0.0,0.0,0.0,1.0
1609055177872901916,1727,1609055177872901916,-4.5228443427,-5.10127082759,3.7167804859,0.0,0.0,0.0,1.0
1609055177926270008,1728,1609055177926270008,-4.52915286547,-5.11581169535,3.71555884261,0.0,0.0,0.0,1.0
1609055177973215103,1729,1609055177973215103,-4.53527441975,-5.13030062767,3.7140456309,0.0,0.0,0.0,1.0
1609055178027204036,1730,1609055178027204036,-4.54162199186,-5.14512796107,3.71385418314,0.0,0.0,0.0,1.0
1609055178073596000,1731,1609055178073596000,-4.55148179471,-5.17281458567,3.71075865987,0.0,0.0,0.0,1.0
1609055178126446008,1732,1609055178126446008,-4.55727383051,-5.18705042388,3.70988930765,0.0,0.0,0.0,1.0
1609055178173517942,1733,1609055178173517942,-4.56030293573,-5.19950421697,3.70937286353,0.0,0.0,0.0,1.0
1609055178224605083,1734,1609055178224605083,-4.56551137851,-5.21268147115,3.70836006393,0.0,0.0,0.0,1.0
1609055178275553941,1735,1609055178275553941,-4.57065101301,-5.23717948453,3.70671214687,0.0,0.0,0.0,1.0
1609055178324464082,1736,1609055178324464082,-4.57276279079,-5.24854488256,3.70631919923,0.0,0.0,0.0,1.0
1609055178375433921,1737,1609055178375433921,-4.57566999905,-5.26020530622,3.70591560985,0.0,0.0,0.0,1.0
1609055178422914981,1738,1609055178422914981,-4.57736545337,-5.27226577529,3.7056456556,0.0,0.0,0.0,1.0
1609055178473893880,1739,1609055178473893880,-4.5787000566,-5.28292941004,3.70504521475,0.0,0.0,0.0,1.0
1609055178527255058,1740,1609055178527255058,-4.57942444719,-5.30552141446,3.70264117747,0.0,0.0,0.0,1.0
1609055178573101997,1741,1609055178573101997,-4.57990484927,-5.31662979596,3.70180008576,0.0,0.0,0.0,1.0
1609055178625189065,1742,1609055178625189065,-4.57956388182,-5.32779064564,3.70025800235,0.0,0.0,0.0,1.0
1609055178672074079,1743,1609055178672074079,-4.57806112296,-5.33859834423,3.69931004536,0.0,0.0,0.0,1.0
1609055178726572036,1744,1609055178726572036,-4.5764349384,-5.34937565372,3.69806532238,0.0,0.0,0.0,1.0
1609055178773493051,1745,1609055178773493051,-4.57200760082,-5.37024415654,3.69841196214,0.0,0.0,0.0,1.0
1609055178818135023,1746,1609055178818135023,-4.56964955691,-5.38087821316,3.68842104281,0.0,0.0,0.0,1.0
1609055178868616104,1747,1609055178868616104,-4.5661215177,-5.39176288561,3.68802212235,0.0,0.0,0.0,1.0
1609055178918551921,1748,1609055178918551921,-4.56269490638,-5.40263154573,3.686586435,0.0,0.0,0.0,1.0
1609055178970346927,1749,1609055178970346927,-4.55850455154,-5.41353417248,3.68730263364,0.0,0.0,0.0,1.0
1609055179019530057,1750,1609055179019530057,-4.54849993092,-5.43464753521,3.68842520922,0.0,0.0,0.0,1.0
1609055179068316936,1751,1609055179068316936,-4.54307468047,-5.44511253305,3.68876366036,0.0,0.0,0.0,1.0
1609055179124480962,1752,1609055179124480962,-4.5372395868,-5.45543513638,3.69100351086,0.0,0.0,0.0,1.0
1609055179168469905,1753,1609055179168469905,-4.5313539986,-5.46578104036,3.69242635488,0.0,0.0,0.0,1.0
1609055179221792936,1754,1609055179221792936,-4.52501385151,-5.47593300054,3.69435372793,0.0,0.0,0.0,1.0
1609055179267718076,1755,1609055179267718076,-4.51198676203,-5.49593581274,3.69742226467,0.0,0.0,0.0,1.0
1609055179320678949,1756,1609055179320678949,-4.50552596474,-5.50554201405,3.69872096517,0.0,0.0,0.0,1.0
1609055179368432998,1757,1609055179368432998,-4.49868229894,-5.51448574779,3.70185863198,0.0,0.0,0.0,1.0
1609055179417404890,1758,1609055179417404890,-4.49200523951,-5.5231535227,3.70325302818,0.0,0.0,0.0,1.0
1609055179469854116,1759,1609055179469854116,-4.48527310227,-5.53183759283,3.70602290779,0.0,0.0,0.0,1.0
1609055179519875049,1760,1609055179519875049,-4.4710331371,-5.54829007975,3.71344972356,0.0,0.0,0.0,1.0
1609055179576515913,1761,1609055179576515913,-4.46556402023,-5.55623748645,3.72100805524,0.0,0.0,0.0,1.0
1609055179623337030,1762,1609055179623337030,-4.45642917487,-5.56304078412,3.72445061302,0.0,0.0,0.0,1.0
1609055179675719976,1763,1609055179675719976,-4.45231132948,-5.57087737712,3.72722950467,0.0,0.0,0.0,1.0
1609055179726792097,1764,1609055179726792097,-4.43872585017,-5.58387655051,3.73394918762,0.0,0.0,0.0,1.0
1609055179775595903,1765,1609055179775595903,-4.43289539309,-5.58979083602,3.73692742973,0.0,0.0,0.0,1.0
1609055179824481964,1766,1609055179824481964,-4.42727429149,-5.59565598976,3.74030127477,0.0,0.0,0.0,1.0
1609055179872981071,1767,1609055179872981071,-4.42180746773,-5.60105767787,3.74342110597,0.0,0.0,0.0,1.0
1609055179925950050,1768,1609055179925950050,-4.41699585379,-5.60615677363,3.74676063531,0.0,0.0,0.0,1.0
1609055179972651004,1769,1609055179972651004,-4.40616581429,-5.61437231587,3.75220575535,0.0,0.0,0.0,1.0
1609055180026099920,1770,1609055180026099920,-4.40363453327,-5.61895273795,3.7550148099,0.0,0.0,0.0,1.0
1609055180072957992,1771,1609055180072957992,-4.39872521647,-5.6222345377,3.75772603939,0.0,0.0,0.0,1.0
1609055180127152919,1772,1609055180127152919,-4.3957354033,-5.62591328962,3.76025631451,0.0,0.0,0.0,1.0
1609055180176687002,1773,1609055180176687002,-4.39195862895,-5.62875480553,3.7630610237,0.0,0.0,0.0,1.0
1609055180236349105,1774,1609055180236349105,-4.38523742393,-5.63474676681,3.76438394862,0.0,0.0,0.0,1.0
1609055180278110027,1775,1609055180278110027,-4.38244134991,-5.63744037463,3.76884520808,0.0,0.0,0.0,1.0
1609055180325875997,1776,1609055180325875997,-4.38125954333,-5.64040668101,3.77335562283,0.0,0.0,0.0,1.0
1609055180374494075,1777,1609055180374494075,-4.377033735,-5.64194628213,3.7754357631,0.0,0.0,0.0,1.0
1609055180426012039,1778,1609055180426012039,-4.37617557178,-5.644721875,3.77761619279,0.0,0.0,0.0,1.0
1609055180473144054,1779,1609055180473144054,-4.37329223582,-5.64855575872,3.77998386255,0.0,0.0,0.0,1.0
1609055180525840044,1780,1609055180525840044,-4.37210536557,-5.6505148084,3.78113689861,0.0,0.0,0.0,1.0
1609055180572693109,1781,1609055180572693109,-4.37029531153,-5.65170021013,3.78250327664,0.0,0.0,0.0,1.0
1609055180617440938,1782,1609055180617440938,-4.36901933714,-5.65333827101,3.77874093075,0.0,0.0,0.0,1.0
1609055180669095039,1783,1609055180669095039,-4.36798841693,-5.65459107074,3.77809507753,0.0,0.0,0.0,1.0
1609055180718864917,1784,1609055180718864917,-4.36639876049,-5.65601281273,3.7784903755,0.0,0.0,0.0,1.0
1609055180770867109,1785,1609055180770867109,-4.36570543271,-5.6567369256,3.77810352062,0.0,0.0,0.0,1.0
1609055180818758964,1786,1609055180818758964,-4.36488516453,-5.65713354166,3.77692970062,0.0,0.0,0.0,1.0
1609055180868566036,1787,1609055180868566036,-4.36349488508,-5.65758836812,3.77466067429,0.0,0.0,0.0,1.0
1609055180922487020,1788,1609055180922487020,-4.36181858038,-5.65747723981,3.773070814,0.0,0.0,0.0,1.0
1609055180968362092,1789,1609055180968362092,-4.35825622065,-5.65638459788,3.76869244253,0.0,0.0,0.0,1.0
1609055181021558046,1790,1609055181021558046,-4.35670523394,-5.6555916297,3.76460711919,0.0,0.0,0.0,1.0
1609055181072961091,1791,1609055181072961091,-4.35446113198,-5.65424809343,3.76428665547,0.0,0.0,0.0,1.0
1609055181127449035,1792,1609055181127449035,-4.35407706189,-5.65371690475,3.75930331872,0.0,0.0,0.0,1.0
1609055181173027038,1793,1609055181173027038,-4.34695108837,-5.64822784796,3.74843315679,0.0,0.0,0.0,1.0
1609055181225819110,1794,1609055181225819110,-4.34245421473,-5.64477565654,3.74389453531,0.0,0.0,0.0,1.0
1609055181273570060,1795,1609055181273570060,-4.33980953669,-5.64198352916,3.73768343941,0.0,0.0,0.0,1.0
1609055181324012041,1796,1609055181324012041,-4.335421493,-5.63862835745,3.73415692476,0.0,0.0,0.0,1.0
1609055181379125118,1797,1609055181379125118,-4.33209079263,-5.63561775375,3.72941216854,0.0,0.0,0.0,1.0
1609055181438599109,1798,1609055181438599109,-4.32079095587,-5.62713516,3.72226258773,0.0,0.0,0.0,1.0
1609055181479490041,1799,1609055181479490041,-4.3144239773,-5.62259025252,3.71950776848,0.0,0.0,0.0,1.0
1609055181526396036,1800,1609055181526396036,-4.30822602916,-5.61787168551,3.71721441781,0.0,0.0,0.0,1.0
1609055181572916030,1801,1609055181572916030,-4.3015268955,-5.61287947907,3.71460964065,0.0,0.0,0.0,1.0
1609055181627197980,1802,1609055181627197980,-4.29320268643,-5.6070643946,3.71229360124,0.0,0.0,0.0,1.0
1609055181671854019,1803,1609055181671854019,-4.27848522148,-5.59640184444,3.70684907914,0.0,0.0,0.0,1.0
1609055181725078105,1804,1609055181725078105,-4.27118761618,-5.58982271245,3.70398886499,0.0,0.0,0.0,1.0
1609055181771248102,1805,1609055181771248102,-4.26210698241,-5.58357969607,3.70058592679,0.0,0.0,0.0,1.0
1609055181824111938,1806,1609055181824111938,-4.2533272453,-5.57706905105,3.69835443436,0.0,0.0,0.0,1.0
1609055181874808073,1807,1609055181874808073,-4.23356032723,-5.56305592853,3.69553548039,0.0,0.0,0.0,1.0
1609055181925997972,1808,1609055181925997972,-4.22385757643,-5.55594531046,3.69439429346,0.0,0.0,0.0,1.0
1609055181973620891,1809,1609055181973620891,-4.21297545088,-5.54880389309,3.69381679929,0.0,0.0,0.0,1.0
1609055182024467945,1810,1609055182024467945,-4.20062014681,-5.54069517149,3.69336432805,0.0,0.0,0.0,1.0
1609055182074510097,1811,1609055182074510097,-4.19062908169,-5.53313263192,3.69290258755,0.0,0.0,0.0,1.0
1609055182127080917,1812,1609055182127080917,-4.16606163795,-5.51656678336,3.69182282464,0.0,0.0,0.0,1.0
1609055182175546884,1813,1609055182175546884,-4.15456397156,-5.5081529198,3.69120670629,0.0,0.0,0.0,1.0
1609055182225373983,1814,1609055182225373983,-4.14233170739,-5.49959653497,3.69030330124,0.0,0.0,0.0,1.0
1609055182271750926,1815,1609055182271750926,-4.12937036902,-5.49032520369,3.68993873027,0.0,0.0,0.0,1.0
1609055182326030015,1816,1609055182326030015,-4.11744810978,-5.48111597224,3.68956577903,0.0,0.0,0.0,1.0
1609055182372920989,1817,1609055182372920989,-4.09078049951,-5.46161581691,3.69017009549,0.0,0.0,0.0,1.0
1609055182425586938,1818,1609055182425586938,-4.07858628544,-5.45182788863,3.69107849697,0.0,0.0,0.0,1.0
1609055182475060939,1819,1609055182475060939,-4.06588189501,-5.44141892068,3.69226735049,0.0,0.0,0.0,1.0
1609055182525145053,1820,1609055182525145053,-4.05186429771,-5.43009874002,3.69374536344,0.0,0.0,0.0,1.0
1609055182575793027,1821,1609055182575793027,-4.03933534144,-5.41900357968,3.69519195753,0.0,0.0,0.0,1.0
1609055182637918949,1822,1609055182637918949,-4.01201627404,-5.39475856589,3.6996753532,0.0,0.0,0.0,1.0
1609055182681654930,1823,1609055182681654930,-4.00013804819,-5.38336143238,3.70147123909,0.0,0.0,0.0,1.0
1609055182726507902,1824,1609055182726507902,-3.98654068847,-5.3703794127,3.70350772037,0.0,0.0,0.0,1.0
1609055182774200916,1825,1609055182774200916,-3.97446421392,-5.35838539026,3.70534493243,0.0,0.0,0.0,1.0
1609055182825419902,1826,1609055182825419902,-3.96181282746,-5.34563428182,3.70762796533,0.0,0.0,0.0,1.0
1609055182873485088,1827,1609055182873485088,-3.93759359972,-5.31974459011,3.71099942391,0.0,0.0,0.0,1.0
1609055182967494010,1828,1609055182967494010,-3.91039402734,-5.29128317103,3.71501436611,0.0,0.0,0.0,1.0
1609055183034313917,1829,1609055183034313917,-3.88561027837,-5.26370277503,3.71911946067,0.0,0.0,0.0,1.0
1609055183078646898,1830,1609055183078646898,-3.87252377998,-5.24916252817,3.72072349162,0.0,0.0,0.0,1.0
1609055183127476930,1831,1609055183127476930,-3.86110105371,-5.23497646413,3.72296734699,0.0,0.0,0.0,1.0
1609055183173512935,1832,1609055183173512935,-3.84721111836,-5.22013741549,3.7250088051,0.0,0.0,0.0,1.0
1609055183224189996,1833,1609055183224189996,-3.83440476793,-5.20490930969,3.7277829461,0.0,0.0,0.0,1.0
1609055183275171995,1834,1609055183275171995,-3.82316520067,-5.18896052858,3.73072679375,0.0,0.0,0.0,1.0
1609055183326287984,1835,1609055183326287984,-3.79597320617,-5.1580735462,3.73629931644,0.0,0.0,0.0,1.0
1609055183374823093,1836,1609055183374823093,-3.78375975403,-5.14296588088,3.73917261211,0.0,0.0,0.0,1.0
1609055183426466941,1837,1609055183426466941,-3.76945678807,-5.12697693461,3.74281647096,0.0,0.0,0.0,1.0
1609055183473531961,1838,1609055183473531961,-3.75645495072,-5.11094541385,3.7439190928,0.0,0.0,0.0,1.0
1609055183527014970,1839,1609055183527014970,-3.74350449038,-5.09451755039,3.75129850349,0.0,0.0,0.0,1.0
1609055183573415040,1840,1609055183573415040,-3.71581147064,-5.0617766975,3.75993392514,0.0,0.0,0.0,1.0
1609055183626631021,1841,1609055183626631021,-3.70251512668,-5.04635486432,3.76421706675,0.0,0.0,0.0,1.0
1609055183673582077,1842,1609055183673582077,-3.68899978871,-5.03043122894,3.76861402139,0.0,0.0,0.0,1.0
1609055183727219104,1843,1609055183727219104,-3.67502751236,-5.01305353206,3.77352076835,0.0,0.0,0.0,1.0
1609055183781006097,1844,1609055183781006097,-3.64525200586,-4.97833107284,3.78292276582,0.0,0.0,0.0,1.0
1609055183827709913,1845,1609055183827709913,-3.63332527703,-4.96203570866,3.78732807179,0.0,0.0,0.0,1.0
1609055183873569965,1846,1609055183873569965,-3.61911512974,-4.944663622,3.79095623326,0.0,0.0,0.0,1.0
1609055183924503087,1847,1609055183924503087,-3.60456688951,-4.92721897232,3.79594370015,0.0,0.0,0.0,1.0
1609055183975788116,1848,1609055183975788116,-3.59194012343,-4.91053901502,3.80137495095,0.0,0.0,0.0,1.0
1609055184027339935,1849,1609055184027339935,-3.5784377534,-4.8936367696,3.805198972,0.0,0.0,0.0,1.0
1609055184072865962,1850,1609055184072865962,-3.55282923496,-4.86056545266,3.81253893871,0.0,0.0,0.0,1.0
1609055184125991106,1851,1609055184125991106,-3.53811204582,-4.84327757481,3.81811711448,0.0,0.0,0.0,1.0
1609055184172264099,1852,1609055184172264099,-3.52471550586,-4.82652162071,3.82237198229,0.0,0.0,0.0,1.0
1609055184225709915,1853,1609055184225709915,-3.51225111484,-4.80987844166,3.82675169426,0.0,0.0,0.0,1.0
1609055184273721933,1854,1609055184273721933,-3.48362381977,-4.77647136558,3.8358567041,0.0,0.0,0.0,1.0
1609055184325576066,1855,1609055184325576066,-3.47258347057,-4.76140694007,3.84009824143,0.0,0.0,0.0,1.0
1609055184374133110,1856,1609055184374133110,-3.45899180788,-4.74522699959,3.84480162577,0.0,0.0,0.0,1.0
1609055184424628019,1857,1609055184424628019,-3.44601975982,-4.72917428467,3.8492506486,0.0,0.0,0.0,1.0
1609055184475791931,1858,1609055184475791931,-3.43393222324,-4.71337139056,3.85278881809,0.0,0.0,0.0,1.0
1609055184527067899,1859,1609055184527067899,-3.40725940356,-4.68239452752,3.8599667536,0.0,0.0,0.0,1.0
1609055184575208902,1860,1609055184575208902,-3.3959975955,-4.66788921703,3.86259310255,0.0,0.0,0.0,1.0
1609055184624571084,1861,1609055184624571084,-3.38223768881,-4.65345422999,3.86572990326,0.0,0.0,0.0,1.0
1609055184673228025,1862,1609055184673228025,-3.37104746325,-4.63931505195,3.86804628913,0.0,0.0,0.0,1.0
1609055184725492000,1863,1609055184725492000,-3.35840603674,-4.62540601815,3.87067389423,0.0,0.0,0.0,1.0
1609055184779529094,1864,1609055184779529094,-3.33199435211,-4.59718866238,3.8764596926,0.0,0.0,0.0,1.0
1609055184823906898,1865,1609055184823906898,-3.31931314836,-4.58437329541,3.87836644481,0.0,0.0,0.0,1.0
1609055184873048067,1866,1609055184873048067,-3.30530391153,-4.57076160514,3.88084597569,0.0,0.0,0.0,1.0
1609055184924573898,1867,1609055184924573898,-3.29163320892,-4.55740871889,3.88266204388,0.0,0.0,0.0,1.0
1609055184976830005,1868,1609055184976830005,-3.27848830216,-4.54453615222,3.8849570143,0.0,0.0,0.0,1.0
1609055185024616003,1869,1609055185024616003,-3.25070676713,-4.51874263749,3.8890240709,0.0,0.0,0.0,1.0
1609055185072923898,1870,1609055185072923898,-3.23730639302,-4.50624777645,3.89074275439,0.0,0.0,0.0,1.0
1609055185125214099,1871,1609055185125214099,-3.22151525827,-4.49307756681,3.8918039994,0.0,0.0,0.0,1.0
1609055185177850961,1872,1609055185177850961,-3.20892926891,-4.48075950888,3.89364487321,0.0,0.0,0.0,1.0
1609055185226908922,1873,1609055185226908922,-3.19459926088,-4.46815860827,3.89569166886,0.0,0.0,0.0,1.0
1609055185273809909,1874,1609055185273809909,-3.16726078904,-4.44250319576,3.89910101036,0.0,0.0,0.0,1.0
1609055185326030015,1875,1609055185326030015,-3.15124632321,-4.42909747316,3.90192124296,0.0,0.0,0.0,1.0
1609055185392045021,1876,1609055185392045021,-3.12311814561,-4.40359556735,3.90603260631,0.0,0.0,0.0,1.0
1609055185479149103,1877,1609055185479149103,-3.09196224648,-4.3765185908,3.9110394297,0.0,0.0,0.0,1.0
1609055185525790929,1878,1609055185525790929,-3.07696402003,-4.36288903479,3.91310727576,0.0,0.0,0.0,1.0
1609055185574721097,1879,1609055185574721097,-3.06081544073,-4.34840796305,3.91616108158,0.0,0.0,0.0,1.0
1609055185623119115,1880,1609055185623119115,-3.04609498227,-4.33414741239,3.91817705723,0.0,0.0,0.0,1.0
1609055185673947095,1881,1609055185673947095,-3.03029875976,-4.31976299145,3.92199731286,0.0,0.0,0.0,1.0
1609055185727001905,1882,1609055185727001905,-3.0000438977,-4.29068740416,3.92817826703,0.0,0.0,0.0,1.0
1609055185773653030,1883,1609055185773653030,-2.98382739666,-4.27486580243,3.93075840781,0.0,0.0,0.0,1.0
1609055185825361013,1884,1609055185825361013,-2.9688818115,-4.25917734692,3.93528795863,0.0,0.0,0.0,1.0
1609055185871671915,1885,1609055185871671915,-2.9529027654,-4.24347306936,3.93965006517,0.0,0.0,0.0,1.0
1609055185926836013,1886,1609055185926836013,-2.93431429243,-4.22644672611,3.94471146663,0.0,0.0,0.0,1.0
1609055185977912902,1887,1609055185977912902,-2.90226583961,-4.19373214086,3.9544746157,0.0,0.0,0.0,1.0
1609055186026232004,1888,1609055186026232004,-2.88541958548,-4.17688338728,3.95741571772,0.0,0.0,0.0,1.0
1609055186097769975,1889,1609055186097769975,-2.85237825305,-4.14336795668,3.96922500691,0.0,0.0,0.0,1.0
1609055186138892889,1890,1609055186138892889,-2.83329061541,-4.1256756166,3.97483094834,0.0,0.0,0.0,1.0
1609055186179631948,1891,1609055186179631948,-2.8172513141,-4.10862915194,3.97946717037,0.0,0.0,0.0,1.0
1609055186227601051,1892,1609055186227601051,-2.80083375453,-4.09132311613,3.98490120187,0.0,0.0,0.0,1.0
1609055186273411035,1893,1609055186273411035,-2.78032567571,-4.07237625891,3.9897829027,0.0,0.0,0.0,1.0
1609055186326220035,1894,1609055186326220035,-2.76316884271,-4.05473453033,3.99528015501,0.0,0.0,0.0,1.0
1609055186377055883,1895,1609055186377055883,-2.7455572821,-4.03710951644,3.9995917182,0.0,0.0,0.0,1.0
1609055186425996065,1896,1609055186425996065,-2.7270437225,-4.01901414301,4.00323414584,0.0,0.0,0.0,1.0
1609055186473499059,1897,1609055186473499059,-2.6912703348,-3.98235218697,4.01208122555,0.0,0.0,0.0,1.0
1609055186526782989,1898,1609055186526782989,-2.66979914761,-3.96330869144,4.01576598136,0.0,0.0,0.0,1.0
1609055186593509912,1899,1609055186593509912,-2.63263503195,-3.92650991935,4.02106442063,0.0,0.0,0.0,1.0
1609055186634573936,1900,1609055186634573936,-2.61064194027,-3.90682923604,4.0265042783,0.0,0.0,0.0,1.0
1609055186680403947,1901,1609055186680403947,-2.59318610518,-3.88845054596,4.02925813827,0.0,0.0,0.0,1.0
1609055186723968029,1902,1609055186723968029,-2.57373607968,-3.8706105715,4.03384691574,0.0,0.0,0.0,1.0
1609055186774655103,1903,1609055186774655103,-2.5536513329,-3.85223335148,4.03659290492,0.0,0.0,0.0,1.0
1609055186823590040,1904,1609055186823590040,-2.53510149537,-3.8335834384,4.04040884279,0.0,0.0,0.0,1.0
1609055186876004934,1905,1609055186876004934,-2.51527448509,-3.814995694,4.04313646187,0.0,0.0,0.0,1.0
1609055186927009105,1906,1609055186927009105,-2.4761853248,-3.77746903475,4.04949441221,0.0,0.0,0.0,1.0
1609055186974123954,1907,1609055186974123954,-2.45602948804,-3.75848470794,4.0523365584,0.0,0.0,0.0,1.0
1609055187025580883,1908,1609055187025580883,-2.43555359723,-3.74003101583,4.05535261614,0.0,0.0,0.0,1.0
1609055187080102920,1909,1609055187080102920,-2.41630825108,-3.72118197213,4.05751899854,0.0,0.0,0.0,1.0
1609055187132359981,1910,1609055187132359981,-2.37403081815,-3.68267054366,4.06279440351,0.0,0.0,0.0,1.0
1609055187177803039,1911,1609055187177803039,-2.35446800822,-3.66230183963,4.06683358572,0.0,0.0,0.0,1.0
1609055187224499940,1912,1609055187224499940,-2.33661441596,-3.64463367519,4.06760637641,0.0,0.0,0.0,1.0
1609055187296463966,1913,1609055187296463966,-2.2956595503,-3.60611963183,4.07263883871,0.0,0.0,0.0,1.0
1609055187338625907,1914,1609055187338625907,-2.27457326232,-3.58621843998,4.07497843846,0.0,0.0,0.0,1.0
1609055187380883932,1915,1609055187380883932,-2.25333327163,-3.56566318679,4.07699106722,0.0,0.0,0.0,1.0
1609055187468331098,1916,1609055187468331098,-2.21429636347,-3.52688585809,4.08002694407,0.0,0.0,0.0,1.0
1609055187519444942,1917,1609055187519444942,-2.19347362449,-3.50704007666,4.0791964322,0.0,0.0,0.0,1.0
1609055187630456924,1918,1609055187630456924,-2.13699917701,-3.44956115585,4.08197374061,0.0,0.0,0.0,1.0
1609055187673258066,1919,1609055187673258066,-2.12045556881,-3.43049746929,4.08084404067,0.0,0.0,0.0,1.0
1609055187725742101,1920,1609055187725742101,-2.09875411461,-3.40948047338,4.07999327901,0.0,0.0,0.0,1.0
1609055187772758960,1921,1609055187772758960,-2.08004834281,-3.38919428848,4.07958443147,0.0,0.0,0.0,1.0
1609055187825819015,1922,1609055187825819015,-2.06330566169,-3.36985735898,4.07906924315,0.0,0.0,0.0,1.0
1609055187874022006,1923,1609055187874022006,-2.04465242,-3.34993376947,4.07836017781,0.0,0.0,0.0,1.0
1609055187925040006,1924,1609055187925040006,-2.00793841614,-3.30883339268,4.07691782001,0.0,0.0,0.0,1.0
1609055187978027105,1925,1609055187978027105,-1.98922408325,-3.28796774376,4.07636686954,0.0,0.0,0.0,1.0
1609055188024916887,1926,1609055188024916887,-1.97006690077,-3.26583571597,4.07542410399,0.0,0.0,0.0,1.0
1609055188075211048,1927,1609055188075211048,-1.95504796099,-3.24580831493,4.0730203937,0.0,0.0,0.0,1.0
1609055188129313945,1928,1609055188129313945,-1.91802834251,-3.20323053245,4.06927256398,0.0,0.0,0.0,1.0
1609055188174479007,1929,1609055188174479007,-1.90217593201,-3.18241574319,4.06747272223,0.0,0.0,0.0,1.0
1609055188225657939,1930,1609055188225657939,-1.88489313941,-3.16079550317,4.06445507884,0.0,0.0,0.0,1.0
1609055188271783113,1931,1609055188271783113,-1.86948340553,-3.13910137925,4.06230024507,0.0,0.0,0.0,1.0
1609055188332468032,1932,1609055188332468032,-1.83793638154,-3.09464659031,4.05612797059,0.0,0.0,0.0,1.0
1609055188383265972,1933,1609055188383265972,-1.82400950093,-3.07235598508,4.05228068698,0.0,0.0,0.0,1.0
1609055188425882101,1934,1609055188425882101,-1.81195376411,-3.04968328625,4.04903344076,0.0,0.0,0.0,1.0
1609055188474539995,1935,1609055188474539995,-1.79729681375,-3.02576922957,4.04629477194,0.0,0.0,0.0,1.0
1609055188526559114,1936,1609055188526559114,-1.78550748016,-3.00378498647,4.04143111696,0.0,0.0,0.0,1.0
1609055188575570106,1937,1609055188575570106,-1.77193585479,-2.97935427425,4.03933272892,0.0,0.0,0.0,1.0
1609055188624094009,1938,1609055188624094009,-1.74845849134,-2.93042677291,4.03181008709,0.0,0.0,0.0,1.0
1609055188675200939,1939,1609055188675200939,-1.73669188504,-2.90538326436,4.0281352521,0.0,0.0,0.0,1.0
1609055188725682020,1940,1609055188725682020,-1.72399169492,-2.880211988,4.02333603485,0.0,0.0,0.0,1.0
1609055188775820016,1941,1609055188775820016,-1.71367681814,-2.85534035847,4.01902963925,0.0,0.0,0.0,1.0
1609055188828044891,1942,1609055188828044891,-1.70294215377,-2.82968190178,4.01551727455,0.0,0.0,0.0,1.0
1609055188888634920,1943,1609055188888634920,-1.68532699369,-2.77693038872,4.00405884292,0.0,0.0,0.0,1.0
1609055188929080963,1944,1609055188929080963,-1.67564463464,-2.74905045886,3.99922628382,0.0,0.0,0.0,1.0
1609055188971812009,1945,1609055188971812009,-1.66753769119,-2.72189735953,3.99370970363,0.0,0.0,0.0,1.0
1609055189027678966,1946,1609055189027678966,-1.65990878905,-2.69498548566,3.98851154878,0.0,0.0,0.0,1.0
1609055189076565027,1947,1609055189076565027,-1.64405968844,-2.63626964502,3.97844456116,0.0,0.0,0.0,1.0
1609055189128124952,1948,1609055189128124952,-1.63594841358,-2.60652974314,3.97500009541,0.0,0.0,0.0,1.0
1609055189174222946,1949,1609055189174222946,-1.62813032467,-2.57672701066,3.9703673526,0.0,0.0,0.0,1.0
1609055189223599910,1950,1609055189223599910,-1.62086813197,-2.54540882452,3.96607666756,0.0,0.0,0.0,1.0
1609055189275607109,1951,1609055189275607109,-1.61221593368,-2.51448884205,3.96224607974,0.0,0.0,0.0,1.0
1609055189326261043,1952,1609055189326261043,-1.59740562481,-2.45086244899,3.95566792454,0.0,0.0,0.0,1.0
1609055189373676061,1953,1609055189373676061,-1.58862799126,-2.41802549454,3.95207831274,0.0,0.0,0.0,1.0
1609055189426577091,1954,1609055189426577091,-1.5818672037,-2.38439845322,3.94954268855,0.0,0.0,0.0,1.0
1609055189473081111,1955,1609055189473081111,-1.57347736087,-2.35082316578,3.94661099381,0.0,0.0,0.0,1.0
1609055189525749921,1956,1609055189525749921,-1.5639127522,-2.31531849267,3.94392418628,0.0,0.0,0.0,1.0
1609055189577028036,1957,1609055189577028036,-1.54846937382,-2.24515419728,3.93792084623,0.0,0.0,0.0,1.0
1609055189626606941,1958,1609055189626606941,-1.53945629106,-2.21015218905,3.93511306736,0.0,0.0,0.0,1.0
1609055189673710107,1959,1609055189673710107,-1.53055133206,-2.17403821194,3.93231535649,0.0,0.0,0.0,1.0
1609055189726319074,1960,1609055189726319074,-1.52221603541,-2.13776933043,3.9299339737,0.0,0.0,0.0,1.0
1609055189775247097,1961,1609055189775247097,-1.51245156725,-2.10035866826,3.92724675714,0.0,0.0,0.0,1.0
1609055189824011087,1962,1609055189824011087,-1.4969409485,-2.0261023379,3.9226012809,0.0,0.0,0.0,1.0
1609055189872364044,1963,1609055189872364044,-1.4892963309,-1.98902271297,3.92011361086,0.0,0.0,0.0,1.0
1609055189926487922,1964,1609055189926487922,-1.48141953513,-1.95156614749,3.91761051864,0.0,0.0,0.0,1.0
1609055189974010944,1965,1609055189974010944,-1.47259148845,-1.91457460149,3.91482546165,0.0,0.0,0.0,1.0
1609055190027334928,1966,1609055190027334928,-1.46326282275,-1.87743167811,3.91221604181,0.0,0.0,0.0,1.0
1609055190073540925,1967,1609055190073540925,-1.44652991352,-1.80236244878,3.90739209418,0.0,0.0,0.0,1.0
1609055190127441883,1968,1609055190127441883,-1.43866940232,-1.76505778765,3.90456445287,0.0,0.0,0.0,1.0
1609055190174082994,1969,1609055190174082994,-1.43037562802,-1.72767871903,3.90297520496,0.0,0.0,0.0,1.0
1609055190225666999,1970,1609055190225666999,-1.42138273683,-1.69107601184,3.90052234166,0.0,0.0,0.0,1.0
