%time,field.header.seq,field.header.stamp,field.pose.position.x,field.pose.position.y,field.pose.position.z,field.pose.orientation.x,field.pose.orientation.y,field.pose.orientation.z,field.pose.orientation.w
1609045357449018001,194,1609045357449018001,-0.000135186771811,-7.71898120799e-05,-7.5369207142e-06,0.0,0.0,0.0,0.0
1609045357494191884,195,1609045357494191884,-2.00295782911e-05,-0.000121564787904,-3.35797649509e-05,0.0,0.0,0.0,0.0
1609045357549185037,196,1609045357549185037,1.10604247787e-05,-3.90834723678e-05,-4.60818613632e-05,0.0,0.0,0.0,0.0
1609045357601622104,197,1609045357601622104,-7.71225256102e-05,-8.68213414016e-05,0.000102678637623,0.0,0.0,0.0,0.0
1609045357649873018,198,1609045357649873018,-0.000111071830379,-0.000231247784216,8.32565262225e-05,0.0,0.0,0.0,0.0
1609045357700387954,199,1609045357700387954,-7.80162837266e-05,-0.000209256845453,2.99852822376e-05,0.0,0.0,0.0,0.0
1609045357751406908,200,1609045357751406908,-6.480541645e-05,-0.000105625974031,6.64013484304e-05,0.0,0.0,0.0,0.0
1609045357797975063,201,1609045357797975063,-0.000184462026827,-0.000178741100383,3.00305271423e-05,0.0,0.0,0.0,0.0
1609045357851775884,202,1609045357851775884,-0.000120405076263,-8.21014284291e-05,0.000192823683845,0.0,0.0,0.0,0.0
1609045357897521018,203,1609045357897521018,-0.000162462709469,-9.05957059238e-05,3.93039657993e-05,0.0,0.0,0.0,0.0
1609045357944648981,204,1609045357944648981,-0.000123388736405,-8.3132152044e-05,0.000198212690243,0.0,0.0,0.0,0.0
1609045357995953083,205,1609045357995953083,-0.000235523371252,5.67058457719e-05,0.000276248236389,0.0,0.0,0.0,0.0
1609045358045279979,206,1609045358045279979,-0.000238671457652,-0.000136353700073,0.000165126789184,0.0,0.0,0.0,0.0
1609045358093714952,207,1609045358093714952,-6.23577264953e-05,5.65986125522e-06,0.000129178364908,0.0,0.0,0.0,0.0
1609045358144144058,208,1609045358144144058,-0.000179323196306,8.75552504773e-05,0.000181698301541,0.0,0.0,0.0,0.0
1609045358194766044,209,1609045358194766044,-7.97333079881e-05,5.04493829538e-05,0.000191466555737,0.0,0.0,0.0,0.0
1609045358247030019,210,1609045358247030019,-3.46107419951e-05,0.000194981302586,0.000188426571507,0.0,0.0,0.0,0.0
1609045358296374082,211,1609045358296374082,3.61714158359e-05,4.49312834405e-05,-4.55947599818e-05,0.0,0.0,0.0,0.0
1609045358345005035,212,1609045358345005035,-7.7346921092e-05,5.67787466466e-05,0.000190505933794,0.0,0.0,0.0,0.0
1609045358395042896,213,1609045358395042896,-8.40983450736e-05,6.77847467134e-05,0.000210816065453,0.0,0.0,0.0,0.0
1609045358444175958,214,1609045358444175958,-0.000168259027706,8.53365377509e-05,0.00015803884969,0.0,0.0,0.0,0.0
1609045358494852066,215,1609045358494852066,3.88369295905e-05,7.51288140535e-05,-3.25954053935e-05,0.0,0.0,0.0,0.0
1609045358544924974,216,1609045358544924974,7.79438605711e-05,0.000135914287863,-7.44620109554e-05,0.0,0.0,0.0,0.0
1609045358594485998,217,1609045358594485998,-9.43410988477e-05,-0.000105346156845,-0.000107026953028,0.0,0.0,0.0,0.0
1609045358645397901,218,1609045358645397901,-0.000107997401081,5.96136810724e-05,2.0878650318e-05,0.0,0.0,0.0,0.0
1609045358694538116,219,1609045358694538116,3.63990228642e-05,1.59572644911e-05,-6.36830490297e-05,0.0,0.0,0.0,0.0
1609045358744090080,220,1609045358744090080,-6.81757916432e-05,-0.000110563614804,7.01928862252e-05,0.0,0.0,0.0,0.0
1609045358815011978,221,1609045358815011978,-0.000207419170984,-2.28010515944e-05,0.000171202349284,0.0,0.0,0.0,0.0
1609045358855021953,222,1609045358855021953,-0.00017057220802,5.80217889503e-05,0.000146082976043,0.0,0.0,0.0,0.0
1609045358898322105,223,1609045358898322105,-0.000130705663658,-2.19037648446e-05,1.70664840731e-05,0.0,0.0,0.0,0.0
1609045358944361925,224,1609045358944361925,-0.000162979615023,-5.19480930894e-05,6.38614258754e-05,0.0,0.0,0.0,0.0
1609045358994096040,225,1609045358994096040,-0.000224308040586,-6.57811405542e-05,0.000179104983703,0.0,0.0,0.0,0.0
1609045359043414115,226,1609045359043414115,-0.00017024576924,8.15465475821e-05,0.000159738764712,0.0,0.0,0.0,0.0
1609045359094511985,227,1609045359094511985,-0.000121878916026,3.25405900572e-05,0.000265550842503,0.0,0.0,0.0,0.0
1609045359146437883,228,1609045359146437883,-9.17365612061e-05,3.2885833857e-05,0.000204982690711,0.0,0.0,0.0,0.0
1609045359194897890,229,1609045359194897890,-0.000115348094873,7.80287083479e-05,4.69049993619e-05,0.0,0.0,0.0,0.0
1609045359245471000,230,1609045359245471000,-0.000178987552285,8.28173278045e-05,0.000178138645049,0.0,0.0,0.0,0.0
1609045359296011924,231,1609045359296011924,5.88744842425e-05,-3.48314215817e-05,9.32486441663e-05,0.0,0.0,0.0,0.0
1609045359345885992,232,1609045359345885992,-6.40929742204e-05,1.85263007602e-06,0.000130360691676,0.0,0.0,0.0,0.0
1609045359394464969,233,1609045359394464969,-0.0001133660652,4.20398560141e-05,2.10107694691e-05,0.0,0.0,0.0,0.0
1609045359444780111,234,1609045359444780111,-2.19106995942e-05,0.000224100392996,0.000180537006045,0.0,0.0,0.0,0.0
1609045359494980096,235,1609045359494980096,-0.000192961566427,-4.60344768598e-05,0.000127913941659,0.0,0.0,0.0,0.0
1609045359546622037,236,1609045359546622037,-0.000104935798639,5.92249107587e-05,1.44688621475e-05,0.0,0.0,0.0,0.0
1609045359594794034,237,1609045359594794034,-0.00019426630822,-0.000192268981735,4.15684506958e-05,0.0,0.0,0.0,0.0
1609045359643886089,238,1609045359643886089,-0.000196099821693,-0.000246006172684,1.25695945261e-05,0.0,0.0,0.0,0.0
1609045359696568965,239,1609045359696568965,-0.000181610248568,-0.000175658146345,2.61561495858e-05,0.0,0.0,0.0,0.0
1609045359746943950,240,1609045359746943950,-7.58628251099e-05,-0.000154280362462,5.90932496571e-05,0.0,0.0,0.0,0.0
1609045359796619892,241,1609045359796619892,-0.000197016383396,-0.000217165008209,3.19657916386e-05,0.0,0.0,0.0,0.0
1609045359870008945,242,1609045359870008945,-0.000257206650044,-0.000215366016695,0.000154425684251,0.0,0.0,0.0,0.0
1609045359908210992,243,1609045359908210992,-0.000218448677657,-8.50493519167e-05,0.000155566472236,0.0,0.0,0.0,0.0
1609045359996820926,244,1609045359996820926,-0.000170064366309,-4.59836404261e-05,8.17758866258e-05,0.0,0.0,0.0,0.0
1609045360039484024,245,1609045360039484024,-0.000213692500438,-5.32689736517e-05,0.000165313230745,0.0,0.0,0.0,0.0
1609045360114106893,246,1609045360114106893,-0.000165323637379,-6.91831868149e-05,5.81010620646e-05,0.0,0.0,0.0,0.0
1609045360163403987,247,1609045360163403987,-0.000145137279951,-0.000178130104105,0.000184263950851,0.0,0.0,0.0,0.0
1609045360215038061,248,1609045360215038061,-0.000184900126289,6.44034428419e-05,0.000178856339181,0.0,0.0,0.0,0.0
1609045360257577896,249,1609045360257577896,-8.79642469087e-05,-0.000205378461075,5.24035639629e-05,0.0,0.0,0.0,0.0
1609045360310436964,250,1609045360310436964,-0.000239338033989,0.000102322224587,0.000311696391966,0.0,0.0,0.0,0.0
1609045360357115030,251,1609045360357115030,-0.000163694322268,-4.90000861468e-05,0.000300251962543,0.0,0.0,0.0,0.0
1609045360406465053,252,1609045360406465053,-6.19208075996e-05,-0.000123528379246,4.96922874316e-05,0.0,0.0,0.0,0.0
1609045360456501007,253,1609045360456501007,-0.000153969969972,2.28086613419e-06,7.86907125185e-05,0.0,0.0,0.0,0.0
1609045360522175073,254,1609045360522175073,-0.000136534780726,-0.000135211914131,0.000193031772714,0.0,0.0,0.0,0.0
1609045360568289995,255,1609045360568289995,-6.13529532174e-05,-2.57579922316e-05,0.000108035923093,0.0,0.0,0.0,0.0
1609045360655994892,256,1609045360655994892,-0.000266966632353,0.000139035661755,0.000156588111741,0.0,0.0,0.0,0.0
1609045360700357913,257,1609045360700357913,-0.000228271897068,0.000137783928896,7.78037274838e-05,0.0,0.0,0.0,0.0
1609045360745348930,258,1609045360745348930,-0.000107266353293,6.99177364325e-05,0.00025882924338,0.0,0.0,0.0,0.0
1609045360807389974,259,1609045360807389974,-0.000124426366991,-0.000232795229756,0.000109242465896,0.0,0.0,0.0,0.0
1609045360852385997,260,1609045360852385997,5.37886771923e-06,-2.74419245816e-05,0.000205610776101,0.0,0.0,0.0,0.0
1609045360899405956,261,1609045360899405956,-0.000135250063565,-0.000364952912349,5.06572633761e-05,0.0,0.0,0.0,0.0
1609045360950668096,262,1609045360950668096,-0.000215335550866,-0.000139871019366,0.000115932904933,0.0,0.0,0.0,0.0
1609045361002254009,263,1609045361002254009,-0.000194553643659,-0.000205623477752,3.40223842965e-05,0.0,0.0,0.0,0.0
1609045361055136919,264,1609045361055136919,-0.000203297511479,-0.000198166862907,5.61900199667e-05,0.0,0.0,0.0,0.0
1609045361100155115,265,1609045361100155115,-7.89829253094e-05,-7.38113508341e-05,0.000114345831053,0.0,0.0,0.0,0.0
1609045361150757074,266,1609045361150757074,-0.000259153196854,-0.000169984239568,0.000185963103648,0.0,0.0,0.0,0.0
1609045361202246904,267,1609045361202246904,-7.04356679861e-05,-5.69014916785e-05,0.00010740042298,0.0,0.0,0.0,0.0
1609045361252753019,268,1609045361252753019,-0.00014868486565,-5.9713880967e-05,3.03131027337e-05,0.0,0.0,0.0,0.0
1609045361304344892,269,1609045361304344892,-0.000122115098758,-8.04108159222e-05,0.000197300383359,0.0,0.0,0.0,0.0
1609045361350133895,270,1609045361350133895,-7.86123525316e-05,-1.38875251245e-05,0.000150059686117,0.0,0.0,0.0,0.0
1609045361402973890,271,1609045361402973890,-0.000166607182493,7.24155271179e-05,0.000146846126762,0.0,0.0,0.0,0.0
1609045361446557044,272,1609045361446557044,-3.8007974787e-05,5.64686605706e-05,0.000110995885922,0.0,0.0,0.0,0.0
1609045361493863105,273,1609045361493863105,4.35383403108e-05,-2.95924075857e-05,-0.000105792883641,0.0,0.0,0.0,0.0
1609045361545176029,274,1609045361545176029,-0.000138980219234,-7.51661943088e-05,1.34323109258e-06,0.0,0.0,0.0,0.0
1609045361593553066,275,1609045361593553066,-0.000153969402412,-7.61036825825e-05,3.09961736953e-05,0.0,0.0,0.0,0.0
1609045361648401021,276,1609045361648401021,-9.44284096533e-05,-0.000149154239816,9.96469240029e-05,0.0,0.0,0.0,0.0
1609045361695343971,277,1609045361695343971,-0.000171850355041,-0.00019399844563,-4.68217549354e-06,0.0,0.0,0.0,0.0
1609045361744791030,278,1609045361744791030,-2.07955296858e-05,-0.0001280671888,-3.59917024308e-05,0.0,0.0,0.0,0.0
1609045361796559095,279,1609045361796559095,-0.000131831825541,-7.17748988492e-05,0.000222147496414,0.0,0.0,0.0,0.0
1609045361849342107,280,1609045361849342107,-0.000143603571964,0.000180315942782,0.000166116598738,0.0,0.0,0.0,0.0
1609045361894572019,281,1609045361894572019,-0.000126934909236,0.000102035423827,0.000318031277576,0.0,0.0,0.0,0.0
1609045361946424961,282,1609045361946424961,-0.000167106191743,9.41199345927e-05,0.000394215966272,0.0,0.0,0.0,0.0
1609045361994579076,283,1609045361994579076,-0.000176654924765,8.43090038263e-05,0.000174342843078,0.0,0.0,0.0,0.0
1609045362047810077,284,1609045362047810077,-0.000120651036031,0.000206431199587,0.000135726426972,0.0,0.0,0.0,0.0
1609045362094151020,285,1609045362094151020,-0.000165256879825,4.62867417337e-05,0.000128224993137,0.0,0.0,0.0,0.0
1609045362145236968,286,1609045362145236968,-3.64302865208e-06,0.000103422817924,7.02741594925e-05,0.0,0.0,0.0,0.0
1609045362195466041,287,1609045362195466041,-3.08746298181e-05,0.00020454536234,0.000186712725077,0.0,0.0,0.0,0.0
1609045362244407892,288,1609045362244407892,-1.67251808172e-05,5.56339480742e-05,6.75745083303e-05,0.0,0.0,0.0,0.0
1609045362296168088,289,1609045362296168088,-0.000105045022284,3.75019711498e-05,1.47159763664e-06,0.0,0.0,0.0,0.0
1609045362344182968,290,1609045362344182968,-3.2871932099e-05,-2.63570016834e-06,6.4677208373e-05,0.0,0.0,0.0,0.0
1609045362394486904,291,1609045362394486904,-6.42498571963e-05,7.1039477108e-05,0.00017277468103,0.0,0.0,0.0,0.0
1609045362445761919,292,1609045362445761919,-0.000215977261853,4.12646453594e-05,-5.71491745838e-06,0.0,0.0,0.0,0.0
1609045362494906902,293,1609045362494906902,1.84314909433e-05,0.000176652815512,7.03224364749e-05,0.0,0.0,0.0,0.0
1609045362545661926,294,1609045362545661926,2.67953605153e-05,-8.65134306469e-05,0.000126485046064,0.0,0.0,0.0,0.0
1609045362595221996,295,1609045362595221996,-0.000117997192365,-0.000257381664793,8.13195755143e-05,0.0,0.0,0.0,0.0
1609045362647672891,296,1609045362647672891,3.42713947781e-05,-0.000126839989706,-0.000146277486797,0.0,0.0,0.0,0.0
1609045362694770097,297,1609045362694770097,-2.3104075968e-05,-0.000154826854946,-4.76186371206e-05,0.0,0.0,0.0,0.0
1609045362745013952,298,1609045362745013952,-0.000277090605103,-1.88617050867e-07,0.00032544557051,0.0,0.0,0.0,0.0
1609045362798254013,299,1609045362798254013,-0.000223048442638,-0.000227187289305,7.83576832912e-05,0.0,0.0,0.0,0.0
1609045362847723960,300,1609045362847723960,-0.00020562222749,-0.00012916223913,0.000102863079308,0.0,0.0,0.0,0.0
1609045362894774913,301,1609045362894774913,-3.31660335675e-05,-9.46330257818e-05,9.29421912943e-06,0.0,0.0,0.0,0.0
1609045362945352077,302,1609045362945352077,-0.000216719355858,-0.000442261977522,-6.52620863004e-05,0.0,0.0,0.0,0.0
1609045362994893074,303,1609045362994893074,-0.000109244755933,-9.70989634492e-05,0.000161195071009,0.0,0.0,0.0,0.0
1609045363044976949,304,1609045363044976949,-0.000161136095596,-0.000239808352365,-5.41582390294e-05,0.0,0.0,0.0,0.0
1609045363101133108,305,1609045363101133108,-2.35795163768e-05,-0.000139123209699,-3.71052336074e-05,0.0,0.0,0.0,0.0
1609045363150429010,306,1609045363150429010,-0.000115488345738,-0.000135082692831,0.000150673101285,0.0,0.0,0.0,0.0
1609045363200804948,307,1609045363200804948,-7.08658616908e-05,-0.000287427022945,-3.19939927476e-05,0.0,0.0,0.0,0.0
1609045363250077962,308,1609045363250077962,-0.000263204467636,-0.000278886730127,0.000127870772967,0.0,0.0,0.0,0.0
1609045363304034948,309,1609045363304034948,-0.000229039817789,-0.000215124933423,9.77777042213e-05,0.0,0.0,0.0,0.0
1609045363350181102,310,1609045363350181102,-3.79310044387e-05,-0.000199911607947,-4.51540540407e-05,0.0,0.0,0.0,0.0
1609045363399806976,311,1609045363399806976,-0.000153022260275,-0.000195990299272,-4.38579367419e-05,0.0,0.0,0.0,0.0
1609045363449456930,312,1609045363449456930,-5.14093555886e-05,-0.000235240445758,-3.94726422694e-05,0.0,0.0,0.0,0.0
1609045363500853061,313,1609045363500853061,-7.96698382111e-05,-0.000132396222403,8.0084853634e-05,0.0,0.0,0.0,0.0
1609045363551542997,314,1609045363551542997,-4.48191384095e-05,-0.000268464590935,0.000160177334175,0.0,0.0,0.0,0.0
1609045363601277112,315,1609045363601277112,-9.08815104168e-05,-0.000209589181313,5.57237969492e-05,0.0,0.0,0.0,0.0
1609045363650464057,316,1609045363650464057,-0.000184514064578,-5.94415731854e-05,0.00010272310289,0.0,0.0,0.0,0.0
1609045363700124979,317,1609045363700124979,-0.000100664022213,-0.000220422432196,6.88573364762e-05,0.0,0.0,0.0,0.0
1609045363751950979,318,1609045363751950979,-8.06970349032e-05,-5.91600181696e-05,0.000126716756821,0.0,0.0,0.0,0.0
1609045363801486015,319,1609045363801486015,-0.000169162666623,-0.000230931106469,-3.25727284523e-05,0.0,0.0,0.0,0.0
1609045363854129076,320,1609045363854129076,-0.000211480749634,-0.000176619575562,8.58006668629e-05,0.0,0.0,0.0,0.0
1609045363900405883,321,1609045363900405883,-9.69087259683e-05,-0.00024477193141,4.64701363558e-05,0.0,0.0,0.0,0.0
1609045363945333957,322,1609045363945333957,-2.01168702887e-05,-0.000290938720648,9.66946944487e-05,0.0,0.0,0.0,0.0
1609045363997637987,323,1609045363997637987,-0.000138690935074,-0.000215159148988,0.000148735530694,0.0,0.0,0.0,0.0
1609045364049644947,324,1609045364049644947,-0.000190166825622,-5.04029412074e-05,0.000119620710965,0.0,0.0,0.0,0.0
1609045364094690084,325,1609045364094690084,-9.62664037409e-05,-0.000179750982113,8.47364801917e-05,0.0,0.0,0.0,0.0
1609045364144269943,326,1609045364144269943,-9.25410591073e-05,-8.37814350021e-05,0.000135617511955,0.0,0.0,0.0,0.0
1609045364194340944,327,1609045364194340944,-0.000110944407556,-0.000218881384804,9.05238362634e-05,0.0,0.0,0.0,0.0
1609045364247081995,328,1609045364247081995,-0.000174318716809,-0.000352095856243,0.00013725623886,0.0,0.0,0.0,0.0
1609045364297365903,329,1609045364297365903,-0.000110076059485,-0.000249443502421,7.01776875687e-05,0.0,0.0,0.0,0.0
1609045364344738006,330,1609045364344738006,-0.000126195200821,-0.000193605754543,0.000136653691857,0.0,0.0,0.0,0.0
1609045364396343946,331,1609045364396343946,-0.000289128148452,-0.000169547902603,0.000246669538761,0.0,0.0,0.0,0.0
1609045364446907043,332,1609045364446907043,-0.000108987492244,-6.12570579506e-05,0.000182484558248,0.0,0.0,0.0,0.0
1609045364495074033,333,1609045364495074033,-0.000144835481947,-8.47942887265e-05,7.29124316479e-06,0.0,0.0,0.0,0.0
1609045364544795036,334,1609045364544795036,-0.000238422908691,-0.000178325672508,0.000139087787026,0.0,0.0,0.0,0.0
1609045364596165895,335,1609045364596165895,-0.000235900604331,-0.000173946092422,0.000136666638973,0.0,0.0,0.0,0.0
1609045364648119926,336,1609045364648119926,-0.000150129119941,-0.00020522775187,0.00017784181192,0.0,0.0,0.0,0.0
1609045364694607973,337,1609045364694607973,-0.000136125966062,-0.000107570516038,-2.41282384579e-05,0.0,0.0,0.0,0.0
1609045364744606971,338,1609045364744606971,-0.000179887997053,-0.000335078820184,0.000158839728133,0.0,0.0,0.0,0.0
1609045364797895908,339,1609045364797895908,-0.000148460716545,-0.000218387743942,0.000166470544128,0.0,0.0,0.0,0.0
1609045364849781036,340,1609045364849781036,-0.000232579162059,-0.000181147482275,0.000125587725607,0.0,0.0,0.0,0.0
1609045364894953012,341,1609045364894953012,-9.702520126e-05,-0.000220698253147,6.13523859059e-05,0.0,0.0,0.0,0.0
1609045364946161985,342,1609045364946161985,-0.000184499416996,-0.000242544974249,-8.71490793131e-06,0.0,0.0,0.0,0.0
1609045364995922088,343,1609045364995922088,-7.60427825419e-05,-0.000223769055925,1.71762206875e-05,0.0,0.0,0.0,0.0
1609045365047739028,344,1609045365047739028,-0.000135747818906,-0.000238216633981,0.000128771950159,0.0,0.0,0.0,0.0
1609045365101330995,345,1609045365101330995,-0.000172346583934,-0.000299176349596,0.000165477931793,0.0,0.0,0.0,0.0
1609045365144090890,346,1609045365144090890,-0.000143645842165,-0.000224033100952,0.000153327108393,0.0,0.0,0.0,0.0
1609045365194237947,347,1609045365194237947,-0.000143750151963,-0.000201866142449,0.000167024836195,0.0,0.0,0.0,0.0
1609045365247097015,348,1609045365247097015,-0.00014339705513,-0.000222220811009,0.000153928142327,0.0,0.0,0.0,0.0
1609045365298052072,349,1609045365298052072,-0.000289973777303,-0.000164161043404,0.000251652305939,0.0,0.0,0.0,0.0
1609045365352263927,350,1609045365352263927,-0.000238608975394,-0.000146545517003,0.0001587995778,0.0,0.0,0.0,0.0
1609045365399132013,351,1609045365399132013,-0.000164738716713,5.11952180631e-05,0.000130166816078,0.0,0.0,0.0,0.0
1609045365445996999,352,1609045365445996999,-0.000161718792484,9.34425952206e-05,0.000149783615905,0.0,0.0,0.0,0.0
1609045365495037078,353,1609045365495037078,-0.000152138813206,-0.000223501205488,0.000170775669234,0.0,0.0,0.0,0.0
1609045365546487092,354,1609045365546487092,-0.000117403245525,-8.94595050411e-05,0.000182293824222,0.0,0.0,0.0,0.0
1609045365597881078,355,1609045365597881078,-0.000130215324582,-6.24135759377e-05,-8.57046246239e-06,0.0,0.0,0.0,0.0
1609045365646147012,356,1609045365646147012,-4.31930649789e-05,-9.69450947466e-05,2.81053216096e-05,0.0,0.0,0.0,0.0
1609045365695560932,357,1609045365695560932,1.20642642116e-05,-0.000254379456404,5.40505524018e-05,0.0,0.0,0.0,0.0
1609045365745069026,358,1609045365745069026,3.67920746065e-05,-0.000173519162651,5.33896969088e-05,0.0,0.0,0.0,0.0
1609045365796155929,359,1609045365796155929,-0.000233331715911,-0.000333426977564,3.44522618576e-05,0.0,0.0,0.0,0.0
1609045365846621990,360,1609045365846621990,-0.00017366450242,-0.000215010295344,-1.38086728239e-05,0.0,0.0,0.0,0.0
1609045365897126913,361,1609045365897126913,-0.000122959642237,-4.45678113135e-05,-1.23421232683e-05,0.0,0.0,0.0,0.0
1609045365944921016,362,1609045365944921016,-0.000238365586654,-0.00018036914236,0.000137728860341,0.0,0.0,0.0,0.0
1609045365995239973,363,1609045365995239973,-0.000143611551358,-0.000357341542975,7.21479500676e-05,0.0,0.0,0.0,0.0
1609045366048154115,364,1609045366048154115,-0.000235206834375,-0.000156896157844,0.000145641753681,0.0,0.0,0.0,0.0
1609045366096672058,365,1609045366096672058,-0.000318693381182,-0.000168265454738,7.39084378445e-05,0.0,0.0,0.0,0.0
1609045366150182962,366,1609045366150182962,-0.000155069790257,-0.000208622431575,0.00018573853867,0.0,0.0,0.0,0.0
1609045366194458961,367,1609045366194458961,-6.17968897778e-05,-0.000124976891492,4.8561082691e-05,0.0,0.0,0.0,0.0
1609045366248718976,368,1609045366248718976,-0.000164223615414,-5.19246850175e-05,6.63840120279e-05,0.0,0.0,0.0,0.0
1609045366304267883,369,1609045366304267883,-0.00020703154091,-0.00018958448179,6.89410422545e-05,0.0,0.0,0.0,0.0
1609045366351551055,370,1609045366351551055,-0.000128947061498,-0.000229611822599,0.000120294721793,0.0,0.0,0.0,0.0
1609045366400369882,371,1609045366400369882,-0.000151593862906,-0.000354400597478,9.00324815838e-05,0.0,0.0,0.0,0.0
1609045366449961900,372,1609045366449961900,-0.000190298967603,-0.000119440144951,7.78812950166e-05,0.0,0.0,0.0,0.0
1609045366494605064,373,1609045366494605064,-0.000160871349625,-0.000252207803991,-6.2236310308e-05,0.0,0.0,0.0,0.0
1609045366545605897,374,1609045366545605897,-2.9962847222e-05,-9.23481060759e-05,4.22577687331e-06,0.0,0.0,0.0,0.0
1609045366602046012,375,1609045366602046012,-4.7827355921e-05,-4.9567288583e-05,6.62767169874e-05,0.0,0.0,0.0,0.0
1609045366650130987,376,1609045366650130987,5.01314811068e-05,-9.41852529941e-05,7.47634742577e-05,0.0,0.0,0.0,0.0
1609045366700925111,377,1609045366700925111,-2.70545987391e-06,-0.000214403810988,0.000108154217086,0.0,0.0,0.0,0.0
1609045366750487089,378,1609045366750487089,-0.000140711695067,-0.000190795543261,0.000167634076375,0.0,0.0,0.0,0.0
1609045366807352066,379,1609045366807352066,-3.8932797608e-06,-0.00024072856394,9.45321712429e-05,0.0,0.0,0.0,0.0
1609045366851094961,380,1609045366851094961,-0.00011703125935,-0.000216201894652,-0.00012872510834,0.0,0.0,0.0,0.0
1609045366900850057,381,1609045366900850057,-8.00324510486e-05,-7.60757769172e-05,-0.000118068435276,0.0,0.0,0.0,0.0
1609045366952191114,382,1609045366952191114,-4.19151421625e-05,-0.000259307854956,-7.32595263653e-05,0.0,0.0,0.0,0.0
1609045367002896070,383,1609045367002896070,-0.000107334234041,-7.01839092887e-05,-5.94342618871e-05,0.0,0.0,0.0,0.0
1609045367049942970,384,1609045367049942970,-0.000109643167889,-0.000135705665091,0.000138508068808,0.0,0.0,0.0,0.0
1609045367100313901,385,1609045367100313901,-1.56766546411e-06,-0.000275583186868,6.86359988045e-05,0.0,0.0,0.0,0.0
1609045367152076959,386,1609045367152076959,-8.07720694276e-05,-9.25642298917e-05,0.000106543128997,0.0,0.0,0.0,0.0
1609045367196168899,387,1609045367196168899,-9.41771659555e-05,-8.75296105018e-05,0.000136635895958,0.0,0.0,0.0,0.0
1609045367245516061,388,1609045367245516061,-0.000139815967664,-0.000239449989488,0.00013622437719,0.0,0.0,0.0,0.0
1609045367297106027,389,1609045367297106027,-0.000144474295045,-0.000231604945162,0.000150390521449,0.0,0.0,0.0,0.0
1609045367346702098,390,1609045367346702098,-0.000120458913624,-8.27924141369e-05,-4.0642143432e-05,0.0,0.0,0.0,0.0
1609045367397196054,391,1609045367397196054,-3.52764675888e-05,-0.000111949434556,3.01343943221e-06,0.0,0.0,0.0,0.0
1609045367446767091,392,1609045367446767091,-0.000120691189284,-7.93646750452e-05,-3.80882006485e-05,0.0,0.0,0.0,0.0
1609045367494817972,393,1609045367494817972,5.44412652772e-05,2.25332368409e-06,-0.00010840010159,0.0,0.0,0.0,0.0
1609045367545432090,394,1609045367545432090,-3.48305277029e-05,-9.97001429983e-05,9.56732134938e-06,0.0,0.0,0.0,0.0
1609045367597018003,395,1609045367597018003,-9.25624728794e-05,-0.000115039328517,0.000116641740417,0.0,0.0,0.0,0.0
1609045367643223047,396,1609045367643223047,-5.69856009704e-05,-9.24546476622e-05,5.86479957079e-05,0.0,0.0,0.0,0.0
1609045367694324016,397,1609045367694324016,-0.000145896307675,-0.000224691776188,0.000157464098413,0.0,0.0,0.0,0.0
1609045367743917942,398,1609045367743917942,-0.000213198836978,-0.000152130457936,0.000104165275243,0.0,0.0,0.0,0.0
1609045367797389030,399,1609045367797389030,-0.000220047371155,-0.000170499495201,0.000106797805417,0.0,0.0,0.0,0.0
1609045367846642971,400,1609045367846642971,-0.000146748547515,-0.000200845906569,0.00017369145956,0.0,0.0,0.0,0.0
1609045367896296024,401,1609045367896296024,-9.56557994307e-05,-0.000241027846753,4.62218518447e-05,0.0,0.0,0.0,0.0
1609045367945487022,402,1609045367945487022,-0.000129806962857,-0.000200300757397,0.000139862755869,0.0,0.0,0.0,0.0
1609045367995004892,403,1609045367995004892,-0.00013956541159,-0.000226999847399,0.000143294378404,0.0,0.0,0.0,0.0
1609045368046353101,404,1609045368046353101,-0.000144768076972,-0.000227170656444,0.000153680912012,0.0,0.0,0.0,0.0
1609045368094629049,405,1609045368094629049,-0.000139354878943,-0.000220449484397,0.000146855402498,0.0,0.0,0.0,0.0
1609045368146452903,406,1609045368146452903,-0.000190969645104,-0.000378864422339,0.000154543664936,0.0,0.0,0.0,0.0
1609045368194587945,407,1609045368194587945,-0.000229891330019,-0.000189386053417,0.000115155345553,0.0,0.0,0.0,0.0
1609045368246311902,408,1609045368246311902,-0.000149363357416,-0.000214936843118,0.000170390286399,0.0,0.0,0.0,0.0
1609045368296722888,409,1609045368296722888,-7.88021316716e-05,-0.000230429750344,1.86873794163e-05,0.0,0.0,0.0,0.0
1609045368346062898,410,1609045368346062898,-0.00014258833442,-0.000215068572599,0.000156649214873,0.0,0.0,0.0,0.0
1609045368397198915,411,1609045368397198915,-0.000126211124552,-0.000391019344363,1.65720575449e-05,0.0,0.0,0.0,0.0
1609045368449963092,412,1609045368449963092,-0.00027545829268,-0.000342114975611,0.000114108546596,0.0,0.0,0.0,0.0
1609045368495065927,413,1609045368495065927,-9.13007444616e-05,-0.000236162344841,4.04009232504e-05,0.0,0.0,0.0,0.0
1609045368545789957,414,1609045368545789957,-0.000140553915251,-0.000218474866534,0.000150474541494,0.0,0.0,0.0,0.0
1609045368595798969,415,1609045368595798969,-5.67224358115e-05,-0.00025764619747,0.000190761049812,0.0,0.0,0.0,0.0
1609045368648766994,416,1609045368648766994,-0.000229155400536,-0.000200830899697,0.000106707880798,0.0,0.0,0.0,0.0
1609045368694628000,417,1609045368694628000,-0.000185403002749,-0.00021337675469,1.08540957964e-05,0.0,0.0,0.0,0.0
1609045368745754003,418,1609045368745754003,-0.000142138076573,-0.000224226856718,0.000150169015294,0.0,0.0,0.0,0.0
1609045368797188043,419,1609045368797188043,-0.00022973311447,-0.000199654630034,0.000108588457131,0.0,0.0,0.0,0.0
1609045368847440958,420,1609045368847440958,-9.92179533483e-05,-7.49859247016e-05,0.000154432200162,0.0,0.0,0.0,0.0
1609045368895617008,421,1609045368895617008,-0.000164145752777,-0.000212322400669,-3.13662959517e-05,0.0,0.0,0.0,0.0
1609045368945471048,422,1609045368945471048,-5.64621037817e-05,-0.000249721542323,0.000195057840472,0.0,0.0,0.0,0.0
1609045368994884014,423,1609045368994884014,-8.86485173979e-05,-0.000282671263466,6.7553762495e-06,0.0,0.0,0.0,0.0
1609045369047439098,424,1609045369047439098,-0.000232095653363,-0.000202466004872,0.000111641628179,0.0,0.0,0.0,0.0
1609045369094839096,425,1609045369094839096,-0.000145164585675,-0.000229683106804,0.000152951730445,0.0,0.0,0.0,0.0
1609045369146532058,426,1609045369146532058,-0.000145544496032,-0.00023556192161,0.000150140835705,0.0,0.0,0.0,0.0
1609045369196144104,427,1609045369196144104,-0.000161461257676,-0.000269949264233,0.000161312087611,0.0,0.0,0.0,0.0
1609045369250893115,428,1609045369250893115,-0.000264537092132,-0.000305644390204,0.000114277431175,0.0,0.0,0.0,0.0
1609045369302752017,429,1609045369302752017,-9.10216496166e-05,-0.000298685952092,1.79653260624e-06,0.0,0.0,0.0,0.0
1609045369347803115,430,1609045369347803115,-0.000164959630979,-0.000224264110214,-3.69910259277e-05,0.0,0.0,0.0,0.0
1609045369395608901,431,1609045369395608901,-0.000174287520689,-0.000247301249665,-3.21994698353e-05,0.0,0.0,0.0,0.0
1609045369444648027,432,1609045369444648027,-0.000207996102684,-0.000303374525721,0.000234806333806,0.0,0.0,0.0,0.0
1609045369497534990,433,1609045369497534990,-0.000322711949181,-0.000208984557748,5.72360447251e-05,0.0,0.0,0.0,0.0
1609045369547123908,434,1609045369547123908,-7.67286472865e-05,-0.000246668215572,4.62643181365e-06,0.0,0.0,0.0,0.0
1609045369596710920,435,1609045369596710920,-0.000202032204403,-0.000338526110792,-3.17608961815e-05,0.0,0.0,0.0,0.0
1609045369644989967,436,1609045369644989967,-0.000261410519943,-0.000300509611433,0.000111097310018,0.0,0.0,0.0,0.0
1609045369696306943,437,1609045369696306943,-0.000185706167436,-4.88923657773e-05,0.000111545529993,0.0,0.0,0.0,0.0
1609045369745867967,438,1609045369745867967,-9.48703936281e-05,-0.000110821244055,0.000123861828916,0.0,0.0,0.0,0.0
1609045369797364950,439,1609045369797364950,-6.80922735157e-05,-0.00013720379396,5.38153148195e-05,0.0,0.0,0.0,0.0
1609045369845715999,440,1609045369845715999,-0.000181315951021,-0.000344791857575,0.000155809234348,0.0,0.0,0.0,0.0
1609045369895571947,441,1609045369895571947,-0.000127120856114,-0.000341865178568,4.83132580982e-05,0.0,0.0,0.0,0.0
1609045369948359012,442,1609045369948359012,-0.000288186994606,-0.000391351932356,0.000109816881828,0.0,0.0,0.0,0.0
1609045369994493007,443,1609045369994493007,-0.000186571001059,-0.00037664655096,0.000147023815328,0.0,0.0,0.0,0.0
1609045370046333074,444,1609045370046333074,-0.000226637299367,-0.000364610785038,0.000235135433686,0.0,0.0,0.0,0.0
1609045370094522953,445,1609045370094522953,-0.000262873720501,-0.000310770191566,0.000107804735661,0.0,0.0,0.0,0.0
1609045370147363901,446,1609045370147363901,-0.000238957311002,-0.000358029181481,0.000263981810603,0.0,0.0,0.0,0.0
1609045370196008920,447,1609045370196008920,-0.000231360490389,-0.000521273809214,0.000149340452426,0.0,0.0,0.0,0.0
1609045370244359970,448,1609045370244359970,-0.000202825537961,-0.000365170839824,0.000186781191472,0.0,0.0,0.0,0.0
1609045370297214984,449,1609045370297214984,-0.00020961596562,-0.000369717615783,0.000197706804977,0.0,0.0,0.0,0.0
1609045370346579074,450,1609045370346579074,-0.000198221351102,-8.57243035099e-05,0.000114370109156,0.0,0.0,0.0,0.0
1609045370397032976,451,1609045370397032976,-0.000233242884789,-0.000196224894218,0.000117752238628,0.0,0.0,0.0,0.0
1609045370447462081,452,1609045370447462081,-0.000248254284951,-8.44124456822e-05,0.000216053270453,0.0,0.0,0.0,0.0
1609045370494847059,453,1609045370494847059,-0.00019964432062,-0.000172442647781,0.000297631299235,0.0,0.0,0.0,0.0
1609045370545682907,454,1609045370545682907,-0.000147927329376,-0.000251784113532,0.000145075205893,0.0,0.0,0.0,0.0
1609045370597202062,455,1609045370597202062,-6.9955832263e-05,-0.00021292469278,1.15010046766e-05,0.0,0.0,0.0,0.0
1609045370648118972,456,1609045370648118972,-0.000131728332541,-0.000191705518853,0.00014896667626,0.0,0.0,0.0,0.0
1609045370696156024,457,1609045370696156024,-8.12207965772e-05,-0.000192168149571,4.68441567385e-05,0.0,0.0,0.0,0.0
1609045370745609045,458,1609045370745609045,-0.00023881435272,-7.37143663869e-05,0.000203528120947,0.0,0.0,0.0,0.0
1609045370795074939,459,1609045370795074939,-0.00019068082446,-6.77432336609e-05,0.000110106330196,0.0,0.0,0.0,0.0
1609045370847141981,460,1609045370847141981,-0.00022829950753,-3.33296469712e-05,0.000206898682743,0.0,0.0,0.0,0.0
1609045370894500017,461,1609045370894500017,-0.000223115134865,-0.00019307923947,9.92449743116e-05,0.0,0.0,0.0,0.0
1609045370945274114,462,1609045370945274114,-0.000149604124434,-0.00025304583675,0.000147688547081,0.0,0.0,0.0,0.0
1609045370996049880,463,1609045370996049880,-0.000202813772702,-0.000368836517634,0.000184527136284,0.0,0.0,0.0,0.0
1609045371044399023,464,1609045371044399023,-0.000288017143468,-0.000349824781377,0.000134740909383,0.0,0.0,0.0,0.0
1609045371096139907,465,1609045371096139907,-0.000155793475287,-0.000262681617635,0.000154305711341,0.0,0.0,0.0,0.0
1609045371145315885,466,1609045371145315885,-0.000197760531922,-0.000408031075315,0.000150490625996,0.0,0.0,0.0,0.0
1609045371195727109,467,1609045371195727109,-0.000285370856965,-0.00038495280203,0.000108031947363,0.0,0.0,0.0,0.0
1609045371243956089,468,1609045371243956089,-0.000270404260657,-0.000344546422314,0.000102438389469,0.0,0.0,0.0,0.0
1609045371297611951,469,1609045371297611951,-0.00018382156745,-0.000378319212526,0.000140462248854,0.0,0.0,0.0,0.0
1609045371346275091,470,1609045371346275091,-0.000286872781437,-0.000375762544035,0.00011665203035,0.0,0.0,0.0,0.0
1609045371395315885,471,1609045371395315885,-0.000237216225404,-0.000527155499643,0.000157569219182,0.0,0.0,0.0,0.0
1609045371445228099,472,1609045371445228099,-0.000272879819075,-0.000650300491916,0.000154556453049,0.0,0.0,0.0,0.0
1609045371494592905,473,1609045371494592905,-0.000316172925263,-0.000494182323388,0.000103681955833,0.0,0.0,0.0,0.0
1609045371547236919,474,1609045371547236919,-0.0002902801671,-0.000388122272149,0.000116002516116,0.0,0.0,0.0,0.0
1609045371596625089,475,1609045371596625089,-0.000283015667712,-0.000357783946406,0.000119813450173,0.0,0.0,0.0,0.0
1609045371644913911,476,1609045371644913911,-0.000273489568201,-0.000348983407656,0.00010595988334,0.0,0.0,0.0,0.0
1609045371695144891,477,1609045371695144891,-0.000233524631955,-0.000222082312787,0.000102587544189,0.0,0.0,0.0,0.0
1609045371750948905,478,1609045371750948905,-0.000264750495273,-0.000314730440776,0.000109179438036,0.0,0.0,0.0,0.0
1609045371797373056,479,1609045371797373056,-0.000292745675768,-0.000344547872213,0.000147486051967,0.0,0.0,0.0,0.0
1609045371845388889,480,1609045371845388889,-0.000286903699774,-0.000339797513226,0.000138596743577,0.0,0.0,0.0,0.0
1609045371894927978,481,1609045371894927978,-0.000162483109669,-0.000216818118771,0.000195699888422,0.0,0.0,0.0,0.0
1609045371948846101,482,1609045371948846101,-0.00014467681796,-0.0002281095275,0.000152925649392,0.0,0.0,0.0,0.0
1609045371996140003,483,1609045371996140003,-0.000216824222889,-0.000235984089347,0.000293610700345,0.0,0.0,0.0,0.0
1609045372044559001,484,1609045372044559001,-0.000235354999823,-0.000293955939497,0.000295703091609,0.0,0.0,0.0,0.0
1609045372095201969,485,1609045372095201969,-0.00019338860087,-8.32564942783e-05,0.000106127084907,0.0,0.0,0.0,0.0
1609045372147974014,486,1609045372147974014,-0.000222741710559,-0.000186387048288,0.000102563847914,0.0,0.0,0.0,0.0
1609045372196378946,487,1609045372196378946,-0.000115687907183,-0.000285689060755,5.94399459519e-05,0.0,0.0,0.0,0.0
1609045372244915962,488,1609045372244915962,-0.000129828982427,-0.000359388915092,4.3111785784e-05,0.0,0.0,0.0,0.0
1609045372297142982,489,1609045372297142982,-9.29841634552e-05,-0.000297332524543,6.5770965012e-06,0.0,0.0,0.0,0.0
1609045372347764015,490,1609045372347764015,-0.000273186039323,-0.000347932328006,0.000105987370993,0.0,0.0,0.0,0.0
1609045372394587039,491,1609045372394587039,-0.000106161914722,-0.000402144424381,0.000202530673027,0.0,0.0,0.0,0.0
1609045372445144891,492,1609045372445144891,-0.00017557232659,-0.000311898308492,0.000164241667045,0.0,0.0,0.0,0.0
1609045372494394063,493,1609045372494394063,-0.00018557010825,-0.000363583271257,0.000152953801884,0.0,0.0,0.0,0.0
1609045372546199083,494,1609045372546199083,-0.000184806827455,-0.000378871364441,0.000142112944625,0.0,0.0,0.0,0.0
1609045372597534894,495,1609045372597534894,-0.000276837557582,-0.000350118099551,0.000112020271851,0.0,0.0,0.0,0.0
1609045372644280910,496,1609045372644280910,-0.000164487214082,-0.000210357494277,0.000203671860612,0.0,0.0,0.0,0.0
1609045372694899082,497,1609045372694899082,-0.000180063542697,-0.000218465859945,-3.00851108648e-06,0.0,0.0,0.0,0.0
1609045372747231960,498,1609045372747231960,-0.000141680282937,-0.000227868986801,0.000147029902188,0.0,0.0,0.0,0.0
1609045372797720909,499,1609045372797720909,-0.000121668295435,-0.00039195913133,0.000239994390364,0.0,0.0,0.0,0.0
1609045372844830989,500,1609045372844830989,-0.000198336838906,-0.000366131161892,0.000177146010708,0.0,0.0,0.0,0.0
1609045372895323991,501,1609045372895323991,-0.000171353910005,-0.000379487122126,0.000114612337972,0.0,0.0,0.0,0.0
1609045372947765111,502,1609045372947765111,-0.000236853357883,-0.000224365795145,0.000107910095904,0.0,0.0,0.0,0.0
1609045372997663021,503,1609045372997663021,-0.000191785045235,-0.00037379861646,0.000159270022786,0.0,0.0,0.0,0.0
1609045373045212030,504,1609045373045212030,-0.000242924362954,-0.000468402225142,0.000204826046275,0.0,0.0,0.0,0.0
1609045373094475030,505,1609045373094475030,-0.000226149130725,-0.000362993875745,1.98024496179e-06,0.0,0.0,0.0,0.0
1609045373147219896,506,1609045373147219896,-0.00033607104255,-0.000326978760363,0.000245536266538,0.0,0.0,0.0,0.0
1609045373196997880,507,1609045373196997880,-0.000104466476454,-0.000399234120628,0.000200882775866,0.0,0.0,0.0,0.0
1609045373244755029,508,1609045373244755029,-0.000265607126739,-0.000296678713989,0.000121890073748,0.0,0.0,0.0,0.0
1609045373298949003,509,1609045373298949003,-0.000184300774105,-0.000362957467026,0.00015077512057,0.0,0.0,0.0,0.0
1609045373346467971,510,1609045373346467971,-5.87467877828e-05,-0.00024815302505,0.000200618951814,0.0,0.0,0.0,0.0
1609045373401412963,511,1609045373401412963,-0.000263960600289,-0.000316497347734,0.000106511669756,0.0,0.0,0.0,0.0
1609045373445137977,512,1609045373445137977,-0.000170709044937,-0.000376753525078,0.000114975267472,0.0,0.0,0.0,0.0
1609045373493690967,513,1609045373493690967,-0.000191176238516,-0.000376617064584,0.000156327602964,0.0,0.0,0.0,0.0
1609045373547179937,514,1609045373547179937,-0.000186487935629,-0.000368358834194,0.000151898858089,0.0,0.0,0.0,0.0
1609045373597877979,515,1609045373597877979,-0.000165216730913,-0.000507921417888,2.40948342629e-05,0.0,0.0,0.0,0.0
1609045373646017074,516,1609045373646017074,-0.000250160222322,-0.000482289466941,-2.21873835802e-05,0.0,0.0,0.0,0.0
1609045373694861888,517,1609045373694861888,-0.000174292250577,-0.000539309261555,2.32972857397e-05,0.0,0.0,0.0,0.0
1609045373746897935,518,1609045373746897935,-0.00017367889906,-0.00054127734154,2.08631421152e-05,0.0,0.0,0.0,0.0
1609045373799546003,519,1609045373799546003,-3.78022298904e-05,-0.000415439016242,5.6604416141e-05,0.0,0.0,0.0,0.0
1609045373847152948,520,1609045373847152948,-2.17295279548e-05,-0.000352086942792,6.27416413685e-05,0.0,0.0,0.0,0.0
1609045373894117116,521,1609045373894117116,-9.55583214797e-05,-0.000282849914823,2.05791951622e-05,0.0,0.0,0.0,0.0
1609045373944835901,522,1609045373944835901,-0.000356246505337,-0.000349216342682,3.95316944815e-05,0.0,0.0,0.0,0.0
1609045373996256113,523,1609045373996256113,-0.000212511181317,-0.000359280307146,-2.3259136265e-05,0.0,0.0,0.0,0.0
1609045374046961069,524,1609045374046961069,-0.000228771048263,-0.000227794324369,8.95271687789e-05,0.0,0.0,0.0,0.0
1609045374094890117,525,1609045374094890117,-0.000188116548028,-0.000365965461159,0.000156638950404,0.0,0.0,0.0,0.0
1609045374145410060,526,1609045374145410060,-0.000271765101946,-0.000340914392227,0.000107392196496,0.0,0.0,0.0,0.0
1609045374194787025,527,1609045374194787025,-0.000190079881818,-0.000371190474581,0.000157418670915,0.0,0.0,0.0,0.0
1609045374248600959,528,1609045374248600959,-0.000194525881838,-0.00036976854399,0.000167248597393,0.0,0.0,0.0,0.0
1609045374297053098,529,1609045374297053098,-0.000193729616928,-0.00037150286702,0.000164587810039,0.0,0.0,0.0,0.0
1609045374344753026,530,1609045374344753026,-0.000194906114285,-0.000395048530406,0.000152634075492,0.0,0.0,0.0,0.0
1609045374396481037,531,1609045374396481037,-0.000177366672482,-0.000378646811956,0.000127247511646,0.0,0.0,0.0,0.0
1609045374447832107,532,1609045374447832107,-0.000124889813801,-0.000384901707818,1.76299818122e-05,0.0,0.0,0.0,0.0
1609045374494695901,533,1609045374494695901,-0.00032778488201,-0.000500557497794,0.000123217152842,0.0,0.0,0.0,0.0
1609045374544497013,534,1609045374544497013,-0.000199760629314,-0.000484180257757,0.000108192216656,0.0,0.0,0.0,0.0
1609045374595689058,535,1609045374595689058,-0.000252955246708,-0.000511855514285,-3.45401703026e-05,0.0,0.0,0.0,0.0
1609045374645555019,536,1609045374645555019,-0.0001225515445,-0.00039057999015,9.46040589866e-06,0.0,0.0,0.0,0.0
1609045374698991060,537,1609045374698991060,-1.6363723045e-05,-0.000263059837136,-0.000127062184111,0.0,0.0,0.0,0.0
1609045374744071960,538,1609045374744071960,-0.000120394147999,-0.000388419410815,6.42491308689e-06,0.0,0.0,0.0,0.0
1609045374859023094,539,1609045374859023094,-0.000201265862138,-0.00032831445437,-2.70930297557e-05,0.0,0.0,0.0,0.0
1609045374897727012,540,1609045374897727012,-0.000164682176919,-0.000206875241673,-2.6970422482e-05,0.0,0.0,0.0,0.0
1609045374946129083,541,1609045374946129083,-0.000198833791746,-0.000326984840832,-3.1187938216e-05,0.0,0.0,0.0,0.0
1609045374994579076,542,1609045374994579076,-0.000130264484557,-0.000398056179728,2.04636203804e-05,0.0,0.0,0.0,0.0
1609045375045233011,543,1609045375045233011,-0.000177008964126,-0.000235394611309,-1.94676825007e-05,0.0,0.0,0.0,0.0
1609045375096934080,544,1609045375096934080,-0.000205348774081,-0.000165290010141,8.03298339509e-05,0.0,0.0,0.0,0.0
1609045375144406080,545,1609045375144406080,-0.000115961734309,-6.36538891019e-05,-3.80651749499e-05,0.0,0.0,0.0,0.0
1609045375193680047,546,1609045375193680047,-0.000211418430794,-3.92151756543e-05,-6.38752575988e-05,0.0,0.0,0.0,0.0
1609045375247442007,547,1609045375247442007,-0.000129614481985,-6.68877643353e-05,-1.25042819477e-05,0.0,0.0,0.0,0.0
1609045375299036979,548,1609045375299036979,6.76136801658e-06,-0.000263038495127,5.94744973679e-05,0.0,0.0,0.0,0.0
1609045375345236063,549,1609045375345236063,-3.24005173837e-05,-9.55402732359e-05,7.19866887877e-06,0.0,0.0,0.0,0.0
1609045375397099018,550,1609045375397099018,-1.77743403924e-05,-4.43255291245e-05,8.86899520047e-06,0.0,0.0,0.0,0.0
1609045375444350957,551,1609045375444350957,-0.000161311082842,-0.000193520412195,-2.56420924778e-05,0.0,0.0,0.0,0.0
1609045375495584964,552,1609045375495584964,-1.00336129414e-05,-0.000260108695111,9.51215446658e-05,0.0,0.0,0.0,0.0
1609045375545770883,553,1609045375545770883,-5.20873707863e-05,-8.67162151934e-05,5.22630319164e-05,0.0,0.0,0.0,0.0
1609045375596366882,554,1609045375596366882,-0.000263160768775,-0.000313499693098,0.000106722800291,0.0,0.0,0.0,0.0
1609045375645979881,555,1609045375645979881,-0.000143650466452,-0.00037441488994,6.18384547888e-05,0.0,0.0,0.0,0.0
1609045375698548078,556,1609045375698548078,-0.00018420168421,-0.000340650579817,0.000164147639509,0.0,0.0,0.0,0.0
1609045375744400024,557,1609045375744400024,-0.00013832501179,-0.000215255017158,0.000147939366109,0.0,0.0,0.0,0.0
1609045375797063112,558,1609045375797063112,-0.000157012068694,-0.000330072069609,0.00011575984025,0.0,0.0,0.0,0.0
1609045375848639011,559,1609045375848639011,-0.000118457246344,-0.000371656284097,1.27186138972e-05,0.0,0.0,0.0,0.0
1609045375898194074,560,1609045375898194074,-0.000252559741966,-0.0001878611333,-7.13630984297e-05,0.0,0.0,0.0,0.0
1609045375945521116,561,1609045375945521116,-0.000125429404406,-0.000230617167558,0.000112590172963,0.0,0.0,0.0,0.0
1609045375996925115,562,1609045375996925115,-0.000238699926424,-0.000220115751381,0.000114219362034,0.0,0.0,0.0,0.0
1609045376060342073,563,1609045376060342073,-0.000168328251821,-0.000176738151831,-1.28207218175e-06,0.0,0.0,0.0,0.0
1609045376100802898,564,1609045376100802898,-6.57254025178e-05,-0.000211288116748,3.96678720804e-06,0.0,0.0,0.0,0.0
1609045376144969940,565,1609045376144969940,-7.46717822722e-05,-0.000231097430801,9.952950764e-06,0.0,0.0,0.0,0.0
1609045376195314884,566,1609045376195314884,-5.87937604273e-05,-0.000245348107835,0.000202420305264,0.0,0.0,0.0,0.0
1609045376261466979,567,1609045376261466979,-0.000141792677699,-0.000224394181012,0.00014937075813,0.0,0.0,0.0,0.0
1609045376303250074,568,1609045376303250074,-0.000231279420568,-0.000191949789761,0.000116394347307,0.0,0.0,0.0,0.0
1609045376345372915,569,1609045376345372915,-0.000230461810784,-0.000183998129321,0.000119583904732,0.0,0.0,0.0,0.0
1609045376394061088,570,1609045376394061088,-0.000233490498879,-0.000187718976857,0.000123426910179,0.0,0.0,0.0,0.0
1609045376444808959,571,1609045376444808959,-0.000146990116914,-0.000386412901106,6.12724090878e-05,0.0,0.0,0.0,0.0
1609045376498387098,572,1609045376498387098,-0.000170608846695,-0.0003383620269,0.000138131947617,0.0,0.0,0.0,0.0
1609045376544451951,573,1609045376544451951,-0.000122756728764,-0.000393627041509,8.0202187025e-06,0.0,0.0,0.0,0.0
1609045376596111059,574,1609045376596111059,-4.88385895885e-05,-0.000309884416803,0.000143080483021,0.0,0.0,0.0,0.0
1609045376644843101,575,1609045376644843101,-0.00024648272198,-0.000235425685213,0.000120597095957,0.0,0.0,0.0,0.0
1609045376697427034,576,1609045376697427034,-0.000324587651541,-0.000498161234074,0.000118228292585,0.0,0.0,0.0,0.0
1609045376745548009,577,1609045376745548009,-0.000306301543652,-0.00044466906472,0.000113902760672,0.0,0.0,0.0,0.0
1609045376796905994,578,1609045376796905994,-0.000189577927124,-0.000367786197804,0.000158477827251,0.0,0.0,0.0,0.0
1609045376844100952,579,1609045376844100952,-0.000206147509076,-0.000408391918178,0.000167182314515,0.0,0.0,0.0,0.0
1609045376897999048,580,1609045376897999048,-0.000191487220185,-0.000369572490458,0.000161240821063,0.0,0.0,0.0,0.0
1609045376943955898,581,1609045376943955898,-0.000196693129674,-0.000391669005243,0.000158293571268,0.0,0.0,0.0,0.0
1609045376996313095,582,1609045376996313095,-0.000303453943729,-0.000432496283675,0.000115567212868,0.0,0.0,0.0,0.0
1609045377044645071,583,1609045377044645071,-0.000190749860693,-0.000368777748777,0.000160237581783,0.0,0.0,0.0,0.0
1609045377097724914,584,1609045377097724914,-0.000202477559533,-0.00047230167551,0.00012089776604,0.0,0.0,0.0,0.0
1609045377145401000,585,1609045377145401000,-0.000186963422514,-0.000367487037995,0.000153388045288,0.0,0.0,0.0,0.0
1609045377196898937,586,1609045377196898937,-0.000189351108595,-0.000360159844613,0.000162660622481,0.0,0.0,0.0,0.0
1609045377244501113,587,1609045377244501113,-0.000274577836187,-0.000337518703768,0.000115129757017,0.0,0.0,0.0,0.0
1609045377298620939,588,1609045377298620939,-0.000329319540391,-0.00032016173437,0.000236070373736,0.0,0.0,0.0,0.0
1609045377346426010,589,1609045377346426010,-0.000188289317606,-0.000362130156406,0.000159320852884,0.0,0.0,0.0,0.0
1609045377396325111,590,1609045377396325111,-0.00010023142725,-0.000391701036158,0.000196926753896,0.0,0.0,0.0,0.0
1609045377444871902,591,1609045377444871902,-0.000191962039334,-0.000367565603248,0.000163419292505,0.0,0.0,0.0,0.0
1609045377495747089,592,1609045377495747089,-0.000340896026113,-0.000487272458262,0.000157737097872,0.0,0.0,0.0,0.0
1609045377547000885,593,1609045377547000885,-0.000271098084273,-0.000390436214257,0.000309072411561,0.0,0.0,0.0,0.0
1609045377596565961,594,1609045377596565961,-0.000316236966537,-0.000360129231415,0.000418530718985,0.0,0.0,0.0,0.0
1609045377644913911,595,1609045377644913911,-0.0003384894456,-0.000316290504113,0.000256915901696,0.0,0.0,0.0,0.0
1609045377696410894,596,1609045377696410894,-0.000216408308205,-0.000225894771841,0.000298910907095,0.0,0.0,0.0,0.0
1609045377749126911,597,1609045377749126911,-0.000214303927386,-0.000222608721115,0.000296667058148,0.0,0.0,0.0,0.0
1609045377798710107,598,1609045377798710107,-0.000232601816315,-0.000184515418759,0.000123584194782,0.0,0.0,0.0,0.0
1609045377845784902,599,1609045377845784902,-0.000257610224551,-0.000346781953478,0.000308436638869,0.0,0.0,0.0,0.0
1609045377894594907,600,1609045377894594907,-0.000287985135248,-0.000289949656533,0.000171106692317,0.0,0.0,0.0,0.0
1609045377947829961,601,1609045377947829961,-0.000227455817981,-0.000188865660984,0.000110561097546,0.0,0.0,0.0,0.0
1609045377995965003,602,1609045377995965003,-0.000141056986859,-0.000208243780952,0.000157713978759,0.0,0.0,0.0,0.0
1609045378046899080,603,1609045378046899080,-0.000157803253398,-0.000210527164878,0.000190091279906,0.0,0.0,0.0,0.0
1609045378096461057,604,1609045378096461057,-0.000180214933213,-0.000338614020174,0.000157348003475,0.0,0.0,0.0,0.0
1609045378145754098,605,1609045378145754098,-0.000132285716109,-5.65396612426e-05,-8.2186536865e-07,0.0,0.0,0.0,0.0
1609045378196264982,606,1609045378196264982,-0.000273694481649,-0.000349413000292,0.000106111684982,0.0,0.0,0.0,0.0
1609045378245448112,607,1609045378245448112,-0.000188253418035,-0.000359412452644,0.000160902014438,0.0,0.0,0.0,0.0
1609045378297920942,608,1609045378297920942,-0.000145023715799,-0.000214375587175,0.000161981475765,0.0,0.0,0.0,0.0
1609045378346129894,609,1609045378346129894,-0.000139433652297,-0.00042918708523,2.0010962432e-05,0.0,0.0,0.0,0.0
1609045378395502090,610,1609045378395502090,-0.000185980878506,-0.000380612734851,0.000143420751709,0.0,0.0,0.0,0.0
1609045378445118904,611,1609045378445118904,-0.00014515220191,-0.000543437837246,0.000195182378025,0.0,0.0,0.0,0.0
1609045378496375083,612,1609045378496375083,-0.000231706780035,-0.000510031492645,0.000156878802969,0.0,0.0,0.0,0.0
1609045378547460079,613,1609045378547460079,-0.000276845918368,-0.000333285516232,0.000122278668414,0.0,0.0,0.0,0.0
1609045378596270084,614,1609045378596270084,-0.000226794620922,-0.000218489540321,9.12034043345e-05,0.0,0.0,0.0,0.0
1609045378645562887,615,1609045378645562887,-0.000191526968241,-0.000366884766047,0.000162956274393,0.0,0.0,0.0,0.0
1609045378696988105,616,1609045378696988105,-0.000258005811418,-0.000343953586841,0.000310955198428,0.0,0.0,0.0,0.0
1609045378745137929,617,1609045378745137929,-0.000276416182796,-0.000339510939545,0.000117624392768,0.0,0.0,0.0,0.0
1609045378811500072,618,1609045378811500072,-0.000141663931661,-0.000244944899729,0.000136607199593,0.0,0.0,0.0,0.0
1609045378844343900,619,1609045378844343900,-9.50624578842e-05,-0.000223566396832,5.56497175275e-05,0.0,0.0,0.0,0.0
1609045378897191047,620,1609045378897191047,-0.000146211100493,-0.00021653348368,0.000163062713117,0.0,0.0,0.0,0.0
1609045378945806980,621,1609045378945806980,-3.68735607026e-05,-0.000184652377234,0.000195151393481,0.0,0.0,0.0,0.0
1609045378997303962,622,1609045378997303962,-9.97605454494e-05,-6.50926361843e-05,0.00016154589367,0.0,0.0,0.0,0.0
1609045379045480012,623,1609045379045480012,-0.000175873085553,-4.60365669639e-05,9.34561317507e-05,0.0,0.0,0.0,0.0
1609045379095868110,624,1609045379095868110,-9.85195531129e-05,-6.5358162308e-05,0.000158882043328,0.0,0.0,0.0,0.0
1609045379149281978,625,1609045379149281978,-0.000219249563845,-0.000155793344222,0.000114137057844,0.0,0.0,0.0,0.0
1609045379196321964,626,1609045379196321964,-9.91279689728e-05,-6.26195857851e-05,0.000161775134723,0.0,0.0,0.0,0.0
1609045379245899915,627,1609045379245899915,-0.000116018466105,-0.000110120548168,0.000166930294323,0.0,0.0,0.0,0.0
1609045379297871112,628,1609045379297871112,-0.000127067608084,-5.77163042745e-05,-1.20592743897e-05,0.0,0.0,0.0,0.0
1609045379346678972,629,1609045379346678972,-1.61411301853e-05,7.60971621965e-05,7.88479502347e-05,0.0,0.0,0.0,0.0
1609045379395890951,630,1609045379395890951,-9.72509114234e-05,-6.73012288335e-05,0.000155141732598,0.0,0.0,0.0,0.0
1609045379445354938,631,1609045379445354938,-0.000155064298333,-2.85490627547e-05,0.000295294226737,0.0,0.0,0.0,0.0
1609045379495228052,632,1609045379495228052,-0.000189823950809,-3.51384357629e-05,0.000128217139491,0.0,0.0,0.0,0.0
1609045379547849893,633,1609045379547849893,-0.000141154601774,-5.363654547e-05,1.88272514841e-05,0.0,0.0,0.0,0.0
1609045379597284078,634,1609045379597284078,-4.54503274376e-05,-7.62291661651e-05,4.52613327138e-05,0.0,0.0,0.0,0.0
1609045379644557952,635,1609045379644557952,-3.72307651375e-05,-8.32505688262e-05,2.44157287419e-05,0.0,0.0,0.0,0.0
1609045379694416999,636,1609045379694416999,-0.000185000843334,-3.73410478876e-05,0.000117151812104,0.0,0.0,0.0,0.0
1609045379745194911,637,1609045379745194911,-2.94895374147e-05,-8.79385286492e-05,5.95442518758e-06,0.0,0.0,0.0,0.0
1609045379799496889,638,1609045379799496889,-9.34851344567e-05,-0.000291056830072,1.14055703548e-05,0.0,0.0,0.0,0.0
1609045379847719907,639,1609045379847719907,-0.000180316146736,-0.000323566012293,0.000166707866558,0.0,0.0,0.0,0.0
1609045379894694089,640,1609045379894694089,-0.000139831781777,-0.000382180031082,4.94141051384e-05,0.0,0.0,0.0,0.0
1609045379945230960,641,1609045379945230960,-0.000194960191116,-0.000246753323866,9.81710878456e-06,0.0,0.0,0.0,0.0
1609045379997067928,642,1609045379997067928,-0.000147306723548,-0.000217462492863,0.000164706637577,0.0,0.0,0.0,0.0
1609045380047360897,643,1609045380047360897,-0.00014632392946,-0.000216563461514,0.000163271977641,0.0,0.0,0.0,0.0
1609045380095144033,644,1609045380095144033,-0.000290246938707,-0.000159953313551,0.000254763314215,0.0,0.0,0.0,0.0
1609045380144865989,645,1609045380144865989,-0.000292642941162,-0.00016732124176,0.000255111542781,0.0,0.0,0.0,0.0
1609045380194926977,646,1609045380194926977,-0.000270033431519,-0.000306329517691,0.000124943214235,0.0,0.0,0.0,0.0
1609045380249620914,647,1609045380249620914,-0.000102712854822,-5.85438733118e-05,0.00017148346072,0.0,0.0,0.0,0.0
1609045380297921895,648,1609045380297921895,-0.000127864448544,-0.000187036479016,0.000144016552795,0.0,0.0,0.0,0.0
1609045380346463918,649,1609045380346463918,-0.000265002565243,-0.000139313086516,0.000216419570757,0.0,0.0,0.0,0.0
1609045380396819114,650,1609045380396819114,-0.000270738303477,-0.000175546528475,0.000205938682727,0.0,0.0,0.0,0.0
1609045380447268962,651,1609045380447268962,-0.000122218795291,-0.00021940250091,0.000112939929107,0.0,0.0,0.0,0.0
1609045380498025894,652,1609045380498025894,-2.96436930576e-05,-0.000365783321623,7.03659995036e-05,0.0,0.0,0.0,0.0
1609045380546175003,653,1609045380546175003,-0.000164871246461,-0.000204676042459,-2.52511160568e-05,0.0,0.0,0.0,0.0
1609045380596021890,654,1609045380596021890,-0.000198640318541,-0.000323966408777,-2.97415411747e-05,0.0,0.0,0.0,0.0
1609045380647799015,655,1609045380647799015,-8.31257504927e-05,-0.000230620367594,2.72892897524e-05,0.0,0.0,0.0,0.0
1609045380696449995,656,1609045380696449995,-0.000214413070573,-0.000191868488709,8.24351537148e-05,0.0,0.0,0.0,0.0
1609045380744625091,657,1609045380744625091,-0.000202442483619,-0.000155042757241,8.07046180036e-05,0.0,0.0,0.0,0.0
1609045380798437118,658,1609045380798437118,-0.000120252533609,-0.000183873339804,0.000130592794585,0.0,0.0,0.0,0.0
1609045380846049070,659,1609045380846049070,-0.000160754736534,-0.000249449049294,0.00017236069789,0.0,0.0,0.0,0.0
1609045380897706985,660,1609045380897706985,-0.000290101649497,-0.000356876372681,0.000134653610708,0.0,0.0,0.0,0.0
1609045380946223020,661,1609045380946223020,-0.000265636201362,-0.000339871851594,9.56684129783e-05,0.0,0.0,0.0,0.0
1609045380996577978,662,1609045380996577978,-0.000231699595489,-0.000505777920846,0.000159452297442,0.0,0.0,0.0,0.0
1609045381045888900,663,1609045381045888900,-0.000191962286106,-0.000366408421932,0.000164123860323,0.0,0.0,0.0,0.0
1609045381098649978,664,1609045381098649978,-0.000213309121104,-0.000350650207993,-1.63994164719e-05,0.0,0.0,0.0,0.0
1609045381145862102,665,1609045381145862102,-9.94912238319e-05,-5.32940026012e-05,0.000168181806814,0.0,0.0,0.0,0.0
1609045381196419000,666,1609045381196419000,-6.19099101939e-05,6.33731388628e-05,0.000163391797816,0.0,0.0,0.0,0.0
1609045381244828939,667,1609045381244828939,-0.000103476424826,-5.59092878536e-05,0.000174626129171,0.0,0.0,0.0,0.0
1609045381299982070,668,1609045381299982070,-0.000126148817397,-0.000187962464343,0.000139993808013,0.0,0.0,0.0,0.0
1609045381345902919,669,1609045381345902919,-0.000172804523547,-0.000168795990204,1.25759825007e-05,0.0,0.0,0.0,0.0
1609045381396466970,670,1609045381396466970,-0.000250591439023,-0.000246148621237,0.000122357484718,0.0,0.0,0.0,0.0
1609045381445837974,671,1609045381445837974,-0.000231480401563,-0.000177569928304,0.000125548974532,0.0,0.0,0.0,0.0
1609045381495883941,672,1609045381495883941,-0.000168861752005,-0.000202403360435,-1.58221084856e-05,0.0,0.0,0.0,0.0
1609045381548156976,673,1609045381548156976,-8.23594405048e-05,-0.000230714830703,2.56866720694e-05,0.0,0.0,0.0,0.0
1609045381596800088,674,1609045381596800088,-8.67174565684e-05,-0.000173769127434,-0.000164029832744,0.0,0.0,0.0,0.0
1609045381645379066,675,1609045381645379066,-0.000155998585992,-0.000173264183056,-2.40291826721e-05,0.0,0.0,0.0,0.0
1609045381694451093,676,1609045381694451093,-0.000128399020966,-0.000214963601815,0.000128102297484,0.0,0.0,0.0,0.0
1609045381749138116,677,1609045381749138116,-0.000147535920782,-0.000209382989741,0.000170084728103,0.0,0.0,0.0,0.0
1609045381797086954,678,1609045381797086954,-0.000105736014071,-0.000391120833754,0.000208379041323,0.0,0.0,0.0,0.0
1609045381845530033,679,1609045381845530033,-0.000188174467269,-0.000363262106765,0.000158400553444,0.0,0.0,0.0,0.0
1609045381894654035,680,1609045381894654035,-0.00015684005891,-0.000237860147484,0.000171518473513,0.0,0.0,0.0,0.0
1609045381948090076,681,1609045381948090076,-0.000146039441844,-0.000217587160202,0.000162075481343,0.0,0.0,0.0,0.0
1609045381997616052,682,1609045381997616052,-3.3991421585e-05,-8.63515549892e-05,1.59973270044e-05,0.0,0.0,0.0,0.0
1609045382045392036,683,1609045382045392036,-9.88971161533e-05,-5.739981688e-05,0.000164485656958,0.0,0.0,0.0,0.0
1609045382094460964,684,1609045382094460964,-0.000148374064185,-0.000212256744446,0.000170026205545,0.0,0.0,0.0,0.0
1609045382148103952,685,1609045382148103952,-6.74071171005e-05,-0.000181577012148,2.54351514677e-05,0.0,0.0,0.0,0.0
1609045382196417093,686,1609045382196417093,-0.000143545486935,-0.000210329406107,0.000161462710789,0.0,0.0,0.0,0.0
1609045382245547056,687,1609045382245547056,-0.000149067822502,-0.00020591969554,0.000175280835045,0.0,0.0,0.0,0.0
1609045382298424005,688,1609045382298424005,-0.000301586734178,-0.000449811045117,0.000101267445213,0.0,0.0,0.0,0.0
1609045382347987890,689,1609045382347987890,-0.000144001270236,-0.00020437379164,0.000166005410453,0.0,0.0,0.0,0.0
1609045382396327972,690,1609045382396327972,-0.00022838495476,-0.000181937292391,0.000116650114498,0.0,0.0,0.0,0.0
1609045382445250034,691,1609045382445250034,-0.000146528190648,-0.000210303657527,0.000167492597855,0.0,0.0,0.0,0.0
1609045382495452880,692,1609045382495452880,-0.000157268437221,-0.00031955597618,0.000122675147447,0.0,0.0,0.0,0.0
1609045382547909975,693,1609045382547909975,-9.18229313065e-05,-0.000257612596162,2.84026738324e-05,0.0,0.0,0.0,0.0
1609045382596805095,694,1609045382596805095,-0.000195262739723,-0.000358382570294,0.000175662012449,0.0,0.0,0.0,0.0
1609045382645539999,695,1609045382645539999,-0.00024545051523,-0.000216012074151,0.000130327879763,0.0,0.0,0.0,0.0
1609045382694777011,696,1609045382694777011,-0.000187074523947,-0.000334580856791,0.000173633392995,0.0,0.0,0.0,0.0
1609045382747342109,697,1609045382747342109,-0.00018759614688,-0.000337145714468,0.000173124620423,0.0,0.0,0.0,0.0
1609045382797645092,698,1609045382797645092,-0.000232062871753,-0.000187818137698,0.00012048795803,0.0,0.0,0.0,0.0
1609045382845799922,699,1609045382845799922,-0.00026862900528,-0.000307982435377,0.000121105675888,0.0,0.0,0.0,0.0
1609045382893939971,700,1609045382893939971,-9.34047454777e-05,-0.000354177459295,0.000205992378755,0.0,0.0,0.0,0.0
1609045382948976039,701,1609045382948976039,-0.00023091347887,-0.000186634580453,0.00011889049332,0.0,0.0,0.0,0.0
1609045382996068000,702,1609045382996068000,-0.000146993507443,-0.000212553036185,0.000167062220012,0.0,0.0,0.0,0.0
1609045383045109987,703,1609045383045109987,-0.00017818779305,-0.000315001579891,0.000167627256866,0.0,0.0,0.0,0.0
1609045383096604108,704,1609045383096604108,-0.000168025670021,-0.00020585537078,-1.96082735346e-05,0.0,0.0,0.0,0.0
1609045383148406028,705,1609045383148406028,-0.00022902954581,-0.000185046441569,0.000116058094418,0.0,0.0,0.0,0.0
1609045383195504903,706,1609045383195504903,-0.000122762632142,-0.000213645534849,0.000117539289764,0.0,0.0,0.0,0.0
1609045383245735883,707,1609045383245735883,-0.000145816457628,-0.000207046257005,0.000168039438611,0.0,0.0,0.0,0.0
1609045383298280000,708,1609045383298280000,-0.000121755777585,-0.000370342357975,2.01690139541e-05,0.0,0.0,0.0,0.0
1609045383349786043,709,1609045383349786043,-0.000228566723706,-0.000180515293948,0.000117881837035,0.0,0.0,0.0,0.0
